customer_id,customer_name,zone_id,AdditionalNum,AgentId,AgentName,Area,AssignmentType,BL,BLExpiryDate,BuildingNumber,BuyerPhone,CH,CR,CRExpiryDate,CheckIn,City,CreationType,CreditDays,CreditLimit,CusId,CusName,DC,Days,DistrictName,F,FinancePhone,Full Corrected Address,Geocode Quality,Latitude,Longitude,PaymentType,ReceiverPhone,Region,StartWeeks,Status,StreetName,SubChannel,TotalDeliveredOrders,VAT,Validation,ZipCode,Zone,createdDate
CS000021,مخابز وتموينات سلة بلادي,JEDC08,6437,AG00313,Khaled Salama,Jeddah,Zone,"4,104,262,497",2018-09-11,5194,"509,850,203",Traditional Trade,"4,030,281,500",2018-09-11,Required,جدة,Agent Registration,0,0.0000000,CS000021,مخابز وتموينات سلة بلادي,JEDDAH,SUN,البساتين,,,,,21.69426,39.11712,,,West,2,In-Active,الامام البخاري,Medium Grocery,12,"300,439,981,600,003",Approved by Finance,23719,JED001,2023-07-05
CS000023,مركز بن ستين للتموينات,JEDC06,8833,AG00313,Khaled Salama,Jeddah,Zone,"3,911,132,624",,5274,"538,273,327",Traditional Trade,"4,030,347,269",,Required,جدة,Agent Registration,0,0.0000000,CS000023,مركز بن ستين للتموينات,JEDDAH,SUN,البساتين,,,,,21.68000,39.12000,,,West,2,In-Active,البساتين,Small Grocery,0,"301,207,274,200,003",Approved by Finance,23718,JED001,2023-07-05
CS000025,اسواق ومخابز قارة الخير,JEDC08,8088,AG00313,Khaled Salama,Jeddah,Zone,"325,170",,2914,0,Traditional Trade,"4,030,279,248",,Required,جدة,Agent Registration,0,0.0000000,CS000025,اسواق ومخابز قارة الخير,JEDDAH,THU,النعيم,,,,,21.59454,39.14779,,,West,2,In-Active,شارع حراء,Medium Grocery,0,"311,218,395,300,003",Approved by Finance,23526,JED001,2023-07-05
CS000026,تموينات النجوم,JEDC02,8632,AG00313,Khaled Salama,Jeddah,Zone,"4,409,120,051",,3166,1,Traditional Trade,"4,030,232,297",,Required,جدة,Agent Registration,0,0.0000000,CS000026,تموينات النجوم,JEDDAH,TUE,النعيم,,,,,21.62000,39.15000,,,West,2,In-Active,محمد زيدان,Small Grocery,0,"300,708,786,500,003",Approved by Finance,23526,JED001,2023-07-05
CS000027,تموينات البيوتات,JEDC02,2799,AG00313,Khaled Salama,Jeddah,Zone,"4,209,553,125",,8864,"598,131,058",,"4,030,406,984",,Required,جدة,Agent Registration,0,0.0000000,CS000027,تموينات البيوتات,JEDDAH,TUE,النعيم,,,,,21.62000,39.15000,,,West,2,In-Active,حسان بن خوط,,0,"302,007,452,700,003",Approved by Finance,23526,JED001,2023-07-05
CS000028,تموينات جوهرة غرناطة,JEDC02,8928,AG00313,Khaled Salama,Jeddah,Zone,"3,911,133,431",,2989,2,Traditional Trade,"4,030,384,168",,Required,جدة,Agent Registration,0,0.0000000,CS000028,تموينات جوهرة غرناطة,JEDDAH,TUE,النعيم,,,,,21.62000,39.15000,,,West,2,In-Active,النعيم,Small Grocery,0,"300,100,408,100,003",Approved by Finance,23526,JED001,2023-07-05
CS000029,مركز غرناطة,JEDC02,3044,AG00294,Biju  Poochothiyil,Jeddah,Zone,"4,402,105,475",,6270,"550,407,438",,"7,017,912,309",,Required,جدة,Agent Registration,0,0.0000000,CS000029,مركز غرناطة,JEDDAH,MON,مشرفة,,,,,21.55000,39.21000,,,West,2,In-Active,الصحافه,,0,"311,255,287,400,003",Approved by Finance,23341,JED002,2023-07-06
CS000030,تموينات سلةالسراياللموادالغذائية,JEDC01,3616,AG00294,Biju  Poochothiyil,Jeddah,Zone,"4,307,936,078",,7505,"552,173,645",Traditional Trade,"4,030,383,480",,Required,جدة,Agent Registration,0,0.0000000,CS000030,تموينات سلةالسراياللموادالغذائية,JEDDAH,SAT,مريخ,,,,,21.54741,39.29102,,,West,2,In-Active,بن ثعلبة,Medium Grocery,9,"311,313,300,600,003",Approved by Finance,22821,JED002,2023-07-06
CS000037,تموينات الياقوت,JEDC07,3520,AG00294,Biju  Poochothiyil,Jeddah,Zone,"4,101,256,165",2024-07-22,7647,"551,231,956",Traditional Trade,"7,015,724,144",2025-07-02,Required,جدة,Agent Registration,0,0.0000000,CS000037,تموينات الياقوت,JEDDAH,THU,الاجاويد,,,,,21.40173,39.29344,,,West,2,In-Active,العام,Large Grocery,8,"310,136,525,800,003",Approved by Finance,22443,JED002,2023-07-10
CS000039,سكنى,JEDC02,00,AG00313,Khaled Salama,Jeddah,Zone,"12,345,678,911",,00,"553,613,003",Horca,"4,030,379,462",,Required,جدة,Agent Registration,0,0.0000000,CS000039,سكنى,JEDDAH,TUE,النهضة,,,,,21.65544,39.12473,,,West,2,In-Active,محمد بن ابي بكر,Restaurant,6,"310,605,679,700,003",Approved by Finance,00,JED001,2023-07-26
CS000040,تموينات الخير,JEDC08,00,AG00313,Khaled Salama,Jeddah,Zone,"1,288,485,145,644",,00,"7,417,411,523",Traditional Trade,"1,045,215,485",,Required,جدة,Agent Registration,0,0.0000000,CS000040,تموينات الخير,JEDDAH,SUN,الخالدية,,,,,21.71107,39.11248,,,West,2,In-Active,00,Medium Grocery,0,"311,111,111,111,113",Needs Revise,123456,JED001,2023-07-29
CS000047,غيث الزاد الغذائية,JEDC08,00,AG00313,Khaled Salama,Jeddah,Zone,"460,116,210,795",2025-06-30,00,"551,064,045",,"4,030,505,366",2026-03-20,Required,جدة,Agent Registration,0,0.0000000,CS000047,غيث الزاد الغذائية,JEDDAH,SAT,ابحر الجنوبية,,,,,21.73783,39.13194,,,West,2,In-Active,طريق الملك عبدالعزيز,,1,"311,095,863,600,003",Approved by Finance,23733,JED001,2023-07-30
CS000048,تموينات مكان الشامل,JEDC05,0,AG00294,Biju  Poochothiyil,Jeddah,Zone,"41,113,630,537",2026-06-12,0,"546,096,531",,"4,030,524,930",2586-11-28,Required,جدة,Agent Registration,0,0.0000000,CS000048,تموينات مكان الشامل,JEDDAH,TUE,الصفا,,,,,21.56746,39.21107,Credit,,West,1,In-Active,الامير متعب,,12,"311,818,558,100,003",Approved by Finance,23322,JED002,2024-09-15
CS000051,أسواق ومخابز سارة الفضية,JEDC05,00,AG00294,Biju  Poochothiyil,Jeddah,Zone,"39,111,433,634",2024-12-07,3,"582,930,162",,"4,030,488,050",2025-09-07,Required,جدة,Agent Registration,0,0.0000000,CS000051,أسواق ومخابز سارة الفضية,JEDDAH,TUE,الصفا,,,,,21.56587,39.21138,,,West,1,In-Active,طريق الامير متعب,,8,"311,282,772,200,003",Approved by Finance,62441,JED002,2023-07-30
CS000052,تموين الوقداني  1,JEDC08,0,AG00313,Khaled Salama,Jeddah,Zone,"440,911,990,077",2025-03-20,0,"500,566,713",Traditional Trade,"4,030,594,348",2025-07-09,Required,جدة,Agent Registration,0,0.0000000,CS000052,تموين الوقداني  1,JEDDAH,SAT,ابحر الجنوبية,,,,,21.74512,39.14083,Credit,,West,2,In-Active,شارع,Medium Grocery,8,"310,132,245,700,003",Approved by Finance,23734,JED001,2024-09-15
CS000053,تموينات خيرات البستان الغربيه,JEDC07,00,AG00294,Biju  Poochothiyil,Jeddah,Zone,"7,015,793,164",,1,"536,542,953",,"4,030,364,044",,Required,جدة,Agent Registration,0,0.0000000,CS000053,تموينات خيرات البستان الغربيه,JEDDAH,SAT,البستان,,,,,21.48922,39.30299,,,West,2,In-Active,البستان,,0,"301,004,503,800,003",Approved by Finance,22354,JED002,2023-07-30
CS000054,تموينات و ريف الخير للمواد الغذائيه,JEDC04,0,AG00294,Biju  Poochothiyil,Jeddah,Zone,"42,065,200,630",2024-12-21,0,"567,918,584",Traditional Trade,"4,030,402,150",2024-11-19,Required,جدة,Agent Registration,15,500.0000000,CS000054,تموينات و ريف الخير للمواد الغذائيه,JEDDAH,SUN,البوادي,,,,,21.59019,39.16707,Credit,,West,1,In-Active,البودي المثلم,Medium Grocery,35,"310,807,568,400,003",Approved by Finance,23533,JED002,2024-09-15
CS000055,مركز العليا للتسويق,JEDC08,00,AG00313,Khaled Salama,Jeddah,Zone,"39,111,323,499",2025-03-23,0,"558,449,053",Traditional Trade,"4,030,350,365",2025-01-20,Required,جدة,Agent Registration,0,0.0000000,CS000055,مركز العليا للتسويق,JEDDAH,MON,ابحر الجنوبية,,,,,21.80302,39.14650,,,West,1,In-Active,عمر بن مرة,Large Grocery,7,"310,805,446,900,003",Approved by Finance,21541,JED001,2023-07-30
CS000056,شركة زاد الريان التجارية,JEDC06,6856,AG00313,Khaled Salama,Jeddah,Zone,"41,083,505,032",2025-02-11,2382,"568,742,342",Traditional Trade,"4,030,355,386",2025-05-26,Required,جدة,Agent Registration,0,0.0000000,CS000056,شركة زاد الريان التجارية,JEDDAH,WED,الربوة,,,,,21.61198,39.18772,Credit,,West,2,In-Active,سهيل بن صخر,Medium Grocery,3,"311,422,841,800,003",Approved by Finance,22425,JED001,2024-09-15
CS000057,أسواق ومخابزالربيع,JEDC01,00,AG00294,Biju  Poochothiyil,Jeddah,Zone,"4,403,110,685,334",,0,"501,030,340",,"4,030,601,946",,Required,جدة,Agent Registration,0,0.0000000,CS000057,أسواق ومخابزالربيع,JEDDAH,SAT,مريخ,,,,,21.54132,39.28892,,,West,2,In-Active,شارع التيسير العام,,0,"311,335,338,600,003",Approved by Finance,22253,JED002,2023-07-30
CS000058,بقالة الزاد الخير للمواد الغذائية,JEDC04,2714,AG00294,Biju  Poochothiyil,Jeddah,Zone,"440,911,913,201",2024-03-17,7407,"504,191,336",Traditional Trade,"4,030,417,646",2024-05-01,Required,جدة,Agent Registration,0,0.0000000,CS000058,بقالة الزاد الخير للمواد الغذائية,JEDDAH,SUN,وادي عمدان,,,,,21.59206,39.16668,,,West,1,In-Active,البوادى,Medium Grocery,0,"310,470,228,200,003",Approved by Finance,23443,JED002,2024-09-15
CS000059,تموينات نورة,JEDC06,00,AG00313,Khaled Salama,Jeddah,Zone,"43,026,456,545",,0,"594,219,771",Traditional Trade,"4,030,524,056",,Required,جدة,Agent Registration,0,0.0000000,CS000059,تموينات نورة,JEDDAH,WED,الربوة,,,,,21.61079,39.18314,,,West,2,In-Active,انس بن اوس,Small Grocery,0,"302,245,105,600,003",Approved by Finance,00000,JED001,2023-07-30
CS000060,تموينات الفارس الوهاج,JEDC02,2607,AG00294,Biju  Poochothiyil,Jeddah,Zone,"42,013,867,392",2024-08-11,7620,"531,827,626",Traditional Trade,"4,030,444,151",2024-10-27,Required,جدة,Agent Registration,0,0.0000000,CS000060,تموينات الفارس الوهاج,JEDDAH,SUN,البوادي,,,,,21.59399,39.16594,Credit,,West,1,In-Active,الرازي,Medium Grocery,21,"311,106,597,700,003",Approved by Finance,23443,JED002,2024-09-15
CS000062,أسواق البشية,JEDC05,0,AG00294,Biju  Poochothiyil,Jeddah,Zone,"440,110,384,188",2023-08-09,0,"578,762,260",Traditional Trade,"4,030,467,893",2025-08-25,Required,جدة,Agent Registration,0,0.0000000,CS000062,أسواق البشية,JEDDAH,TUE,الصفا,,,,,21.57270,39.21024,Credit,,West,1,In-Active,طريق الأمير متعب,Medium Grocery,26,"310,889,088,800,003",Approved by Finance,000000,JED002,2024-09-15
CS000063,تموينات ماسةالذاتية,JEDC01,00,AG00294,Biju  Poochothiyil,Jeddah,Zone,"450,815,027,511",2025-01-21,0,"540,361,214",,"4,030,468,772",2026-02-13,Required,جدة,Agent Registration,0,0.0000000,CS000063,تموينات ماسةالذاتية,JEDDAH,SAT,الحمدانية,,,,,21.55759,39.29109,,,West,2,In-Active,الحسن بن ابي طالب,,11,"311,219,466,600,003",Approved by Finance,23743,JED002,2023-07-30
CS000065,مخبز ومركز درة الخليج,JEDC02,8166,AG00313,Khaled Salama,Jeddah,Zone,"39,121,536,019",2025-05-29,2649,"561,608,016",Traditional Trade,"4,030,300,109",2025-02-17,Required,جدة,Agent Registration,0,0.0000000,CS000065,مخبز ومركز درة الخليج,JEDDAH,WED,البوادي,,,,,21.59932,39.16608,Credit,,West,2,In-Active,الخطيب التبريزي,Medium Grocery,9,"310,199,108,500,003",Approved by Finance,23443,JED001,2024-09-15
CS000066,زهره للتسويق,JEDC03,3928,AG00313,Khaled Salama,Jeddah,Zone,"43,026,462,742",2024-10-13,6782,"539,446,127",Traditional Trade,"4,030,411,482",2025-02-08,Required,جدة,Agent Registration,0,0.0000000,CS000066,زهره للتسويق,JEDDAH,SAT,الحمدانية,,,,,21.75874,39.18986,,,West,2,In-Active,القاسم بن أمية رضي الله عنه,Medium Grocery,1,"312,481,790,300,003",Approved by Finance,23761,JED001,2024-09-15
CS000067,نافا للتسويق,JEDC01,2939,AG00294,Biju  Poochothiyil,Jeddah,Zone,"43,109,837,183",2025-04-15,7077,"552,365,399",Traditional Trade,"4,030,452,750",2026-12-16,Required,جدة,Agent Registration,30,965.9900000,CS000067,نافا للتسويق,JEDDAH,SAT,مريخ,,,,,21.54544,39.28653,Credit,,West,2,ACTIVE,ابو بريدة الاشعري,Medium Grocery,19,"300,925,212,400,003",Approved by Finance,23252,JED002,2024-09-15
CS000068,تموينات النور,JEDC03,0,AG00290,Mohamed Hossain,Jeddah,Assignment,"440,310,654,113",2025-08-27,0,"543,906,953",Traditional Trade,"4,030,470,952",2025-04-09,Required,جدة,Agent Registration,15,544.8600000,CS000068,تموينات النور,JEDDAH,SAT,الحمدانية,,,,,21.75956,39.19340,Credit,,West,2,ACTIVE,القاسم بن امية,Medium Grocery,24,"311,270,084,600,003",Approved by Finance,22352,JED001,2024-09-15
CS000069,تموينات نور,JEDC04,00,AG00294,Biju  Poochothiyil,Jeddah,Zone,"441,212,654,218",2024-06-30,00,"535,521,245",Traditional Trade,"4,030,515,333",2025-06-21,Required,جدة,Agent Registration,0,0.0000000,CS000069,تموينات نور,JEDDAH,SUN,البوادي,,,,,21.59364,39.16845,,,West,1,In-Active,شارع الخطيب التبريزي,Small Grocery,1,"310,109,459,100,003",Approved by Finance,63893,JED002,2023-07-30
CS000070,تموينات حمدان محمد بن سعيد العمري للمواد الغذائية,JEDC06,8127,AG00313,Khaled Salama,Jeddah,Zone,"440,711,609,436",2025-01-23,3785,"509,432,280",Traditional Trade,"4,030,391,929",2025-08-10,Required,جدة,Agent Registration,7,500.0000000,CS000070,تموينات حمدان محمد بن سعيد العمري للمواد الغذائية,JEDDAH,WED,النزهة,,,,,21.61706,39.17253,Credit,,West,2,ACTIVE,شارع,Medium Grocery,14,"310,640,416,600,003",Approved by Finance,23533,JED001,2024-09-15
CS000078,اسواق كارف للمواد الغذائيه,JEDC02,00,AG00275,Legal  Case,Jeddah,Assignment,"39,111,447,241",2023-08-08,dummy,"564,126,149",,"4,030,478,386",2024-06-23,Required,جدة,Agent Registration,0,0.0000000,CS000078,اسواق كارف للمواد الغذائيه,JEDDAH,WED,البوادي,,,,,21.59992,39.16804,,,West,2,In-Active,dummy,,2,"310,313,266,600,003",Approved by Finance,22432,JED001,
CS000079,تموينات سلوى,JEDC08,0,AG00313,Khaled Salama,Jeddah,Zone,"450,614,130,720",2024-12-19,0,"546,892,217",Traditional Trade,"4,030,383,945",2025-05-20,Required,جدة,Agent Registration,0,0.0000000,CS000079,تموينات سلوى,JEDDAH,WED,البوادي,,,,,21.60029,39.16838,Credit,,West,2,In-Active,قريش,Medium Grocery,28,"310,370,648,800,003",Approved by Finance,22236,JED001,2024-09-15
CS000084,اليمامه,JEDC03,1234,AG00313,Khaled Salama,Jeddah,Zone,"431,210,219,745",,1564,"534,804,886",,"4,030,396,994",,Required,جدة,Agent Registration,0,0.0000000,CS000084,اليمامه,JEDDAH,TUE,الوفاء,,,,,21.86016,39.23139,,,West,1,In-Active,طريق عسفان,,0,"310,762,967,400,003",Approved by Finance,32154,JED001,2023-07-30
CS000085,تموينات الغامدي,JEDC05,00,AG00294,Biju  Poochothiyil,Jeddah,Zone,"7,011,817,702",1979-11-20,0,"541,483,320",,"4,030,173,410",2024-07-31,Required,جدة,Agent Registration,0,0.0000000,CS000085,تموينات الغامدي,JEDDAH,WED,السليمانية,,,,,21.56590,39.20557,,,West,1,In-Active,الشارع العام,,1,"300,095,122,700,003",Approved by Finance,00000,JED002,2023-07-31
CS000086,أسواق ومخابز شواطي,JEDC08,0,AG00290,Mohamed Hossain,Jeddah,Assignment,"40,031,961,841",2025-09-16,0,"534,644,240",Traditional Trade,"4,030,382,682",2025-02-07,NOT Required,جدة,Agent Registration,24,9317.9300000,CS000086,أسواق ومخابز شواطي,JEDDAH,SAT,ابحر الشمالية,,,,,21.77024,39.13358,Credit,,West,2,ACTIVE,احمد بن اسماعيل بن علي بن عبدالله بن العباس,Medium Grocery,26,"312,694,298,100,003",Approved by Finance,23819,JED001,2024-09-15
CS000087,تموينات زادك  1,JEDC04,8090,AG00294,Biju  Poochothiyil,Jeddah,Zone,"39,111,364,014",2024-12-26,2894,"594,669,557",Traditional Trade,"4,030,173,338",2025-07-12,Required,جدة,Agent Registration,0,0.0000000,CS000087,تموينات زادك  1,JEDDAH,WED,الفيصلية,,,,,21.57439,39.17365,Credit,,West,1,In-Active,الامام عبدالعزيز,Medium Grocery,7,"300,219,609,900,003",Approved by Finance,23442,JED002,2024-09-15
CS000088,تموينات القمة,JEDC04,00,AG00294,Biju  Poochothiyil,Jeddah,Zone,"441,112,396,230",2024-08-16,00,"571,498,407",,"4,030,366,103",2025-06-13,Required,جدة,Agent Registration,0,0.0000000,CS000088,تموينات القمة,JEDDAH,SUN,الفيصلية,,,,,21.57791,39.17250,,,West,1,In-Active,شارع محمد بد سليم,,8,"310,428,445,100,003",Approved by Finance,12345,JED002,2023-07-31
CS000090,تموينات مصدر الاسرة,JEDC08,00,AG00313,Khaled Salama,Jeddah,Zone,"104,679,134,679,154",2024-09-23,00,"504,849,288",Traditional Trade,"4,030,187,210",2026-01-12,Required,جدة,Agent Registration,0,0.0000000,CS000090,تموينات مصدر الاسرة,JEDDAH,SAT,السنابل,,,,,21.76627,39.12920,,,West,2,In-Active,شارع محمد بن يزيد,Small Grocery,11,"300,102,547,900,003",Approved by Finance,12345,JED001,2023-07-31
CS000091,اسواق رهوة تهامة للمواد الغذائية,JEDC07,8042,AG00294,Biju  Poochothiyil,Jeddah,Zone,"41,113,606,860",2025-05-29,2787,"553,264,287",Traditional Trade,"4,030,380,599",2025-08-16,NOT Required,جده,Agent Registration,20,814.0000000,CS000091,اسواق رهوة تهامة للمواد الغذائية,JEDDAH,THU,السنابل,,,,,21.40808,39.26108,Credit,,West,2,ACTIVE,الامير عبدالمجيد,Medium Grocery,39,"310,996,558,700,003",Approved by Finance,22434,JED002,2024-09-15
CS000092,اسواق هبة,JEDC04,8920,AG00294,Biju  Poochothiyil,Jeddah,Zone,"39,111,453,217",2025-10-05,2849,"565,242,472",Traditional Trade,"4,030,595,402",2025-08-22,Required,جدة,Agent Registration,0,0.0000000,CS000092,اسواق هبة,JEDDAH,SUN,الفيصلية,,,,,21.57942,39.17427,Credit,,West,1,In-Active,القيصومة,Medium Grocery,6,"311,426,360,900,003",Approved by Finance,23442,JED002,2024-09-15
CS000093,تموينات ميرا الحديثة,JEDC05,0,AG00195,Abdulkareem Saqer,Jeddah,Assignment,"39,111,418,658",2024-11-27,0,"508,896,099",Traditional Trade,"4,030,433,132",2026-08-21,Required,جدة,Agent Registration,0,525.7300000,CS000093,تموينات ميرا الحديثة,JEDDAH,WED,الصفا,,,,,21.57426,39.20381,Credit,,West,1,ACTIVE,الامير سعود الفيصل بن عبدالعزيز,Medium Grocery,24,"310,147,821,500,003",Approved by Finance,23451,JED002,2024-09-15
CS000094,روابي ابحر للتسويق,JEDC08,00,AG00313,Khaled Salama,Jeddah,Zone,"39,111,326,348",2024-03-28,00,"568,495,488",Traditional Trade,"4,030,340,299",2025-02-12,Required,جدة,Agent Registration,0,0.0000000,CS000094,روابي ابحر للتسويق,JEDDAH,SAT,ابحر الشمالية,,,,,21.75625,39.12243,,,West,2,In-Active,شارع محمد بن زرقون,Medium Grocery,4,"311,364,355,900,003",Approved by Finance,12345,JED001,2023-07-31
CS000095,تموينات علي حسن بن سعد الزهراني للتجارة,JEDC04,8488,AG00294,Biju  Poochothiyil,Jeddah,Zone,"39,111,419,397",2025-08-12,2567,"571,327,407",Traditional Trade,"4,030,475,962",2025-05-26,Required,جدة,Agent Registration,0,500.0000000,CS000095,تموينات علي حسن بن سعد الزهراني للتجارة,JEDDAH,SUN,الفيصلية,,,,,21.57996,39.17486,Credit,,West,1,ACTIVE,شارع,Medium Grocery,8,"311,328,202,900,003",Approved by Finance,23442,JED002,2024-09-15
CS000097,تموينات المبروك,JEDC04,8279,AG00294,Biju  Poochothiyil,Jeddah,Zone,"42,034,172,775",2025-09-11,4021,"507,755,723",Traditional Trade,"4,030,391,618",2024-11-08,Required,جدة,Agent Registration,0,0.0000000,CS000097,تموينات المبروك,JEDDAH,SUN,الصفا,,,,,21.58329,39.19786,Credit,,West,1,In-Active,شارع,Medium Grocery,6,"311,463,797,900,003",Approved by Finance,22417,JED002,2024-09-15
CS000098,اسواق الكاباميليا,JEDC04,00,AG00294,Biju  Poochothiyil,Jeddah,Zone,"39,111,450,160",2024-11-16,00,"535,982,608",,"4,030,414,024",2027-03-13,Required,جدة,Agent Registration,0,0.0000000,CS000098,اسواق الكاباميليا,JEDDAH,WED,الفيصلية,,,,,21.57533,39.17817,,,West,1,In-Active,شارع المعهد الصناعي,,1,"310,337,345,600,003",Approved by Finance,12345,JED002,2023-07-31
CS000099,تموينات رابية الخير,JEDC06,00,AG00313,Khaled Salama,Jeddah,Zone,"441,212,644,918",2024-07-12,00,"536,254,650",Traditional Trade,"4,030,502,337",2029-09-12,Required,جدة,Agent Registration,0,0.0000000,CS000099,تموينات رابية الخير,JEDDAH,WED,الربوة,,,,,21.61391,39.17472,,,West,2,In-Active,شارع يحيى المعلمي,Medium Grocery,9,"311,567,436,700,003",Approved by Finance,12345,JED001,2023-07-31
CS000100,حلويات الجود,JEDC04,00,AG00294,Biju  Poochothiyil,Jeddah,Zone,"43,089,536,018",,00,"539,060,935",,"4,030,433,841",,Required,جدة,Agent Registration,0,0.0000000,CS000100,حلويات الجود,JEDDAH,WED,الفيصلية,,,,,21.57531,39.17804,,,West,1,In-Active,شارع رفحه,,0,"311,065,834,300,003",Approved by Finance,12345,JED002,2023-07-31
CS000101,تموينات السلام,JEDC04,6524,AG00294,Biju  Poochothiyil,Jeddah,Zone,"440,611,345,879",2024-12-27,3219,"509,935,315",Traditional Trade,"4,030,414,038",2027-03-15,Required,جدة,Agent Registration,0,514.1100000,CS000101,تموينات السلام,JEDDAH,SUN,الفيصلية,,,,,21.57626,39.17794,Credit,,West,1,ACTIVE,شارع,Medium Grocery,33,"310,337,345,600,003",Approved by Finance,23217,JED002,2024-09-15
CS000102,تموينات رفا الغربية,JEDC08,6977,AG00313,Khaled Salama,Jeddah,Zone,"440,911,930,362",2025-03-13,3373,"532,719,102",Traditional Trade,"4,030,393,287",2025-09-02,Required,جدة,Agent Registration,0,0.0000000,CS000102,تموينات رفا الغربية,JEDDAH,WED,الشراع,,,,,21.77311,39.10653,Credit,,West,1,In-Active,الملك فيصل بن عبد العزيز,Medium Grocery,6,"310,227,977,200,003",Approved by Finance,23513,JED001,2025-01-13
CS000103,أسواق البشية,JEDC04,00,AG00195,Abdulkareem Saqer,Jeddah,Assignment,"4,030,229,742",2024-11-20,00,"553,032,846",Traditional Trade,"4,030,229,742",2026-11-27,NOT Required,جدة,Agent Registration,19,500.0000000,CS000103,أسواق البشية,JEDDAH,SUN,الصفا,,,,,21.58994,39.20001,Credit,,West,1,ACTIVE,شارع عمرو بن غزية,Small Grocery,22,"310,889,088,800,003",Approved by Finance,12131,JED002,2023-07-31
CS000104,اسواق زاد الرحيل,JEDC08,00,AG00313,Khaled Salama,Jeddah,Zone,"1,111,111,111,111,111,100,000",1979-11-20,0,"542,481,466",Traditional Trade,"4,030,435,203",2026-10-25,Required,جدة,Agent Registration,0,0.0000000,CS000104,اسواق زاد الرحيل,JEDDAH,SAT,ابحر الشمالية,,,,,21.75781,39.11897,,,West,2,In-Active,محمد نور الكتبي,Large Grocery,20,"311,076,702,700,003",Approved by Finance,23815,JED001,2023-07-31
CS000105,تموينات الحجاز للمواد الغذائية,JEDC05,00,AG00294,Biju  Poochothiyil,Jeddah,Zone,"43,079,310,392",,0,"557,675,468",,"4,030,586,558",,Required,جدة,Agent Registration,0,0.0000000,CS000105,تموينات الحجاز للمواد الغذائية,JEDDAH,WED,البغدادية,,,,,21.56732,39.17602,,,West,1,In-Active,طيبة,,0,"302,070,465,900,003",Approved by Finance,21463,JED002,2023-07-31
CS000107,اسواق بيشيه 1,JEDC02,0,AG00294,Biju  Poochothiyil,Jeddah,Zone,"39,111,439,567",2024-04-05,0,"577,353,730",Traditional Trade,"4,030,467,893",2025-08-21,Required,جدة,Agent Registration,16,1687.9700000,CS000107,اسواق بيشيه 1,JEDDAH,SUN,الربوة,,,,,21.59927,39.18374,Credit,,West,1,ACTIVE,طريق المكرونه,Medium Grocery,30,"310,889,088,800,003",Approved by Finance,-,JED002,2024-09-15
CS000108,تموينات الأسرة,JEDC04,00,AG00294,Biju  Poochothiyil,Jeddah,Zone,"4,030,193,629",2025-01-18,0,"502,510,910",,"4,030,193,629",2025-06-25,Required,جدة,Agent Registration,0,0.0000000,CS000108,تموينات الأسرة,JEDDAH,SUN,الصفا,,,,,21.59051,39.20302,,,West,1,In-Active,شارع ام القرى,,2,"311,463,797,900,003",Approved by Finance,23456,JED002,2023-07-31
CS000109,اسواق ومخابز أرض الرمان,JEDC05,2985,AG00195,Abdulkareem Saqer,Jeddah,Assignment,"39,111,424,771",2024-11-23,7683,"538,492,036",Traditional Trade,"4,030,542,997",2025-01-28,Required,جدة,Agent Registration,0,500.0000000,CS000109,اسواق ومخابز أرض الرمان,JEDDAH,WED,الفيصلية,,,,,21.57115,39.17458,Credit,,West,1,ACTIVE,شارع,Medium Grocery,6,"310,273,611,400,003",Approved by Finance,23442,JED002,2024-09-15
CS000110,اسواق العجوة,JEDC04,00,AG00294,Biju  Poochothiyil,Jeddah,Zone,"440,711,589,497",2025-01-21,1,"501,195,777",,"4,030,422,305",2025-06-10,Required,جدة,Agent Registration,0,0.0000000,CS000110,اسواق العجوة,JEDDAH,WED,السلامة,,,,,21.57304,39.17018,,,West,1,In-Active,شارع عبدالوهاب,,4,"300,088,436,900,003",Approved by Finance,23525,JED002,2023-07-31
CS000112,تموينات الخليج,JEDC06,8144,AG00294,Biju  Poochothiyil,Jeddah,Zone,"39,121,540,282",2025-05-24,5436,"500,267,308",Traditional Trade,"4,031,252,673",2025-07-02,Required,مكة المكرمة,Agent Registration,0,0.0000000,CS000112,تموينات الخليج,JEDDAH,SAT,الواحة,,,,,21.56617,39.24881,Credit,,West,2,In-Active,عبدالسلام المخزومي,Medium Grocery,28,"310,254,437,800,003",Approved by Finance,24239,JED002,2024-09-15
CS000113,تموينات البيت,JEDC04,7850,AG00294,Biju  Poochothiyil,Jeddah,Zone,"39,111,414,229",2023-10-05,2544,"532,251,528",,"4,030,307,079",2025-01-31,Required,جدة,Agent Registration,0,0.0000000,CS000113,تموينات البيت,JEDDAH,SUN,الفيصلية,,,,,21.58298,39.17304,Credit,,West,1,In-Active,عباس بن الفرج الرياشي,,20,"311,244,407,600,003",Approved by Finance,23525,JED002,2023-07-31
CS000114,تموينات مرجان المحيط,JEDC03,00,AG00313,Khaled Salama,Jeddah,Zone,"42,034,232,634",2024-09-29,0,"560,929,054",Traditional Trade,"4,030,369,174",2024-11-08,Required,جدة,Agent Registration,0,0.0000000,CS000114,تموينات مرجان المحيط,JEDDAH,THU,الفلاح,,,,,21.77064,39.19617,,,West,1,In-Active,عمرو بن ابي الوقاص,Large Grocery,13,"310,452,669,100,003",Approved by Finance,23762,JED001,2023-07-31
CS000115,اسواق الشهري,JEDC01,00,AG00294,Biju  Poochothiyil,Jeddah,Zone,"44,000,000,000,038",2024-06-23,00,"530,213,936",Traditional Trade,"4,030,320,259",2025-12-09,Required,جدة,Agent Registration,0,0.0000000,CS000115,اسواق الشهري,JEDDAH,SAT,البركة,,,,,21.54806,39.28377,,,West,2,In-Active,شارع شارع,Medium Grocery,1,"300,837,388,100,003",Approved by Finance,22363,JED002,2023-07-31
CS000116,أسواق ومخابز زادي الحديثة,JEDC05,00,AG00294,Biju  Poochothiyil,Jeddah,Zone,"4,030,188,372",2025-08-06,00,"546,807,844",Traditional Trade,"4,030,188,372",2025-03-27,Required,جدة,Agent Registration,0,0.0000000,CS000116,أسواق ومخابز زادي الحديثة,JEDDAH,TUE,الصفا,,,,,21.56738,39.21132,,,West,1,In-Active,شارع الامير متعب,Medium Grocery,15,"311,280,325,800,003",Approved by Finance,23449,JED002,2023-07-31
CS000117,اسواق وخابز ماركتي,JEDC04,0,AG00294,Biju  Poochothiyil,Jeddah,Zone,"39,111,454,636",2025-11-21,0,"554,468,518",Traditional Trade,"4,030,190,639",2026-12-09,Required,جدة,Agent Registration,0,0.0000000,CS000117,اسواق وخابز ماركتي,JEDDAH,SUN,البوادي,,,,,21.58344,39.17229,Credit,,West,1,In-Active,ابن زبرق الشيباني,Medium Grocery,16,"310,152,484,700,003",Approved by Finance,23443,JED002,2024-09-15
CS000119,تموينات تري الليف,JEDC08,00,AG00313,Khaled Salama,Jeddah,Zone,"43,119,947,096",,0,"532,682,045",Traditional Trade,"4,603,151,942",,Required,جدة,Agent Registration,0,0.0000000,CS000119,تموينات تري الليف,JEDDAH,MON,طيبة,,,,,21.79063,39.12966,,,West,1,In-Active,ثابت بن معاذ الانصاري,Medium Grocery,0,"310,748,764,800,003",Approved by Finance,27888,JED001,2023-07-31
CS000120,الصالة الاقتصادية,JEDC05,0,AG00195,Abdulkareem Saqer,Jeddah,Assignment,"43,109,860,555",2025-05-07,0,"559,436,951",Wholesale,"4,030,453,910",2025-04-07,NOT Required,جدة,Agent Registration,30,1500.0000000,CS000120,الصالة الاقتصادية,Corporate Business,WED,الصفا,,,,,21.57462,39.20528,Credit,,West,1,ACTIVE,شارع,Wholesale,14,"311,752,111,100,003",Approved by Finance,23451,JED002,2024-10-19
CS000121,تموينات ومخابز رامي,JEDC08,0,AG00313,Khaled Salama,Jeddah,Zone,"39,111,340,571",2026-01-05,0,"565,237,131",Traditional Trade,"4,030,247,164",2025-01-17,Required,جدة,Agent Registration,0,0.0000000,CS000121,تموينات ومخابز رامي,JEDDAH,MON,ذهبان,,,,,21.79493,39.13477,Credit,,West,1,In-Active,شارع,Large Grocery,4,"300,482,462,900,003",Approved by Finance,25442,JED001,2024-09-15
CS000122,تموينات زبيده,JEDC04,00,AG00294,Biju  Poochothiyil,Jeddah,Zone,"40,072,066,327",2023-07-18,00,"501,756,492",,"4,030,408,905",2025-12-31,Required,جدة,Agent Registration,0,0.0000000,CS000122,تموينات زبيده,JEDDAH,SUN,البوادي,,,,,21.58955,39.16524,,,West,1,In-Active,شارع يحيى حسين,,2,"310,466,034,200,003",Approved by Finance,12345,JED002,2023-07-31
CS000123,تموينات غذاءك للمواد الغذائية,JEDC02,7877,AG00313,Khaled Salama,Jeddah,Zone,"440,611,312,127",2025-12-07,2937,"559,320,081",Traditional Trade,"4,030,484,181",2025-08-02,Required,جدة,Agent Registration,0,0.0000000,CS000123,تموينات غذاءك للمواد الغذائية,JEDDAH,THU,الزهراء,,,,,21.60759,39.12703,,,West,2,In-Active,حراء,Medium Grocery,2,"302,267,218,900,003",Approved by Finance,23522,JED001,2024-09-15
CS000124,تموينات زاد الريف,JEDC03,00,AG00313,Khaled Salama,Jeddah,Zone,"41,042,622,307",2024-10-08,0,"544,227,842",,"4,030,410,287",2025-02-06,Required,جدة,Agent Registration,0,0.0000000,CS000124,تموينات زاد الريف,JEDDAH,THU,طيبة,,,,,21.78058,39.19282,,,West,1,In-Active,عمير بن الحمام,,20,"310,630,903,800,003",Approved by Finance,23833,JED001,2023-07-31
CS000125,مخابز وتموينات ديمة,JEDC03,8183,AG00313,Khaled Salama,Jeddah,Zone,"43,069,078,558",2025-11-29,4530,"502,151,778",Traditional Trade,"4,030,378,264",2025-01-18,Required,جدة,Agent Registration,13,816.3400000,CS000125,مخابز وتموينات ديمة,JEDDAH,TUE,الفروسية,,,,,21.82284,39.20887,Credit,,West,1,ACTIVE,سعيد الينا,Medium Grocery,13,"302,184,155,100,003",Approved by Finance,23449,JED001,2024-09-15
CS000126,تموينات النجوم,JEDC04,00,AG00294,Biju  Poochothiyil,Jeddah,Zone,"440,210,504,857",,0,"537,472,394",,"4,030,310,464",,Required,جدة,Agent Registration,0,0.0000000,CS000126,تموينات النجوم,JEDDAH,SUN,البوادي,,,,,21.59355,39.17127,,,West,1,In-Active,سعد بن اب وقاص,,0,"310,239,592,400,003",Approved by Finance,00000,JED002,2023-07-31
CS000127,تموينات السماهر,JEDC05,00,AG00294,Biju  Poochothiyil,Jeddah,Zone,"4,030,058,107",,0,"504,867,186",,"7,013,740,928",,Required,جدة,Agent Registration,0,0.0000000,CS000127,تموينات السماهر,JEDDAH,SAT,الصفا,,,,,21.57981,39.21972,,,West,1,In-Active,الدكتور القاسمي,,0,"310,351,806,100,003",Approved by Finance,23454,JED002,2023-07-31
CS000128,مركز الجوهرة,JEDC08,6498,AG00313,Khaled Salama,Jeddah,Zone,"39,111,336,411",2026-03-09,4516,"567,107,068",Traditional Trade,"4,030,244,497",2024-12-17,Required,جدة,Agent Registration,15,500.0000000,CS000128,مركز الجوهرة,JEDDAH,SAT,الاصالة,,,,,21.77018,39.16189,Credit,,West,2,ACTIVE,شارع عام,Medium Grocery,5,"302,076,443,400,003",Approved by Finance,23738,JED001,2024-09-15
CS000129,اسواق ومخابز مركزى,JEDC02,0,AG00313,Khaled Salama,Jeddah,Zone,"43,119,953,183",2025-04-29,0,"536,351,685",Traditional Trade,"4,030,168,527",2025-01-19,Required,جدة,Agent Registration,0,0.0000000,CS000129,اسواق ومخابز مركزى,JEDDAH,WED,البوادي,,,,,21.59669,39.16955,Credit,,West,2,In-Active,ابو الحسن الهمذاني,Medium Grocery,6,"311,206,049,500,003",Approved by Finance,00000,JED001,2024-09-15
CS000130,تموينات فال التيسير للمواد الغذائية,JEDC01,3480,AG00294,Biju  Poochothiyil,Jeddah,Zone,"43,058,030,522",2024-11-08,7567,"558,944,723",Traditional Trade,"4,030,468,772",2025-02-09,Required,جدة,Agent Registration,0,500.0000000,CS000130,تموينات فال التيسير للمواد الغذائية,JEDDAH,SAT,مريخ,,,,,21.54917,39.29459,Credit,,West,2,ACTIVE,عبدالله بن ورقاء,Medium Grocery,7,"311,219,466,600,003",Approved by Finance,23743,JED002,2024-09-15
CS000131,تموينات سدرة البوادي,JEDC02,7180,AG00313,Khaled Salama,Jeddah,Zone,"440,711,608,548",2025-01-23,2711,"575,654,528",Traditional Trade,"4,030,538,880",2024-12-26,Required,جدة,Agent Registration,0,0.0000000,CS000131,تموينات سدرة البوادي,JEDDAH,WED,البوادي,,,,,21.59683,39.17030,,,West,2,In-Active,ابو حسن الهمذاني,Medium Grocery,8,"311,979,333,500,003",Approved by Finance,23443,JED001,2024-09-15
CS000132,تموينات ومخابز الغربية للتسويق,JEDC05,00,AG00294,Biju  Poochothiyil,Jeddah,Zone,"4,030,370,001",2025-09-28,0,"509,564,862",Traditional Trade,"4,030,370,001",2024-09-23,Required,جدة,Agent Registration,0,0.0000000,CS000132,تموينات ومخابز الغربية للتسويق,JEDDAH,SAT,الصفا,,,,,21.57537,39.20813,,,West,1,In-Active,سعود الفيصل,Medium Grocery,1,"302,092,446,800,003",Approved by Finance,23647,JED002,2023-07-31
CS000133,ستي مارت  2,JEDC02,3037,AG00313,Khaled Salama,Jeddah,Zone,"42,115,891,566",2025-05-22,7757,"502,494,411",Traditional Trade,"4,030,357,581",2025-08-13,Required,جدة,Agent Registration,16,500.0000000,CS000133,ستي مارت  2,JEDDAH,THU,الزهراء,,,,,21.61003,39.13830,Credit,,West,2,ACTIVE,شارع,Medium Grocery,12,"311,298,660,700,003",Approved by Finance,22261,JED001,2024-09-15
CS000135,تموينات اماني,JEDC08,00,AG00313,Khaled Salama,Jeddah,Zone,"111,111,111,111,111,100",,0,"502,019,114",,"1,111,111,111",,Required,جدة,Agent Registration,0,0.0000000,CS000135,تموينات اماني,JEDDAH,MON,النزهة,,,,,21.79637,39.13758,,,West,1,In-Active,النزهة,,0,"300,910,282,100,003",Approved by Finance,23534,JED001,2023-08-01
CS000137,تموينات السعد,JEDC01,00,AG00294,Biju  Poochothiyil,Jeddah,Zone,"39,111,443,602",2023-12-21,00,"506,230,450",Traditional Trade,"4,030,431,080",2024-09-06,Required,جدة,Agent Registration,0,0.0000000,CS000137,تموينات السعد,JEDDAH,SAT,البركة,,,,,21.50760,39.26034,,,West,2,In-Active,شارع الرغامة,Medium Grocery,2,"311,045,691,200,003",Approved by Finance,12345,JED002,2023-08-01
CS000138,تموينات هناء للمواد الغذائية,JEDC03,4973,AG00294,Biju  Poochothiyil,Jeddah,Zone,"43,079,278,518",2025-12-21,6654,"553,264,158",Traditional Trade,"4,030,427,782",2025-08-12,Required,جدة,Agent Registration,0,500.0000000,CS000138,تموينات هناء للمواد الغذائية,JEDDAH,TUE,الواحة,,,,,21.54987,39.23857,Credit,,West,1,ACTIVE,صالح بن ابي حسان,Medium Grocery,22,"311,021,060,500,003",Approved by Finance,22346,JED002,2024-09-15
CS000140,تموينات الطيب,JEDC03,7797,AG00313,Khaled Salama,Jeddah,Zone,"39,111,428,320",2024-10-13,3220,"571,027,194",Traditional Trade,"4,030,538,036",2025-01-15,Required,جدة,Agent Registration,0,500.0000000,CS000140,تموينات الطيب,JEDDAH,THU,الحمدانية,,,,,21.75360,39.21219,Credit,,West,1,ACTIVE,ابن محمد الفهري,Medium Grocery,16,"310,097,242,400,003",Approved by Finance,23761,JED001,2024-09-15
CS000141,مركز الفريد,JEDC07,00,AG00294,Biju  Poochothiyil,Jeddah,Zone,"43,109,942,206",2024-10-13,00,"540,899,841",,"4,030,427,101",2025-01-15,Required,جدة,Agent Registration,0,0.0000000,CS000141,مركز الفريد,JEDDAH,SAT,البركة,,,,,21.49881,39.28177,,,West,2,In-Active,شارع شارع,,2,"311,015,878,200,003",Approved by Finance,12345,JED002,2023-08-01
CS000142,تموينات تري الليف,JEDC03,00,AG00294,Biju  Poochothiyil,Jeddah,Zone,"440,110,310,972",2024-07-16,00,"500,426,961",Traditional Trade,"4,030,389,104",2025-02-15,Required,جدة,Agent Registration,0,0.0000000,CS000142,تموينات تري الليف,JEDDAH,SAT,الواحة,,,,,21.55223,39.24474,,,West,2,In-Active,شارع محمد بن هارون,Medium Grocery,3,"310,748,764,800,003",Approved by Finance,12345,JED002,2023-08-01
CS000143,تموينات الأطلال,JEDC07,0,AG00294,Biju  Poochothiyil,Jeddah,Zone,"440,210,599,972",2025-08-30,0,"501,878,758",Traditional Trade,"4,030,484,509",2025-08-30,Required,جدة,Agent Registration,0,0.0000000,CS000143,تموينات الأطلال,JEDDAH,SAT,ابرق الرغامة,,,,,21.49803,39.28721,Credit,,West,2,In-Active,امين الشيبي,Medium Grocery,7,"311,403,370,500,003",Approved by Finance,22262,JED002,2024-09-15
CS000144,تموينات البوادي الحديثة للمواد الغذائية,JEDC02,00,AG00313,Khaled Salama,Jeddah,Zone,"440,110,321,105",2024-07-28,dummy,"508,428,110",,"4,030,378,308",2024-01-17,Required,جدة,Agent Registration,0,0.0000000,CS000144,تموينات البوادي الحديثة للمواد الغذائية,JEDDAH,WED,البوادي,,,,,21.59749,39.16696,,,West,2,In-Active,dummy,,0,"300,000,000,000,003",Approved by Finance,23425,JED001,
CS000145,زاد المستهلك للمواد الغائية,JEDC03,3917,AG00294,Biju  Poochothiyil,Jeddah,Zone,"40,122,533,689",2025-05-30,7518,"554,213,633",Traditional Trade,"4,030,353,379",2025-02-10,Required,جدة,Agent Registration,0,0.0000000,CS000145,زاد المستهلك للمواد الغائية,JEDDAH,SAT,ام السلم,,,,,21.55339,39.24939,Credit,,West,2,In-Active,اسامة بن زيد اليثي,Medium Grocery,5,"310,356,299,900,003",Approved by Finance,23354,JED002,2024-09-15
CS000146,شركة سلة السرايا للمواد العذائية,JEDC03,3616,AG00313,Khaled Salama,Jeddah,Zone,"431,110,096,309",2025-05-19,7505,"507,613,581",Traditional Trade,"4,030,383,480",2026-02-09,Required,جدة,Agent Registration,0,0.0000000,CS000146,شركة سلة السرايا للمواد العذائية,JEDDAH,THU,الصالحية,,,,,21.76818,39.20244,Credit,,West,1,In-Active,عبدالله بن سليمان الحمدان,Medium Grocery,2,"311,313,300,600,003",Approved by Finance,22821,JED001,2024-09-15
CS000147,اسواق ومخابز الربيع,JEDC01,22253,AG00294,Biju  Poochothiyil,Jeddah,Zone,"4,030,601,946",,8375,"530,640,134",,"4,030,601,946",,Required,جدة,Agent Registration,0,0.0000000,CS000147,اسواق ومخابز الربيع,JEDDAH,SAT,التيسير,,,,,21.54124,39.28868,,,West,2,In-Active,فلسطين,,0,"311,335,338,600,003",Approved by Finance,22253,JED002,2023-08-01
CS000148,تموينات المملكة,JEDC07,00,AG00294,Biju  Poochothiyil,Jeddah,Zone,"44,000,000,000,102",2024-04-29,0,"508,258,743",,"4,030,319,038",2025-01-17,Required,جدة,Agent Registration,0,0.0000000,CS000148,تموينات المملكة,JEDDAH,SAT,البركة,,,,,21.48652,39.29713,,,West,2,In-Active,الرغامة,,5,"311,111,111,111,113",Approved by Finance,22272,JED002,2023-08-01
CS000150,تموينات خالد,JEDC02,,AG00313,Khaled Salama,Jeddah,Zone,"12,349,787,646,434",,,"566,015,853",Traditional Trade,"4,030,515,494",,Required,,Agent Registration,0,0.0000000,CS000150,تموينات خالد,JEDDAH,TUE,,,,,,21.65537,39.12474,,,West,2,In-Active,,Medium Grocery,0,"311,325,629,700,003",Missing Documents,,JED001,2023-08-01
CS000152,تموينات الخيرات النقية,JEDC07,00,AG00294,Biju  Poochothiyil,Jeddah,Zone,"44,000,000,000,103",2024-04-29,0,"569,389,417",,"4,030,319,038",2024-12-19,Required,جدة,Agent Registration,0,0.0000000,CS000152,تموينات الخيرات النقية,JEDDAH,SAT,البركة,,,,,21.48859,39.30028,,,West,2,In-Active,الرغامة,,3,"311,111,111,111,113",Approved by Finance,22272,JED002,2023-08-01
CS000153,شركة قمر الليال التجارية,JEDC06,0,AG00294,Biju  Poochothiyil,Jeddah,Zone,"40,112,485,373",2025-04-28,0,"536,552,047",Traditional Trade,"4,030,315,116",2025-02-19,Required,جدة,Agent Registration,30,500.0000000,CS000153,شركة قمر الليال التجارية,JEDDAH,SAT,الواحة,,,,,21.56292,39.24715,Credit,,West,2,ACTIVE,الواحة,Medium Grocery,14,"311,444,539,600,003",Approved by Finance,23354,JED002,2024-09-15
CS000154,اسواق وزاد ومخابز زاد جدة,JEDC08,00,AG00313,Khaled Salama,Jeddah,Zone,"42,013,833,279",,0,"506,065,603",,"4,030,347,800",,Required,جدة,Agent Registration,0,0.0000000,CS000154,اسواق وزاد ومخابز زاد جدة,JEDDAH,WED,الصفا,,,,,21.77478,39.10371,,,West,1,In-Active,طريق الحرمين,,0,"311,364,355,900,003",Approved by Finance,23216,JED001,2023-08-01
CS000156,سوبر ماركت خير بلادي,JEDC03,3475,AG00290,Mohamed Hossain,Jeddah,Assignment,"440,410,981,184",2023-11-08,8682,"509,309,103",Traditional Trade,"4,030,463,897",2025-03-15,Required,جدة,Agent Registration,3,584.3800000,CS000156,سوبر ماركت خير بلادي,JEDDAH,THU,الرحمانية,,,,,21.77654,39.21497,Credit,,West,1,ACTIVE,عمرو بن ابي العاص,Medium Grocery,21,"311,254,611,100,003",Approved by Finance,23763,JED001,2024-09-15
CS000157,تموينات عبير,JEDC06,0,AG00294,Biju  Poochothiyil,Jeddah,Zone,"440,611,242,219",2025-11-30,0,"581,616,615",Traditional Trade,"4,030,160,977",2025-09-07,Required,جدة,Agent Registration,0,0.0000000,CS000157,تموينات عبير,JEDDAH,SAT,الواحة,,,,,21.56831,39.24932,Credit,,West,2,In-Active,ابن الربيع الشيباني,Medium Grocery,4,"302,048,851,200,003",Approved by Finance,23472,JED002,2024-09-15
CS000158,مخبز وتموينات بن عايد,JEDC07,00,AG00294,Biju  Poochothiyil,Jeddah,Zone,"44,000,000,000,000",1979-11-20,0,"504,705,046",,"4,030,274,815",2024-10-21,Required,جدة,Agent Registration,0,0.0000000,CS000158,مخبز وتموينات بن عايد,JEDDAH,SAT,البركة,,,,,21.49697,39.27118,,,West,2,In-Active,شارع جاك,,4,"300,341,061,100,003",Approved by Finance,22262,JED002,2023-08-01
CS000159,تموينات شاكر,JEDC07,00,AG00294,Biju  Poochothiyil,Jeddah,Zone,"4,030,482,426",2024-10-23,0,"506,933,943",,"4,030,482,426",2025-07-30,Required,جدة,Agent Registration,0,0.0000000,CS000159,تموينات شاكر,JEDDAH,SAT,البركة,,,,,21.49693,39.29733,,,West,2,In-Active,ش عبدالملك السلمي,,6,"311,384,998,200,003",Approved by Finance,22261,JED002,2023-08-01
CS000160,تموينات المنى 2,JEDC03,00,AG00313,Khaled Salama,Jeddah,Zone,"42,115,913,899",2025-02-25,0,"599,623,668",Traditional Trade,"4,030,412,481",2026-05-07,Required,جدة,Agent Registration,0,0.0000000,CS000160,تموينات المنى 2,JEDDAH,TUE,الصفا,,,,,21.81571,39.21572,,,West,1,In-Active,الامير ماجد,Medium Grocery,11,"300,116,266,200,003",Approved by Finance,23452,JED001,2023-08-01
CS000161,تموينات إيلاف الاولى للمواد الغذائية,JEDC08,1,AG00313,Khaled Salama,Jeddah,Zone,"43,069,119,045",2024-12-18,1,"555,775,577",Traditional Trade,"4,030,327,468",2024-10-11,Required,جدة,Agent Registration,0,0.0000000,CS000161,تموينات إيلاف الاولى للمواد الغذائية,JEDDAH,WED,الشراع,,,,,21.77135,39.09999,,,West,1,In-Active,اسامة عبدالمجيد,Medium Grocery,11,"311,432,755,400,003",Approved by Finance,23818,JED001,2024-09-15
CS000162,تموينات الوطن,JEDC02,00,AG00313,Khaled Salama,Jeddah,Zone,"43,069,119,347",2024-12-20,0,"537,283,014",Traditional Trade,"4,034,101,838",2024-10-24,Required,جدة,Agent Registration,0,0.0000000,CS000162,تموينات الوطن,JEDDAH,WED,البوادي,,,,,21.60410,39.17030,,,West,2,In-Active,الجنينه,Medium Grocery,24,"310,483,798,600,003",Approved by Finance,29751,JED001,2023-08-01
CS000163,مخابز و تموينات سله الارزاق,JEDC06,3794,AG00294,Biju  Poochothiyil,Jeddah,Zone,"43,079,403,950",2026-02-19,8880,"543,194,940",Traditional Trade,"4,030,446,834",2024-11-30,Required,جدة,Agent Registration,0,0.0000000,CS000163,مخابز و تموينات سله الارزاق,JEDDAH,SAT,الواحة,,,,,21.56586,39.24835,,,West,2,In-Active,حذيفة بن جبل,Medium Grocery,11,"310,121,969,800,003",Approved by Finance,23354,JED002,2024-09-15
CS000164,تموينات يارا,JEDC02,00,AG00313,Khaled Salama,Jeddah,Zone,"431,110,103,398",2025-05-20,0,"552,161,804",,"4,030,421,823",2025-06-18,Required,جدة,Agent Registration,0,0.0000000,CS000164,تموينات يارا,JEDDAH,WED,البوادي,,,,,21.60278,39.16775,,,West,2,In-Active,ش عمر بن حسان,,2,"311,111,111,111,113",Approved by Finance,00000,JED001,2023-08-01
CS000165,تموينات ريوف الحديث,JEDC02,2934,AG00313,Khaled Salama,Jeddah,Zone,"440,911,916,599",2025-03-13,6691,"543,162,858",Traditional Trade,"4,030,431,399",2025-09-09,Required,جدة,Agent Registration,0,500.0000000,CS000165,تموينات ريوف الحديث,JEDDAH,WED,البوادي,,,,,21.60407,39.16437,Credit,,West,2,ACTIVE,عبدالرحمن بن حسنة,Medium Grocery,22,"310,030,956,200,003",Approved by Finance,23531,JED001,2024-09-15
CS000166,أسواق ومخابز التنور,JEDC05,00,AG00275,Legal  Case,Jeddah,Assignment,"441,212,516,748",2024-07-25,0,"502,897,326",,"4,030,326,573",2025-01-07,Required,جدة,Agent Registration,0,0.0000000,CS000166,أسواق ومخابز التنور,JEDDAH,TUE,البركة,,,,,21.57019,39.21524,,,West,1,In-Active,ش جاك,,13,"310,321,442,900,003",Approved by Finance,00000,JED002,2023-08-01
CS000167,اسواق سلة الفتح للمواد الغذائية,JEDC02,2731,AG00313,Khaled Salama,Jeddah,Zone,"440,911,906,087",2025-03-07,7044,"572,363,587",Traditional Trade,"4,030,460,633",2025-02-16,Required,جدة,Agent Registration,0,500.0000000,CS000167,اسواق سلة الفتح للمواد الغذائية,JEDDAH,WED,البوادي,,,,,21.60673,39.16357,Credit,,West,2,ACTIVE,عبدالرحمن بن الحارث,Small Grocery,33,"310,760,977,200,003",Approved by Finance,23531,JED001,2024-09-15
CS000168,بقالة الحميدية,JEDC04,00,AG00294,Biju  Poochothiyil,Jeddah,Zone,"43,026,113,732",2025-08-01,0,"503,586,390",,"4,030,426,579",2025-07-21,Required,جدة,Agent Registration,0,0.0000000,CS000168,بقالة الحميدية,JEDDAH,THU,الواحة,,,,,21.58175,39.23888,,,West,1,In-Active,الواحة,,4,"310,776,195,400,003",Approved by Finance,23464,JED002,2023-08-01
CS000169,مخبز ومركز البركة للتسويق,JEDC02,00,AG00313,Khaled Salama,Jeddah,Zone,"40,072,065,966",,0,"571,711,396",,"4,030,405,477",,Required,جدة,Agent Registration,0,0.0000000,CS000169,مخبز ومركز البركة للتسويق,JEDDAH,WED,الربوة,,,,,21.60646,39.16714,,,West,2,In-Active,ش ابن عبدالقدوس,,0,"310,845,737,200,003",Approved by Finance,00000,JED001,2023-08-01
CS000170,مركز و مخبز سنابل الجود,JEDC04,7633,AG00294,Biju  Poochothiyil,Jeddah,Zone,"43,099,620,036",2025-03-09,2223,"536,610,886",Traditional Trade,"4,030,327,321",2025-12-22,Required,جدة,Agent Registration,0,0.0000000,CS000170,مركز و مخبز سنابل الجود,JEDDAH,SAT,السامر,,,,,21.58281,39.23026,Credit,,West,1,In-Active,السامر,Medium Grocery,4,"311,229,528,900,003",Approved by Finance,23461,JED002,2024-09-15
CS000171,تموينات ميلا الخير للمواد الغذائية,JEDC03,7145,AG00313,Khaled Salama,Jeddah,Zone,"440,811,781,746",2025-02-18,4467,"557,664,557",Traditional Trade,"4,030,433,873",2025-09-30,Required,جدة,Agent Registration,24,724.5100000,CS000171,تموينات ميلا الخير للمواد الغذائية,JEDDAH,TUE,الرياض,,,,,21.85556,39.21049,Credit,,West,1,ACTIVE,شارع,Medium Grocery,12,"311,066,149,500,003",Approved by Finance,23761,JED001,2024-09-15
CS000173,بقالة سلتي,JEDC08,4568,AG00313,Khaled Salama,Jeddah,Zone,"43,047,998,193",2025-10-18,8217,"535,007,351",Traditional Trade,"4,030,548,299",2024-12-15,Required,جدة,Agent Registration,10,887.8900000,CS000173,بقالة سلتي,JEDDAH,MON,طيبة,,,,,21.80274,39.15323,Credit,,West,1,ACTIVE,وهب بن خويلد,Medium Grocery,12,"312,621,780,900,003",Approved by Finance,23831,JED001,2024-09-15
CS000174,تموينات اليابان و كوريا,JEDC04,6795,AG00294,Biju  Poochothiyil,Jeddah,Zone,"441,212,568,906",2025-06-11,3333,"557,784,436",Traditional Trade,"4,030,369,346",2027-08-15,Required,جدة,Agent Registration,24,624.9500000,CS000174,تموينات اليابان و كوريا,JEDDAH,WED,مدائن الفهد,,,,,21.57535,39.17740,Credit,,West,1,ACTIVE,شارع,Large Grocery,2,"300,560,192,600,003",Approved by Finance,23323,JED002,2025-03-12
CS000181,اسواق ومخابز بيتي,JEDC08,00,AG00313,Khaled Salama,Jeddah,Zone,"39,111,340,397",,0,"597,046,606",,"4,030,458,527",,Required,جدة,Agent Registration,0,0.0000000,CS000181,اسواق ومخابز بيتي,JEDDAH,MON,طيبة,,,,,21.80690,39.14915,,,West,1,In-Active,وهب بن خويلد,,0,"302,029,298,900,003",Approved by Finance,23831,JED001,2023-08-01
CS000182,تموينات القرني,JEDC08,5458,AG00313,Khaled Salama,Jeddah,Zone,"40,052,037,915",2025-11-12,7892,"570,610,216",Traditional Trade,"4,030,316,840",2025-12-04,Required,جدة,Agent Registration,0,594.0000000,CS000182,تموينات القرني,JEDDAH,MON,طيبة,,,,,21.80199,39.14450,Credit,,West,1,ACTIVE,ثابت بن معاذ الأنصاري,Medium Grocery,13,"310,275,275,200,003",Approved by Finance,23835,JED001,2024-09-15
CS000184,Al Radwan,JEDC05,7973,AG00195,Abdulkareem Saqer,Jeddah,Assignment,"42,044,271,473",2025-01-05,2712,"568,166,115",Wholesale,"4,030,373,408",2024-11-04,NOT Required,جدة,Agent Registration,0,,CS000184,Al Radwan,Corporate Business,SUN,المحجر,,,,,21.43646,39.19749,,,West,2,ACTIVE,Aj mahjar,Wholesale,23,"310,453,656,500,003",Approved by Finance,22421,JED002,2023-08-01
CS000186,اسواق الرايد لليسويق,JEDC03,0,AG00313,Khaled Salama,Jeddah,Zone,"41,012,559,319",2024-09-15,0,"508,579,364",Traditional Trade,"4,604,108,204",2026-04-24,Required,خليص,Agent Registration,3,1384.0300000,CS000186,اسواق الرايد لليسويق,JEDDAH,SUN,خليص,,,,,21.96042,39.38358,Credit,,West,1,ACTIVE,شارع,Medium Grocery,23,"310,163,618,400,003",Approved by Finance,25551,JED001,2024-09-15
CS000187,تموينات العائلة,JEDC07,9045,AG00294,Biju  Poochothiyil,Jeddah,Zone,"440,511,193,370",2024-11-30,3776,"586,955,213",Traditional Trade,"4,030,353,833",2025-05-11,Required,جدة,Agent Registration,0,0.0000000,CS000187,تموينات العائلة,JEDDAH,THU,السنابل,,,,,21.39685,39.27507,Credit,,West,2,In-Active,فهد بن خرينق,Medium Grocery,2,"310,358,771,800,003",Approved by Finance,22442,JED002,2024-09-15
CS000188,اسواق و مخابز الضيافة,JEDC06,6439,AG00313,Khaled Salama,Jeddah,Zone,"41,052,648,840",2025-04-16,4368,"534,837,736",Traditional Trade,"4,032,231,006",2025-10-27,Required,جدة,Agent Registration,0,0.0000000,CS000188,اسواق و مخابز الضيافة,JEDDAH,WED,النزهة,,,,,21.61708,39.17485,Credit,,West,2,In-Active,شارع,Medium Grocery,7,"310,260,937,700,003",Approved by Finance,23534,JED001,2024-09-15
CS000189,اسواق المركزي,JEDC04,00,AG00294,Biju  Poochothiyil,Jeddah,Zone,"4,430,310,698,467",2025-09-29,00,"532,543,626",,"4,030,168,527",2025-01-19,Required,جدة,Agent Registration,0,0.0000000,CS000189,اسواق المركزي,JEDDAH,SUN,الفيصلية,,,,,21.57716,39.17284,,,West,1,In-Active,شارع الامام عبدالعزيز,,21,"311,206,049,500,003",Approved by Finance,12345,JED002,2023-08-02
CS000190,تموينات سنابل الجود,JEDC04,00,AG00294,Biju  Poochothiyil,Jeddah,Zone,"4,030,327,321",,00,"533,671,872",,"4,030,327,321",,Required,جدة,Agent Registration,0,0.0000000,CS000190,تموينات سنابل الجود,JEDDAH,SAT,الصفا,,,,,21.58522,39.20689,,,West,1,In-Active,شارع جبل الشرار,,2,"311,229,528,900,003",Approved by Finance,12345,JED002,2023-08-02
CS000191,تموينات عسفان للمواد الغذائية,JEDC04,6684,AG00294,Biju  Poochothiyil,Jeddah,Zone,"43,079,348,615",2026-01-04,4754,"530,663,230",Traditional Trade,"4,030,371,062",2024-10-17,Required,جدة,Agent Registration,20,853.0400000,CS000191,تموينات عسفان للمواد الغذائية,JEDDAH,THU,السامر,,,,,21.58863,39.24780,Credit,,West,1,ACTIVE,ابي نصير الأصبهاني,Medium Grocery,29,"302,162,986,200,003",Approved by Finance,23462,JED002,2024-09-15
CS000192,تموينات  الفيصلية,JEDC05,8287,AG00294,Biju  Poochothiyil,Jeddah,Zone,"440,911,893,753",2025-03-05,2812,"568,582,615",Traditional Trade,"4,031,216,925",2025-07-05,Required,مكة المكرمة,Agent Registration,0,517.7400000,CS000192,تموينات  الفيصلية,JEDDAH,WED,الفيصلية,,,,,21.56269,39.17652,Credit,,West,1,ACTIVE,مطلق الزيابي,Medium Grocery,34,"311,052,202,100,003",Approved by Finance,24414,JED002,2024-09-15
CS000193,تموينات الوطن الاقتصادية,JEDC06,0,AG00313,Khaled Salama,Jeddah,Zone,"440,911,951,090",2026-04-14,0,"540,456,403",Traditional Trade,"4,030,391,918",2029-06-18,Required,جدة,Agent Registration,0,0.0000000,CS000193,تموينات الوطن الاقتصادية,JEDDAH,MON,الريان,,,,,21.69223,39.21379,Credit,,West,2,In-Active,شارع,Medium Grocery,8,"310,601,766,600,003",Approved by Finance,23643,JED001,2024-09-15
CS000194,تموينات بركة المحمدية التجارية,JEDC02,6682,AG00290,Mohamed Hossain,Jeddah,Assignment,"39,111,331,747",2025-01-06,4983,"539,736,434",Traditional Trade,"4,030,479,253",2025-07-01,Required,جدة,Agent Registration,0,500.0000000,CS000194,تموينات بركة المحمدية التجارية,JEDDAH,TUE,المحمدية,,,,,21.65112,39.13511,Credit,,West,2,ACTIVE,شارع,Medium Grocery,7,"300,184,574,600,003",Approved by Finance,23719,JED001,2024-09-15
CS000196,تموينات تولين للموادالغذائية,JEDC04,00,AG00294,Biju  Poochothiyil,Jeddah,Zone,"1,100,147,645",,0,"501,043,594",,"4,030,377,688",,Required,جدة,Agent Registration,0,0.0000000,CS000196,تموينات تولين للموادالغذائية,JEDDAH,THU,التوفيق,,,,,21.59088,39.25919,,,West,1,In-Active,ش المدارس,,0,"310,110,022,100,003",Approved by Finance,23465,JED002,2023-08-02
CS000199,شركة متاجر ديما التجارية,JEDC07,00,AG00059,Mohammed Saleh,Jeddah,Assignment,"49,111,427,660",,0,"501,834,876",Traditional Trade,"4,030,112,831",,Required,جدة,Agent Registration,0,0.0000000,CS000199,شركة متاجر ديما التجارية,JEDDAH,SAT,قويزة,,,,,21.49777,39.26522,,,West,2,In-Active,الرغامة,Medium Grocery,8,"311,363,331,100,003",Approved by Finance,21487,JED002,2023-08-02
CS000200,تموينات ليله خميس,JEDC05,00,AG00294,Biju  Poochothiyil,Jeddah,Zone,"40,072,086,432",,0,"559,383,268",,"4,030,406,156",,Required,جدة,Agent Registration,0,0.0000000,CS000200,تموينات ليله خميس,JEDDAH,WED,الفيصلية,,,,,21.55773,39.17732,,,West,1,In-Active,سرحان العجماوي,,2,"310,805,446,900,003",Approved by Finance,00000,JED002,2023-08-02
CS000201,مؤسسة الخنبشي للمواد الغذائية,JEDC02,6145,AG00195,Abdulkareem Saqer,Jeddah,Assignment,"39,111,427,047",2026-04-22,2920,"507,379,660",Traditional Trade,"4,030,383,804",2025-05-08,Required,جدة,Agent Registration,0,500.0000000,CS000201,مؤسسة الخنبشي للمواد الغذائية,JEDDAH,WED,النزهة,,,,,21.61497,39.16072,,,West,2,ACTIVE,ش حراء,Large Grocery,28,"310,600,257,600,003",Approved by Finance,23532,JED001,2023-08-02
CS000202,تموينات زمزم,JEDC04,00,AG00294,Biju  Poochothiyil,Jeddah,Zone,"43,099,694,507",2025-03-19,0,"554,376,149",Traditional Trade,"4,030,429,659",2024-08-25,Required,جدة,Agent Registration,0,0.0000000,CS000202,تموينات زمزم,JEDDAH,THU,الاجواد,,,,,21.60053,39.26846,,,West,1,In-Active,ش عبدالعزيز ابن عبدالسلام,Medium Grocery,11,"310,416,744,700,003",Approved by Finance,23466,JED002,2023-08-02
CS000203,شركة رفاهية الصفا لتجارة الجملة و التجزئة,JEDC08,7993,AG00313,Khaled Salama,Jeddah,Zone,"440,511,159,962",2024-11-28,4229,"501,137,539",Traditional Trade,"4,030,233,525",2024-02-19,Required,جدة,Agent Registration,15,1723.8800000,CS000203,شركة رفاهية الصفا لتجارة الجملة و التجزئة,JEDDAH,WED,الياقوت,,,,,21.78059,39.09967,Credit,,West,1,ACTIVE,شارع الامير عبد المجيد,Medium Grocery,25,"311,231,617,500,003",Approved by Finance,23716,JED001,2024-09-15
CS000204,تموينات حسام للمواد الغذائية,JEDC02,00,AG00313,Khaled Salama,Jeddah,Zone,"440,511,099,103",,0,"508,186,084",Traditional Trade,"4,030,410,258",,Required,جدة,Agent Registration,0,0.0000000,CS000204,تموينات حسام للمواد الغذائية,JEDDAH,THU,البوادي,,,,,21.61357,39.15947,,,West,2,In-Active,ش عتبة بن ربيعة,Small Grocery,1,"310,263,588,900,003",Approved by Finance,23531,JED001,2023-08-02
CS000210,شركةالبشائرالحديثةللموادالغذائية,JEDC04,00,AG00294,Biju  Poochothiyil,Jeddah,Zone,"42,023,978,335",2024-09-08,0,"508,819,563",,"4,030,391,411",2024-07-03,Required,الطائف,Agent Registration,0,0.0000000,CS000210,شركةالبشائرالحديثةللموادالغذائية,JEDDAH,THU,الاجواد,,,,,21.59351,39.26200,,,West,1,In-Active,معاوية السلمي,,0,"311,368,759,300,003",Approved by Finance,23466,JED002,2023-08-02
CS000213,تموينات ميرا الحديثة,JEDC08,00,AG00313,Khaled Salama,Jeddah,Zone,"43,109,812,857",2025-04-13,0,"502,494,088",,"4,030,433,132",2026-08-22,Required,جدة,Agent Registration,0,0.0000000,CS000213,تموينات ميرا الحديثة,JEDDAH,WED,الروضة,,,,,21.77849,39.09707,,,West,1,In-Active,الروضة,,13,"310,147,821,500,003",Approved by Finance,23451,JED001,2023-08-02
CS000215,سوبرماركت دينا,JEDC06,0,AG00313,Khaled Salama,Jeddah,Zone,"39,111,330,523",2025-06-24,0,"565,176,933",Traditional Trade,"4,030,280,947",2025-07-31,Required,جدة,Agent Registration,0,765.0400000,CS000215,سوبرماركت دينا,JEDDAH,SUN,البساتين,,,,,21.67717,39.12038,Credit,,West,2,ACTIVE,الأمير سلطان,Medium Grocery,10,"300,500,767,100,003",Approved by Finance,23717,JED001,2024-09-15
CS000216,مؤسسة حفصه عبد المجيد,JEDC04,4697,AG00294,Biju  Poochothiyil,Jeddah,Zone,"441,112,423,262",2025-05-19,6624,"535,767,242",Traditional Trade,"4,030,505,827",2024-03-19,Required,جدة,Agent Registration,0,0.0000000,CS000216,مؤسسة حفصه عبد المجيد,JEDDAH,THU,بريمان,,,,,21.59894,39.26369,Credit,,West,1,In-Active,الأجواد,Medium Grocery,1,"311,610,009,100,003",Approved by Finance,23453,JED002,2024-09-15
CS000217,بقالة ماجد سعد محمد الشقيم,JEDC02,00,AG00313,Khaled Salama,Jeddah,Zone,"440,110,277,928",2024-07-10,dummy,"553,738,942",,"4,030,506,994",2024-03-29,Required,جدة,Agent Registration,0,0.0000000,CS000217,بقالة ماجد سعد محمد الشقيم,JEDDAH,WED,البوادي,,,,,21.61362,39.16023,,,West,2,In-Active,dummy,,1,"300,000,000,000,003",Approved by Finance,23531,JED001,
CS000218,أسواق ومخابز المدينة للتسويق,JEDC07,00,AG00294,Biju  Poochothiyil,Jeddah,Zone,"4,030,425,831",2025-02-08,0,"500,627,827",,"4,030,425,831",2026-01-09,Required,جدة,Agent Registration,0,0.0000000,CS000218,أسواق ومخابز المدينة للتسويق,JEDDAH,SAT,الجامعة,,,,,21.47953,39.33090,,,West,2,In-Active,ش بغداد,,3,"311,006,146,200,003",Approved by Finance,22341,JED002,2023-08-02
CS000219,تموينات فالكم طيب للمواد الغذائية,JEDC08,8519,AG00313,Khaled Salama,Jeddah,Zone,"441,112,237,607",2025-05-06,5044,"535,201,395",Traditional Trade,"4,030,508,879",2028-04-28,Required,جدة,Agent Registration,8,593.9300000,CS000219,تموينات فالكم طيب للمواد الغذائية,JEDDAH,SUN,البساتين,,,,,21.68201,39.11840,Credit,,West,2,ACTIVE,الامير سلطان,Medium Grocery,5,"310,203,445,200,003",Approved by Finance,23716,JED001,2024-09-15
CS000220,تموينات تركي للمواد الغذائية,JEDC05,0,AG00294,Biju  Poochothiyil,Jeddah,Zone,"440,110,272,953",,0,"542,243,085",,"4,030,479,370",,Required,جدة,Agent Registration,0,0.0000000,CS000220,تموينات تركي للمواد الغذائية,JEDDAH,WED,الفيصلية,,,,,21.57619,39.19204,,,West,1,In-Active,ش الامام الشافعي,,0,"310,945,987,700,003",Approved by Finance,23447,JED002,2023-08-02
CS000221,مجمع تموينات خيرات الجامعي,JEDC07,00,AG00294,Biju  Poochothiyil,Jeddah,Zone,"1,100,145,721",,0,"506,424,614",,"4,030,360,939",,Required,جدة,Agent Registration,0,0.0000000,CS000221,مجمع تموينات خيرات الجامعي,JEDDAH,SAT,الحرازات,,,,,21.47823,39.33468,,,West,2,In-Active,الشارع العام,,2,"310,399,328,700,003",Approved by Finance,22391,JED002,2023-08-02
CS000222,تموينات عنب وكرز للمواد الغذائية,JEDC08,00,AG00313,Khaled Salama,Jeddah,Zone,"440,210,480,624",2024-08-23,0,"557,465,946",Traditional Trade,"4,030,479,845",2025-07-07,Required,جدة,Agent Registration,0,0.0000000,CS000222,تموينات عنب وكرز للمواد الغذائية,JEDDAH,WED,اللؤلؤ,,,,,21.75648,39.06596,,,West,1,In-Active,ش احمد الحسياني,Large Grocery,26,"310,743,970,900,003",Approved by Finance,64262,JED001,2023-08-02
CS000223,تموينات ميرا,JEDC05,00,AG00294,Biju  Poochothiyil,Jeddah,Zone,"44,000,000,000,079",2025-01-05,0,"556,831,052",,"4,030,357,784",2025-04-21,Required,جدة,Agent Registration,0,0.0000000,CS000223,تموينات ميرا,JEDDAH,WED,الفيصلية,,,,,21.57416,39.18948,,,West,1,In-Active,ش الحارث بن سليم,,5,"310,256,638,300,003",Approved by Finance,23337,JED002,2023-08-02
CS000224,تمونيات الدار,JEDC04,00,AG00294,Biju  Poochothiyil,Jeddah,Zone,"440,711,476,333",,0,"553,698,657",,"4,030,498,654",,Required,جدة,Agent Registration,0,0.0000000,CS000224,تمونيات الدار,JEDDAH,THU,الاجواد,,,,,21.59538,39.25897,,,West,1,In-Active,ش احمد بن رافعة,,2,"302,173,387,700,003",Approved by Finance,23235,JED002,2023-08-02
CS000225,اسواق زمخابز البساتين,JEDC08,8832,AG00313,Khaled Salama,Jeddah,Zone,"42,075,355,187",2025-01-25,5224,"545,958,623",Traditional Trade,"4,030,523,401",2025-09-05,Required,جدة,Agent Registration,19,699.5500000,CS000225,اسواق زمخابز البساتين,JEDDAH,SUN,البساتين,,,,,21.68467,39.12073,Credit,,West,2,ACTIVE,البساتين,Medium Grocery,13,"311,290,228,900,003",Approved by Finance,23718,JED001,2024-09-15
CS000226,تموينات العوفي,JEDC07,00,AG00294,Biju  Poochothiyil,Jeddah,Zone,"4,030,381,480",,0,"531,495,003",,"4,030,381,480",,Required,جدة,Agent Registration,0,0.0000000,CS000226,تموينات العوفي,JEDDAH,SAT,مريخ,,,,,21.47771,39.35831,,,West,2,In-Active,مريخ,,1,"310,576,808,400,003",Approved by Finance,23253,JED002,2023-08-02
CS000227,تموينات جرين كارت للمواد الغذاية,JEDC08,00,AG00313,Khaled Salama,Jeddah,Zone,"440,611,354,418",2024-12-24,0,"546,301,361",,"4,030,488,877",2024-10-05,Required,جدة,Agent Registration,0,0.0000000,CS000227,تموينات جرين كارت للمواد الغذاية,JEDDAH,WED,الاجواد,,,,,21.76339,39.07663,,,West,1,In-Active,ابو المغيرة بن حزام,,7,"311,438,280,700,003",Approved by Finance,23814,JED001,2023-08-02
CS000228,مخباز وسوبرماركت كادي,JEDC05,00,AG00294,Biju  Poochothiyil,Jeddah,Zone,"39,111,455,864",2023-08-21,0,"548,421,986",Traditional Trade,"4,030,386,353",2025-02-20,Required,جدة,Agent Registration,0,0.0000000,CS000228,مخباز وسوبرماركت كادي,JEDDAH,WED,الفيصلية,,,,,21.57408,39.18933,,,West,1,In-Active,طريق المكرونة,Medium Grocery,17,"311,305,211,300,003",Approved by Finance,23436,JED002,2023-08-02
CS000229,تموينات طيبة,JEDC04,00,AG00294,Biju  Poochothiyil,Jeddah,Zone,"42,055,085,991",2024-11-29,0,"544,677,269",,"4,030,389,644",2026-05-09,Required,جدة,Agent Registration,0,0.0000000,CS000229,تموينات طيبة,JEDDAH,THU,الاجواد,,,,,21.60047,39.24950,,,West,1,In-Active,برهان الاسلام,,1,"310,702,594,600,003",Approved by Finance,22443,JED002,2023-08-02
CS000230,مخبز ومركز جندة للتسويق,JEDC05,3998,AG00294,Biju  Poochothiyil,Jeddah,Zone,"39,111,455,440",2025-05-02,7046,"535,502,616",Traditional Trade,"4,030,353,114",2025-09-09,Required,جدة,Agent Registration,0,561.8900000,CS000230,مخبز ومركز جندة للتسويق,JEDDAH,WED,الفيصلية,,,,,21.57425,39.18950,Credit,,West,1,ACTIVE,المكرونة,Medium Grocery,18,"311,445,379,500,003",Approved by Finance,23466,JED002,2024-09-15
CS000233,مخابز وتموينات اوزان,JEDC08,00,AG00313,Khaled Salama,Jeddah,Zone,"43,058,112,481",,0,"572,864,072",Traditional Trade,"4,030,265,619",,Required,جدة,Agent Registration,0,0.0000000,CS000233,مخابز وتموينات اوزان,JEDDAH,WED,الشراع,,,,,21.77476,39.09288,,,West,1,In-Active,ادريس بن قتادة,Medium Grocery,5,"300,988,859,100,003",Approved by Finance,00000,JED001,2023-08-02
CS000235,تموينات طلال,JEDC08,00,AG00313,Khaled Salama,Jeddah,Zone,"39,111,325,084",,0,"530,541,406",,"4,030,447,433",,Required,جدة,Agent Registration,0,0.0000000,CS000235,تموينات طلال,JEDDAH,WED,الشراع,,,,,21.77564,39.09325,,,West,1,In-Active,ش ابو جعفر المسلمي,,0,"311,342,573,000,003",Approved by Finance,00000,JED001,2023-08-02
CS000236,سوبر ماركت لمار,JEDC03,4322,AG00294,Biju  Poochothiyil,Jeddah,Zone,"39,111,433,111",2025-05-26,7949,"568,825,577",Traditional Trade,"4,030,344,115",2026-08-30,Required,جدة,Agent Registration,0,0.0000000,CS000236,سوبر ماركت لمار,JEDDAH,THU,المنار,,,,,21.60634,39.25226,Credit,,West,1,In-Active,عاصم بن عمر,Medium Grocery,6,"312,468,688,500,003",Approved by Finance,23462,JED002,2024-09-15
CS000237,تموينات مصدر الغذاء,JEDC08,5617,AG00290,Mohamed Hossain,Jeddah,Assignment,"39,111,333,968",2025-06-21,8256,"505,753,516",Traditional Trade,"4,030,407,152",2027-01-07,Required,جدة,Agent Registration,26,808.9100000,CS000237,تموينات مصدر الغذاء,JEDDAH,SUN,البساتين,,,,,21.68467,39.11832,Credit,,West,2,ACTIVE,محمد بن ابي الفراج,Medium Grocery,12,"310,859,647,200,003",Approved by Finance,23717,JED001,2024-09-15
CS000238,تموينات محمد الزهراني,JEDC03,4973,AG00313,Khaled Salama,Jeddah,Zone,"42,125,981,461",2023-07-05,6654,"562,934,371",Traditional Trade,"4,030,427,782",2025-12-07,Required,جدة,Agent Registration,0,0.0000000,CS000238,تموينات محمد الزهراني,JEDDAH,THU,الرحمانية,,,,,21.78034,39.21563,Credit,,West,1,In-Active,شارع الصمد,Medium Grocery,9,"311,021,060,500,003",Approved by Finance,22346,JED001,2024-09-15
CS000239,تموينات انعامكم واحد للمواد الغذائية,JEDC08,00,AG00313,Khaled Salama,Jeddah,Zone,"43,047,921,339",,0,"555,423,005",,"4,030,496,934",,Required,جدة,Agent Registration,0,0.0000000,CS000239,تموينات انعامكم واحد للمواد الغذائية,JEDDAH,WED,الياقوت,,,,,21.76686,39.08247,,,West,1,In-Active,شارع صلاح الدين الايوبي,,2,"311,516,021,200,003",Approved by Finance,23824,JED001,2023-08-02
CS000240,تموينات الخير,JEDC03,3028,AG00294,Biju  Poochothiyil,Jeddah,Zone,"39,111,447,828",2026-05-02,7962,"556,932,881",Traditional Trade,"4,030,362,231",2025-03-25,Required,جدة,Agent Registration,0,0.0000000,CS000240,تموينات الخير,JEDDAH,THU,الاجواد,,,,,21.60685,39.25389,Credit,,West,1,In-Active,عبدالرحمن ابو عبس,Medium Grocery,2,"310,406,654,700,003",Approved by Finance,23466,JED002,2024-09-15
CS000241,اسواق الجندول,JEDC06,7993,AG00313,Khaled Salama,Jeddah,Zone,"41,063,210,397",2024-12-09,4229,"501,178,941",Traditional Trade,"4,030,233,525",2025-02-19,Required,جدة,Agent Registration,18,1923.8400000,CS000241,اسواق الجندول,JEDDAH,SUN,البساتين,,,,,21.67559,39.12044,Credit,,West,2,ACTIVE,عبدالرحمن بن ابي بكر الصديق,Medium Grocery,34,"311,231,617,500,003",Approved by Finance,23716,JED001,2024-09-15
CS000243,تموينات الامداد,JEDC03,6424,AG00313,Khaled Salama,Jeddah,Zone,"440,310,754,576",2024-09-23,3588,"550,915,008",Traditional Trade,"4,030,535,120",2024-12-10,Required,جدة,Agent Registration,4,500.0000000,CS000243,تموينات الامداد,JEDDAH,THU,الرحمانية,,,,,21.77899,39.21622,Credit,,West,1,ACTIVE,شارع,Medium Grocery,17,"311,949,689,800,003",Approved by Finance,23765,JED001,2024-09-15
CS000244,تموينات زاد الأية للمواد الغذائية,JEDC06,5655,AG00313,Khaled Salama,Jeddah,Zone,"450,112,723,265",2025-06-28,7500,"538,923,680",Traditional Trade,"4,030,513,325",2025-05-05,Required,جدة,Agent Registration,0,500.0000000,CS000244,تموينات زاد الأية للمواد الغذائية,JEDDAH,SUN,البساتين,,,,,21.67325,39.12015,Credit,,West,2,ACTIVE,الامير سلطان,Medium Grocery,19,"310,400,102,300,003",Approved by Finance,23717,JED001,2024-09-15
CS000245,تموينات محور الكون,JEDC04,00,AG00294,Biju  Poochothiyil,Jeddah,Zone,"43,089,510,948",,0,"508,690,398",,"4,030,444,882",,Required,جدة,Agent Registration,0,0.0000000,CS000245,تموينات محور الكون,JEDDAH,SUN,الفيصلية,,,,,21.57988,39.19667,,,West,1,In-Active,شارع مروان العزيز,,4,"311,111,111,111,113",Approved by Finance,23447,JED002,2023-08-02
CS000246,تموينات زاد لجواد,JEDC02,00,AG00313,Khaled Salama,Jeddah,Zone,"440,310,671,728",2024-09-10,0,"545,590,276",Traditional Trade,"4,030,462,914",2025-03-06,Required,جدة,Agent Registration,0,0.0000000,CS000246,تموينات زاد لجواد,JEDDAH,TUE,المحمدية,,,,,21.64696,39.12793,,,West,2,In-Active,الامير سلطان,Small Grocery,16,"311,690,010,500,003",Approved by Finance,68372,JED001,2023-08-02
CS000247,تموينات الرؤيه,JEDC04,00,AG00294,Biju  Poochothiyil,Jeddah,Zone,"39,111,456,859",,0,"530,698,287",,"4,030,176,746",,Required,جدة,Agent Registration,0,0.0000000,CS000247,تموينات الرؤيه,JEDDAH,SUN,الفيصلية,,,,,21.58209,39.18807,,,West,1,In-Active,ابن اسحاق,,1,"300,838,383,500,003",Approved by Finance,00000,JED002,2023-08-02
CS000249,تموينات السعيد للمواد الغذائية,JEDC03,00,AG00313,Khaled Salama,Jeddah,Zone,"431,210,169,219",,0,"568,916,434",Traditional Trade,"4,030,274,659",,Required,جدة,Agent Registration,0,0.0000000,CS000249,تموينات السعيد للمواد الغذائية,JEDDAH,THU,الفلاح,,,,,21.76985,39.19392,,,West,1,In-Active,النضير بن الحارث,Medium Grocery,2,"300,097,033,900,003",Approved by Finance,23762,JED001,2023-08-02
CS000250,بقاله علي,JEDC04,00,AG00294,Biju  Poochothiyil,Jeddah,Zone,"43,037,587,375",2025-09-06,0,"568,853,745",,"4,030,370,623",2026-10-10,Required,جدة,Agent Registration,0,0.0000000,CS000250,بقاله علي,JEDDAH,SUN,الفيصلية,,,,,21.58478,39.19001,,,West,1,In-Active,عمرو بن كلثوم,,10,"301,256,877,200,003",Approved by Finance,61913,JED002,2023-08-02
CS000252,شركة الحسام  1,JEDC02,8475,AG00313,Khaled Salama,Jeddah,Zone,"39,111,284,641",2024-11-05,2338,"553,327,299",Traditional Trade,"4,030,247,337",2025-05-13,Required,جدة,Agent Registration,0,500.0000000,CS000252,شركة الحسام  1,JEDDAH,THU,الزهراء,,,,,21.60928,39.13467,Credit,,West,2,ACTIVE,حراء,Medium Grocery,7,"311,337,634,100,003",Approved by Finance,23442,JED001,2024-09-15
CS000255,اسواق ومخابز كاس الهناء,JEDC07,00,AG00294,Biju  Poochothiyil,Jeddah,Zone,"1,100,148,201",,00,"532,764,279",,"4,030,473,607",,Required,جدة,Agent Registration,0,0.0000000,CS000255,اسواق ومخابز كاس الهناء,JEDDAH,SAT,مريخ,,,,,21.52639,39.30557,,,West,2,In-Active,شارع ربعي الذهلي,,0,"311,173,673,500,003",Approved by Finance,12345,JED002,2023-08-03
CS000256,تموينات الانصار,JEDC03,11223,AG00313,Khaled Salama,Jeddah,Zone,"41,083,498,768",,1,"536,411,383",,"4,030,425,131",,Required,جدة,Agent Registration,0,0.0000000,CS000256,تموينات الانصار,JEDDAH,SAT,الحمدانية,,,,,21.77797,39.18827,,,West,2,In-Active,الحمدانية,,10,"311,001,151,300,003",Approved by Finance,23441,JED001,2023-08-03
CS000257,مؤسسة محمد سالم عبدالله باوزير التجاريه,JEDC05,22334,AG00294,Biju  Poochothiyil,Jeddah,Zone,"39,111,426,106",,1,"564,104,715",,"4,030,488,683",,Required,جدة,Agent Registration,0,0.0000000,CS000257,مؤسسة محمد سالم عبدالله باوزير التجاريه,JEDDAH,WED,الفيصلية,,,,,21.56658,39.17830,,,West,1,In-Active,سعود الفيصل,,7,"300,113,887,800,003",Approved by Finance,11541,JED002,2023-08-03
CS000258,مركز الجنوب للمواد الغذائية,JEDC03,00,AG00294,Biju  Poochothiyil,Jeddah,Zone,"431,210,199,110",2023-07-27,00,"554,970,373",Traditional Trade,"4,030,453,899",2025-01-25,Required,جدة,Agent Registration,0,0.0000000,CS000258,مركز الجنوب للمواد الغذائية,JEDDAH,SAT,الشروق,,,,,21.57308,39.29540,,,West,2,In-Active,شارع شارع,Medium Grocery,6,"310,239,218,900,003",Approved by Finance,12345,JED002,2023-08-03
CS000259,تموينات السعودية,JEDC04,00,AG00294,Biju  Poochothiyil,Jeddah,Zone,"39,111,285,279",,00,"545,313,578",,"4,030,343,905",,Required,جدة,Agent Registration,0,0.0000000,CS000259,تموينات السعودية,JEDDAH,MON,الروضة,,,,,21.56872,39.15955,,,West,1,In-Active,شارع ابن الدباغ,,2,"302,153,089,400,003",Approved by Finance,12345,JED002,2023-08-03
CS000260,تموينات مفلح الجهني للمواد الغذائية,JEDC04,00,AG00294,Biju  Poochothiyil,Jeddah,Zone,"39,111,449,788",2025-07-29,00,"568,646,723",,"4,030,373,700",2024-09-23,Required,جدة,Agent Registration,0,0.0000000,CS000260,تموينات مفلح الجهني للمواد الغذائية,JEDDAH,SUN,البوادي,,,,,21.58482,39.16708,,,West,1,In-Active,ابراهيم شكر,,8,"302,014,452,300,003",Approved by Finance,12345,JED002,2023-08-03
CS000262,تموينات المستهلك,JEDC08,9264,AG00313,Khaled Salama,Jeddah,Zone,"39,111,332,093",2024-12-28,4330,"507,615,002",Traditional Trade,"4,030,361,717",2025-05-26,Required,جدة,Agent Registration,0,0.0000000,CS000262,تموينات المستهلك,JEDDAH,SUN,ذهبان,,,,,21.92960,39.12162,Credit,,West,1,In-Active,شارع عام,Medium Grocery,2,"310,420,387,900,003",Approved by Finance,23783,JED001,2024-09-15
CS000263,سوبر ماركت هلا  1,JEDC04,0,AG00294,Biju  Poochothiyil,Jeddah,Zone,"39,111,330,084",2025-10-02,0,"560,913,955",Traditional Trade,"4,030,490,662",2025-10-22,Required,جدة,Agent Registration,0,628.9500000,CS000263,سوبر ماركت هلا  1,JEDDAH,MON,الروضة,,,,,21.56936,39.15947,Credit,,West,1,ACTIVE,الصالحي,Medium Grocery,40,"311,267,838,200,003",Approved by Finance,23218,JED002,2024-09-15
CS000264,تموينات حنين,JEDC07,00,AG00294,Biju  Poochothiyil,Jeddah,Zone,"4,030,592,617",,00,"501,386,612",,"4,030,592,617",,Required,جدة,Agent Registration,0,0.0000000,CS000264,تموينات حنين,JEDDAH,THU,الاجاويد,,,,,21.39430,39.29522,,,West,2,In-Active,شارع علي بن يوسف الغساني,,5,"310,101,488,900,003",Approved by Finance,12345,JED002,2023-08-03
CS000265,اسوق الفارس للتسويق,JEDC08,00,AG00313,Khaled Salama,Jeddah,Zone,"4,102,258,579",,00,"563,132,892",,"4,041,100,141",,Required,جدة,Agent Registration,0,0.0000000,CS000265,اسوق الفارس للتسويق,JEDDAH,SUN,ذهبان,,,,,21.93897,39.12309,,,West,1,In-Active,العباس بن موسى بن عيسى بن موسى,,0,"305,006,521,800,003",Approved by Finance,12345,JED001,2023-08-03
CS000266,تموينات الفائز,JEDC04,00,AG00294,Biju  Poochothiyil,Jeddah,Zone,"430,326,651",2026-02-07,00,"563,533,230",,"4,030,326,651",2024-10-17,Required,جدة,Agent Registration,0,0.0000000,CS000266,تموينات الفائز,JEDDAH,SUN,البوادي,,,,,21.58514,39.16877,,,West,1,In-Active,شارع ابراهيم شكر,,25,"311,273,376,100,003",Approved by Finance,12345,JED002,2023-08-03
CS000267,اسواق البيشية,JEDC08,3947,AG00313,Khaled Salama,Jeddah,Zone,"43,099,700,508",2025-03-22,8705,"579,135,812",Traditional Trade,"4,030,447,122",2024-11-21,Required,جدة,Agent Registration,26,1243.1800000,CS000267,اسواق البيشية,JEDDAH,SUN,المرجان,,,,,21.68399,39.10796,Credit,,West,2,ACTIVE,المرجان,Medium Grocery,44,"310,908,705,600,003",Approved by Finance,23714,JED001,2024-10-28
CS000268,أسواق ميس الرائدة للتجارة,JEDC03,0,AG00313,Khaled Salama,Jeddah,Zone,"42,044,406,600",2025-10-07,0,"559,855,363",Traditional Trade,"4,030,510,010",2025-04-26,Required,جدة,Agent Registration,24,2261.7300000,CS000268,أسواق ميس الرائدة للتجارة,JEDDAH,SAT,الفلاح,,,,,21.79206,39.18277,Credit,,West,2,ACTIVE,يزيد بن زيد,Medium Grocery,19,"302,172,144,600,003",Approved by Finance,23743,JED001,2024-09-15
CS000270,تموينات ركن خيراتي  2,JEDC04,6869,AG00294,Biju  Poochothiyil,Jeddah,Zone,"40,021,707,639",2025-08-13,5120,"501,300,962",Traditional Trade,"4,030,510,347",2025-05-10,Required,جدة,Agent Registration,22,500.0000000,CS000270,تموينات ركن خيراتي  2,JEDDAH,THU,السامر,,,,,21.59046,39.25097,Credit,,West,1,ACTIVE,عبدالله ابن عطاء,Medium Grocery,12,"302,033,682,900,003",Approved by Finance,23462,JED002,2024-09-15
CS000271,تموينات الحجاز العصرية,JEDC03,٠٠,AG00313,Khaled Salama,Jeddah,Zone,"39,111,439,234",,00,"503,372,341",,"4,030,179,815",,Required,جدة,Agent Registration,0,0.0000000,CS000271,تموينات الحجاز العصرية,JEDDAH,THU,البغدادية,,,,,21.78990,39.20936,,,West,1,In-Active,حمزه شحاته,,1,"311,176,000,800,003",Approved by Finance,١٢٣٤٥,JED001,2023-08-03
CS000273,اسواق مركز الزين,JEDC08,00,AG00313,Khaled Salama,Jeddah,Zone,"440,310,698,527",,0,"508,839,446",Traditional Trade,"4,604,003,119",,Required,جدة,Agent Registration,0,0.0000000,CS000273,اسواق مركز الزين,JEDDAH,MON,الصواري,,,,,21.80204,39.11802,,,West,1,In-Active,طريق المدينة المنورة,Medium Grocery,4,"311,311,095,500,003",Approved by Finance,00000,JED001,2023-08-03
CS000274,سوبرماركت عبدالله,JEDC04,8194,AG00294,Biju  Poochothiyil,Jeddah,Zone,"450,112,752,560",2025-07-09,2714,"567,046,861",Traditional Trade,"4,030,475,963",2025-05-26,Required,جدة,Agent Registration,0,0.0000000,CS000274,سوبرماركت عبدالله,JEDDAH,SUN,البوادي,,,,,21.58973,39.16532,Credit,,West,1,In-Active,يحيى حسين,Medium Grocery,25,"310,962,051,400,003",Approved by Finance,23218,JED002,2024-09-15
CS000275,السعر الإقتصادي,JEDC07,00,AG00294,Biju  Poochothiyil,Jeddah,Zone,"4,030,164,002",,0,"566,993,544",,"4,030,164,002",,Required,جدة,Agent Registration,0,0.0000000,CS000275,السعر الإقتصادي,JEDDAH,THU,الاجاويد,,,,,21.41507,39.30100,,,West,2,In-Active,سعيد بن ثابت الانصاري,,2,"300,771,819,700,003",Approved by Finance,22262,JED002,2023-08-03
CS000276,تموينات الفلاح للمواد الغذائية,JEDC04,1,AG00294,Biju  Poochothiyil,Jeddah,Zone,"39,111,437,078",2025-06-18,1,"571,371,944",Traditional Trade,"4,030,570,295",2025-04-18,Required,جدة,Agent Registration,0,500.0000000,CS000276,تموينات الفلاح للمواد الغذائية,JEDDAH,THU,الاجواد,,,,,21.59687,39.25086,Credit,,West,1,ACTIVE,هشام بن حجير,Medium Grocery,27,"311,338,443,800,003",Approved by Finance,23466,JED002,2024-09-15
CS000278,اسواق الحلم الابيض للمواد الغذائية,JEDC08,00,AG00313,Khaled Salama,Jeddah,Zone,"440,210,534,469",,0,"531,429,956",Traditional Trade,"4,030,481,681",,Required,جدة,Agent Registration,0,0.0000000,CS000278,اسواق الحلم الابيض للمواد الغذائية,JEDDAH,WED,الصواري,,,,,21.78632,39.10728,,,West,1,In-Active,ابراهيم بن فتوح العقيلي,Medium Grocery,3,"311,133,071,900,003",Approved by Finance,23216,JED001,2023-08-03
CS000279,مخابز وأسواق الهدى,JEDC07,00,AG00294,Biju  Poochothiyil,Jeddah,Zone,"7,012,466,525",,0,"569,324,031",,"4,030,179,761",,Required,جدة,Agent Registration,0,0.0000000,CS000279,مخابز وأسواق الهدى,JEDDAH,THU,الاجاويد,,,,,21.41223,39.30325,,,West,2,In-Active,شارع ابن المهلب,,2,"311,323,508,300,003",Approved by Finance,21422,JED002,2023-08-03
CS000280,تموينات البوادي,JEDC04,00,AG00294,Biju  Poochothiyil,Jeddah,Zone,"41,052,651,077",2023-11-30,0,"565,004,949",,"4,030,383,908",2025-05-18,Required,جدة,Agent Registration,0,0.0000000,CS000280,تموينات البوادي,JEDDAH,SUN,البوادي,,,,,21.58996,39.16364,,,West,1,In-Active,يحي حسين,,19,"310,047,474,400,003",Approved by Finance,52343,JED002,2023-08-03
CS000283,تموينات رنية,JEDC07,00,AG00294,Biju  Poochothiyil,Jeddah,Zone,"7,023,290,070",,0,"531,527,930",,"4,030,414,833",,Required,جدة,Agent Registration,0,0.0000000,CS000283,تموينات رنية,JEDDAH,THU,الاجاويد,,,,,21.39925,39.30019,,,West,2,In-Active,ابن المهلب,,2,"310,923,143,800,003",Approved by Finance,22452,JED002,2023-08-03
CS000284,اسواق تهامة,JEDC03,00,AG00313,Khaled Salama,Jeddah,Zone,"7,014,061,381",,0,"535,218,674",,"4,030,179,815",,Required,جدة,Agent Registration,0,0.0000000,CS000284,اسواق تهامة,JEDDAH,THU,الرحمانية,,,,,21.78691,39.20343,,,West,1,In-Active,زين لدين العابدين بن عبدالقاد,,1,"311,311,095,500,003",Approved by Finance,12345,JED001,2023-08-03
CS000285,تموينات الغربيه المتحدة,JEDC04,0,AG00294,Biju  Poochothiyil,Jeddah,Zone,"41,032,605,801",2026-08-20,0,"557,775,912",Traditional Trade,"4,030,164,260",2025-01-15,Required,جدة,Agent Registration,0,500.0000000,CS000285,تموينات الغربيه المتحدة,JEDDAH,MON,الروضة,,,,,21.57358,39.16192,Credit,,West,1,ACTIVE,قاسم زينل,Medium Grocery,20,"300,093,728,700,003",Approved by Finance,23437,JED002,2024-09-15
CS000286,تموينات الافضل,JEDC04,00,AG00294,Biju  Poochothiyil,Jeddah,Zone,"7,014,823,616",,0,"502,531,537",,"4,030,171,721",,Required,جدة,Agent Registration,0,0.0000000,CS000286,تموينات الافضل,JEDDAH,SUN,البوادي,,,,,21.59153,39.16422,,,West,1,In-Active,سعد بن قيس,,5,"311,710,699,700,003",Approved by Finance,00,JED002,2023-08-03
CS000287,متجر اكسبرسو,JEDC03,00,AG00313,Khaled Salama,Jeddah,Zone,"7,028,674,286",,0,"550,474,379",,"4,030,470,251",,Required,جدة,Agent Registration,0,0.0000000,CS000287,متجر اكسبرسو,JEDDAH,THU,الكوثر,,,,,21.72900,39.20461,,,West,1,In-Active,محمد مصلح,,2,"310,360,652,600,003",Approved by Finance,23437,JED001,2023-08-03
CS000288,أسواق الرواد,JEDC03,00,AG00294,Biju  Poochothiyil,Jeddah,Zone,"7,025,369,351",,0,"597,072,017",,"4,030,425,058",,Required,جدة,Agent Registration,0,0.0000000,CS000288,أسواق الرواد,JEDDAH,THU,المنار,,,,,21.60389,39.24225,,,West,1,In-Active,المنار,,2,"311,000,674,900,003",Approved by Finance,23436,JED002,2023-08-03
CS000290,تموينات سلة المستهلكين,JEDC04,00,AG00294,Biju  Poochothiyil,Jeddah,Zone,"7,021,521,138",,0,"577,937,542",Traditional Trade,"4,030,407,694",,Required,جدة,Agent Registration,0,0.0000000,CS000290,تموينات سلة المستهلكين,JEDDAH,MON,الروضة,,,,,21.57538,39.15744,,,West,1,In-Active,امين مدني,Small Grocery,1,"310,864,795,700,003",Approved by Finance,00000,JED002,2023-08-03
CS000291,تموينات ريتاج,JEDC07,00,AG00294,Biju  Poochothiyil,Jeddah,Zone,"440,410,990,807",2024-10-29,0,"548,508,861",,"4,030,334,134",2024-11-14,Required,جدة,Agent Registration,0,0.0000000,CS000291,تموينات ريتاج,JEDDAH,THU,السنابل,,,,,21.40041,39.26971,,,West,2,In-Active,عبدالله بن معبد,,1,"310,340,952,400,003",Approved by Finance,22434,JED002,2023-08-03
CS000292,مخابز و تموينات الفجر,JEDC03,00,AG00313,Khaled Salama,Jeddah,Zone,"7,021,637,322",,00,"535,008,377",,"4,030,409,091",,Required,جدة,Agent Registration,0,0.0000000,CS000292,مخابز و تموينات الفجر,JEDDAH,THU,الفلاح,,,,,21.79337,39.20002,,,West,1,In-Active,سليمان الطبراني,,1,"311,432,365,100,003",Approved by Finance,22238,JED001,2023-08-03
CS000293,تموينات البركة,JEDC07,00,AG00294,Biju  Poochothiyil,Jeddah,Zone,"7,013,551,473",,0,"559,067,763",,"4,030,227,686",,Required,جدة,Agent Registration,0,0.0000000,CS000293,تموينات البركة,JEDDAH,THU,السنابل,,,,,21.40308,39.27374,,,West,2,In-Active,السنابل 3,,1,"300,411,108,600,003",Approved by Finance,22242,JED002,2023-08-03
CS000294,تموينات خالد للمواد الغذائية,JEDC07,00,AG00294,Biju  Poochothiyil,Jeddah,Zone,"7,023,797,629",,0,"533,414,602",,"4,030,419,840",,Required,جدة,Agent Registration,0,0.0000000,CS000294,تموينات خالد للمواد الغذائية,JEDDAH,THU,السنابل,,,,,21.39880,39.28281,,,West,2,In-Active,عمر يحي,,1,"302,089,029,400,003",Approved by Finance,22444,JED002,2023-08-03
CS000295,ALEEN SUPERMSRKET,JEDC02,00,AG00294,Biju  Poochothiyil,Jeddah,Zone,"44,000,000,000,054",2586-05-16,0,"567,662,391",,"4,030,296,795",2587-09-03,Required,جدة,Agent Registration,0,0.0000000,CS000295,ALEEN SUPERMSRKET,JEDDAH,MON,العزيزية,,,,,21.55508,39.20903,,,West,2,In-Active,المؤرخين,,1,"305,000,917,800,003",Approved by Finance,23342,JED002,2023-08-03
CS000296,بقالة سالم,JEDC04,00,AG00294,Biju  Poochothiyil,Jeddah,Zone,"39,111,334,942",2024-01-05,1,"595,590,019",Traditional Trade,"4,030,388,324",2025-07-22,Required,جدة,Agent Registration,0,0.0000000,CS000296,بقالة سالم,JEDDAH,MON,الروضة,,,,,21.57203,39.15308,,,West,1,In-Active,محمود بري,Small Grocery,12,"300,457,387,600,003",Approved by Finance,00000,JED002,2023-08-03
CS000297,بقاله البركات,JEDC04,00,AG00294,Biju  Poochothiyil,Jeddah,Zone,"7,017,750,204",,1,"532,890,420",,"4,030,388,582",,Required,جدة,Agent Registration,0,0.0000000,CS000297,بقاله البركات,JEDDAH,SUN,البوادي,,,,,21.59306,39.16643,,,West,1,In-Active,ابو عبدالله البغدادي,,0,"311,111,111,111,113",Approved by Finance,00000,JED002,2023-08-03
CS000298,تموينات السلطانه,JEDC03,00,AG00313,Khaled Salama,Jeddah,Zone,"7,029,159,774",,00,"501,735,712",,"4,604,109,498",,Required,جدة,Agent Registration,0,0.0000000,CS000298,تموينات السلطانه,JEDDAH,THU,الفلاح,,,,,21.78920,39.20179,,,West,1,In-Active,سليمان الطبراني,,1,"311,309,335,800,003",Approved by Finance,12345,JED001,2023-08-03
CS000299,تموينات تالية الخليج,JEDC08,00,AG00313,Khaled Salama,Jeddah,Zone,"4,030,509,892",,1,"541,033,058",Traditional Trade,"4,030,509,892",,Required,جدة,Agent Registration,0,0.0000000,CS000299,تموينات تالية الخليج,JEDDAH,WED,الشراع,,,,,21.76210,39.09152,,,West,1,In-Active,شارع ابي القاسم,Small Grocery,3,"302,278,753,700,003",Approved by Finance,23814,JED001,2023-08-03
CS000300,تموينات نواة الخير,JEDC07,00,AG00294,Biju  Poochothiyil,Jeddah,Zone,"7,008,371,416",,1,"581,993,861",Traditional Trade,"4,030,396,045",,Required,جدة,Agent Registration,0,0.0000000,CS000300,تموينات نواة الخير,JEDDAH,THU,السنابل,,,,,21.39834,39.28594,,,West,2,In-Active,السنايل,Medium Grocery,2,"310,755,006,200,003",Approved by Finance,22348,JED002,2023-08-03
CS000301,مخابز وتموينات العائلة,JEDC06,00,AG00294,Biju  Poochothiyil,Jeddah,Zone,"7,011,677,247",,1,"548,074,017",Traditional Trade,"4,030,200,202",,Required,جدة,Agent Registration,0,0.0000000,CS000301,مخابز وتموينات العائلة,JEDDAH,TUE,الرحاب,,,,,21.55688,39.21348,,,West,1,In-Active,طريق الامير متعب,Medium Grocery,1,"311,430,743,100,003",Approved by Finance,13455,JED002,2023-08-03
CS000302,تموينات الفين ثلاثون,JEDC03,3697,AG00313,Khaled Salama,Jeddah,Zone,"431,210,189,886",2025-06-17,7936,"554,289,021",Traditional Trade,"4,030,209,183",2026-10-01,Required,جدة,Agent Registration,0,500.0000000,CS000302,تموينات الفين ثلاثون,JEDDAH,THU,الحمدانية,,,,,21.74373,39.20072,Credit,,West,1,ACTIVE,شارع,Medium Grocery,16,"302,014,451,100,003",Approved by Finance,23743,JED001,2024-09-15
CS000304,تموينات فاطمة,JEDC02,00,AG00313,Khaled Salama,Jeddah,Zone,"4,030,452,312",,1,"592,846,718",,"4,030,452,312",,Required,جدة,Agent Registration,0,0.0000000,CS000304,تموينات فاطمة,JEDDAH,THU,البوادي,,,,,21.59554,39.16546,,,West,2,In-Active,البدوي الملثم,,1,"310,765,535,100,003",Approved by Finance,23443,JED001,2023-08-03
CS000305,مركز مبارك للتسويق,JEDC02,3092,AG00294,Biju  Poochothiyil,Jeddah,Zone,"39,111,426,608",2025-01-15,6193,"541,604,918",Traditional Trade,"4,030,075,676",2025-10-09,Required,جدة,Agent Registration,0,0.0000000,CS000305,مركز مبارك للتسويق,JEDDAH,TUE,العزيزية,,,,,21.55498,39.21325,,,West,1,In-Active,المؤلفين,Medium Grocery,0,"300,292,484,800,003",Approved by Finance,23462,JED002,2024-09-15
CS000307,تموينات الدرة,JEDC06,00,AG00313,Khaled Salama,Jeddah,Zone,"7,026,119,417",1979-11-20,dummy,"547,830,702",,"4,031,255,629",1979-11-20,Required,dummy,Agent Registration,0,0.0000000,CS000307,تموينات الدرة,JEDDAH,MON,dummy,,,,,21.61073,39.23132,,,West,2,In-Active,dummy,,4,"311,059,041,500,003",Approved by Finance,00000,JED001,
CS000309,alahali market,JEDC06,00,AG00294,Biju  Poochothiyil,Jeddah,Zone,"440,310,807,415",,1,"502,675,657",,"4,030,146,615",,Required,جدة,Agent Registration,0,0.0000000,CS000309,alahali market,JEDDAH,TUE,العزيزية,,,,,21.55012,39.21332,,,West,1,In-Active,النيسابوري,,0,"302,120,762,600,003",Approved by Finance,23342,JED002,2023-08-03
CS000310,تموينات الندا,JEDC07,00,AG00294,Biju  Poochothiyil,Jeddah,Zone,"431,110,134,386",,1,"592,486,567",Traditional Trade,"4,030,423,928",,Required,جدة,Agent Registration,0,0.0000000,CS000310,تموينات الندا,JEDDAH,SAT,المنتزهات,,,,,21.47969,39.30591,,,West,2,In-Active,الامام بن جرير,Medium Grocery,2,"310,991,707,100,003",Approved by Finance,00000,JED002,2023-08-03
CS000311,تموينات الخليج,JEDC06,00,AG00313,Khaled Salama,Jeddah,Zone,"39,111,422,919",2023-09-11,dummy,"501,139,371",,"4,030,443,886",2023-11-04,Required,جدة,Agent Registration,0,0.0000000,CS000311,تموينات الخليج,JEDDAH,MON,المنار,,,,,21.61281,39.23867,,,West,2,In-Active,dummy,,1,"310,708,158,900,003",Approved by Finance,23463,JED001,
CS000312,تموينات زهرتي,JEDC02,0,AG00313,Khaled Salama,Jeddah,Zone,"41,073,447,005",2025-12-21,0,"583,111,251",Traditional Trade,"4,030,447,639",2024-12-07,Required,جدة,Agent Registration,0,640.5300000,CS000312,تموينات زهرتي,JEDDAH,THU,النعيم,,,,,21.61662,39.14920,Credit,,West,2,ACTIVE,احمد بن عسيب,Medium Grocery,33,"300,512,868,200,003",Approved by Finance,23526,JED001,2024-09-15
CS000313,سوبر ماركت الحجاز,JEDC07,00,AG00294,Biju  Poochothiyil,Jeddah,Zone,"4,030,501,252",,1,"564,294,906",Traditional Trade,"4,030,482,370",,Required,جدة,Agent Registration,0,0.0000000,CS000313,سوبر ماركت الحجاز,JEDDAH,SAT,الحرازات,,,,,21.47678,39.34648,,,West,2,In-Active,الحرازات,Medium Grocery,7,"311,111,111,111,113",Approved by Finance,22284,JED002,2023-08-03
CS000314,تموينات ينابيع الخيرات,JEDC04,00,AG00294,Biju  Poochothiyil,Jeddah,Zone,"441,012,112,652",,1,"532,786,065",,"4,030,358,487",,Required,جدة,Agent Registration,0,0.0000000,CS000314,تموينات ينابيع الخيرات,JEDDAH,THU,المنار,,,,,21.59376,39.23987,,,West,1,In-Active,1,,1,"301,112,994,600,003",Approved by Finance,00000,JED002,2023-08-03
CS000315,أسواق ريم التموين للمواد الغذائية,JEDC05,6679,AG00294,Biju  Poochothiyil,Jeddah,Zone,"431,110,041,293",2025-05-11,3849,"565,405,359",Traditional Trade,"4,030,141,963",2028-01-23,Required,جدة,Agent Registration,0,500.0000000,CS000315,أسواق ريم التموين للمواد الغذائية,JEDDAH,SUN,الروضة,,,,,21.56418,39.16348,Credit,,West,2,ACTIVE,احمد جمجوم,Medium Grocery,8,"311,212,379,700,003",Approved by Finance,22346,JED002,2024-12-19
CS000316,تموينات الريان,JEDC03,6616,AG00313,Khaled Salama,Jeddah,Zone,"39,111,439,993",2024-12-23,4830,"594,105,471",Traditional Trade,"4,030,447,298",2024-12-05,Required,جدة,Agent Registration,0,1059.0500000,CS000316,تموينات الريان,JEDDAH,SAT,الفلاح,,,,,21.78916,39.18065,Credit,,West,2,ACTIVE,ابو فراس الحمداني,Medium Grocery,40,"311,133,177,900,003",Approved by Finance,23738,JED001,2024-09-15
CS000319,تموينات بساتين اليوسف,JEDC03,00,AG00294,Biju  Poochothiyil,Jeddah,Zone,"42,095,578,845",,1,"561,562,677",,"4,030,409,364",,Required,جدة,Agent Registration,0,0.0000000,CS000319,تموينات بساتين اليوسف,JEDDAH,SAT,الواحة,,,,,21.55367,39.25018,,,West,2,In-Active,اسامة بن زيد الليثي,,4,"300,241,107,100,003",Approved by Finance,00000,JED002,2023-08-03
CS000320,بقالة الندونيسيا,JEDC04,00,AG00294,Biju  Poochothiyil,Jeddah,Zone,"441,012,043,011",2025-04-05,1,"508,450,195",,"4,030,319,879",2025-07-24,Required,جدة,Agent Registration,0,0.0000000,CS000320,بقالة الندونيسيا,JEDDAH,SUN,البوادي,,,,,21.59352,39.16847,,,West,1,In-Active,الخطيب التبريزي,,21,"311,458,516,900,003",Approved by Finance,00000,JED002,2023-08-03
CS000321,جنات الواحة,JEDC03,00,AG00313,Khaled Salama,Jeddah,Zone,"42,055,012,490",,1,"536,665,284",,"4,030,206,782",,Required,جدة,Agent Registration,0,0.0000000,CS000321,جنات الواحة,JEDDAH,TUE,الوفاء,,,,,21.87295,39.23686,,,West,1,In-Active,طريق عسفان,,0,"300,750,664,600,003",Approved by Finance,21443,JED001,2023-08-03
CS000323,الحربي للتسويق,JEDC05,00,AG00294,Biju  Poochothiyil,Jeddah,Zone,"7,014,102,961",,00,"554,028,339",Traditional Trade,"4,030,075,527",,Required,جدة,Agent Registration,0,0.0000000,CS000323,الحربي للتسويق,JEDDAH,TUE,الصفا,,,,,21.56657,39.21071,,,West,1,In-Active,محمد نور جخدار,Small Grocery,2,"310,056,763,800,003",Approved by Finance,12345,JED002,2023-08-03
CS000341,اسواق ومخابز انوار البيت,JEDC02,00,AG00313,Khaled Salama,Jeddah,Zone,"39,111,337,163",,00,"572,307,938",,"4,030,506,288",,Required,جدة,Agent Registration,0,0.0000000,CS000341,اسواق ومخابز انوار البيت,JEDDAH,TUE,ابحر الشمالية,,,,,21.65549,39.12452,,,West,2,In-Active,محمود مختار,,1,"311,613,545,200,003",Approved by Finance,12345,JED001,2023-08-03
CS000345,الشاطئ للمواد الغذائية,JEDC02,00,AG00313,Khaled Salama,Jeddah,Zone,"440,711,532,165",,00,"557,706,795",,"4,407,115,321",,Required,جدة,Agent Registration,0,0.0000000,CS000345,الشاطئ للمواد الغذائية,JEDDAH,TUE,الروضة,,,,,21.65543,39.12456,,,West,2,In-Active,الامير سلطان,,3,"300,156,261,100,003",Approved by Finance,12345,JED001,2023-08-03
CS000353,تموينات اقرا,JEDC02,00,AG00313,Khaled Salama,Jeddah,Zone,"44,121,655,557",,00,"506,221,389",,"4,030,461,341",,Required,جدة,Agent Registration,0,0.0000000,CS000353,تموينات اقرا,JEDDAH,THU,المحمدية,,,,,21.60642,39.13139,,,West,2,In-Active,فهد بن زعير,,5,"311,245,208,200,003",Approved by Finance,12345,JED001,2023-08-03
CS000354,أسواق العزيزيه,JEDC07,3190,AG00294,Biju  Poochothiyil,Jeddah,Zone,"40,031,871,257",2025-08-30,6406,"551,533,961",Traditional Trade,"4,030,383,091",2026-04-19,Required,جدة,Agent Registration,0,0.0000000,CS000354,أسواق العزيزيه,JEDDAH,THU,الاجاويد,,,,,21.41776,39.29248,Credit,,West,2,In-Active,المنذر بن حارثه,Medium Grocery,9,"311,422,019,900,003",Approved by Finance,22233,JED002,2024-09-15
CS000355,تموينات الجزيرة,JEDC07,0,AG00294,Biju  Poochothiyil,Jeddah,Zone,"39,111,285,281",2024-11-23,0,"561,184,138",Traditional Trade,"4,030,449,397",2024-12-21,Required,جدة,Agent Registration,0,0.0000000,CS000355,تموينات الجزيرة,JEDDAH,THU,الاجاويد,,,,,21.40383,39.29481,Credit,,West,2,In-Active,صالح بن غنيم,Medium Grocery,10,"311,150,329,300,003",Approved by Finance,22443,JED002,2024-09-15
CS000356,مخابز و تموينات اوزان,JEDC08,00000,AG00313,Khaled Salama,Jeddah,Zone,"43,068,112,481",,00000,"551,662,033",,"4,030,265,619",,Required,جدة,Agent Registration,0,0.0000000,CS000356,مخابز و تموينات اوزان,JEDDAH,WED,الشراع,,,,,21.76885,39.09316,,,West,1,In-Active,ادريس بن قتادة,,0,"300,988,859,100,003",Approved by Finance,00000,JED001,2023-08-04
CS000367,تموينات سامي,JEDC01,1,AG00294,Biju  Poochothiyil,Jeddah,Zone,"40,102,472,644",2025-04-18,1,"548,831,424",Traditional Trade,"4,030,401,023",2026-04-19,Required,جدة,Agent Registration,0,0.0000000,CS000367,تموينات سامي,JEDDAH,TUE,النسيم,,,,,21.52064,39.23358,Credit,,West,2,In-Active,ام المؤمنين صفية,Medium Grocery,8,"311,346,705,300,003",Approved by Finance,22264,JED002,2024-09-15
CS000368,شركه اسواق و مخابز العائله الاليه للتجاره,JEDC05,6451,AG00294,Biju  Poochothiyil,Jeddah,Zone,"39,111,444,813",2025-03-10,4148,"558,029,636",,"4,030,209,845",2586-09-21,Required,جدة,Agent Registration,22,2411.8100000,CS000368,شركه اسواق و مخابز العائله الاليه للتجاره,JEDDAH,WED,الصفا,,,,,21.56757,39.20113,Credit,,West,1,ACTIVE,الامير ماجد,,18,"311,358,613,400,003",Approved by Finance,23455,JED002,2024-09-15
CS000370,تموينات باميليا,JEDC04,6524,AG00294,Biju  Poochothiyil,Jeddah,Zone,"440,210,506,132",2025-08-08,3219,"577,219,781",Traditional Trade,"4,030,414,024",2027-03-15,Required,جدة,Agent Registration,0,0.0000000,CS000370,تموينات باميليا,JEDDAH,SUN,الفيصلية,,,,,21.57556,39.16821,Credit,,West,1,In-Active,شارع,Medium Grocery,5,"310,337,345,600,003",Approved by Finance,23217,JED002,2024-11-09
CS000372,تموينات تيومين,JEDC02,12385,AG00313,Khaled Salama,Jeddah,Zone,"440,410,907,507",2023-10-30,2,"550,354,995",,"4,030,366,479",2025-06-03,Required,جدة,Agent Registration,0,0.0000000,CS000372,تموينات تيومين,JEDDAH,TUE,النعيم,,,,,21.61809,39.14040,,,West,2,In-Active,النعيم,,7,"311,416,566,300,003",Approved by Finance,22578,JED001,2023-08-05
CS000376,اسواق سفينا,JEDC06,00,AG00313,Khaled Salama,Jeddah,Zone,"41,012,561,421",,00,"536,701,644",Traditional Trade,"4,030,242,268",,Required,جدة,Agent Registration,0,0.0000000,CS000376,اسواق سفينا,JEDDAH,MON,المروة,,,,,21.62327,39.20727,,,West,2,In-Active,حراء,Medium Grocery,2,"300,970,801,200,003",Approved by Finance,00,JED001,2023-08-05
CS000385,حلا للتسوق,JEDC06,11,AG00313,Khaled Salama,Jeddah,Zone,"41,083,502,209",,1,"540,335,617",,"4,030,467,893",,Required,جدة,Agent Registration,0,0.0000000,CS000385,حلا للتسوق,JEDDAH,MON,المروة,,,,,21.62525,39.21182,,,West,2,In-Active,المروة,,0,"310,889,088,800,003",Approved by Finance,12312,JED001,2023-08-05
CS000386,أسواق النجم الثنائي التجارية,JEDC08,1,AG00313,Khaled Salama,Jeddah,Zone,"441,112,289,218",2025-05-05,1,"3,217,284,684",Traditional Trade,"4,030,510,195",2025-05-09,Required,جدة,Agent Registration,0,0.0000000,CS000386,أسواق النجم الثنائي التجارية,JEDDAH,MON,طيبة,,,,,21.80236,39.15319,,,West,1,In-Active,وهب بن خويلد,Small Grocery,2,"311,650,265,200,003",Approved by Finance,23831,JED001,2024-09-15
CS000392,تموينات رزان الخير للمواد الغذائية,JEDC06,8317,AG00313,Khaled Salama,Jeddah,Zone,"42,105,645,574",2026-04-15,3852,"536,671,518",Traditional Trade,"4,030,399,568",2025-10-21,Required,جدة,Agent Registration,0,0.0000000,CS000392,تموينات رزان الخير للمواد الغذائية,JEDDAH,MON,المروة,,,,,21.62847,39.20729,Credit,,West,2,In-Active,عبدالرحمن الجرادي,Medium Grocery,14,"305,000,989,300,003",Approved by Finance,23543,JED001,2024-09-15
CS000393,تموينات المروه الحديثة,JEDC06,4097,AG00313,Khaled Salama,Jeddah,Zone,"40,011,641,379",2025-07-09,6932,"556,721,586",Traditional Trade,"4,030,393,164",2026-08-31,Required,جدة,Agent Registration,14,1068.0300000,CS000393,تموينات المروه الحديثة,JEDDAH,MON,المروة,,,,,21.62946,39.20673,Credit,,West,2,ACTIVE,صالح العمري,Medium Grocery,28,"310,165,828,100,003",Approved by Finance,22262,JED001,2024-09-15
CS000394,أسواق ومخابز كنز,JEDC08,0,AG00313,Khaled Salama,Jeddah,Zone,"41,063,417,781",2025-01-23,0,"570,639,670",Traditional Trade,"4,030,329,766",2025-08-31,Required,جدة,Agent Registration,0,0.0000000,CS000394,أسواق ومخابز كنز,JEDDAH,MON,طيبة,,,,,21.81743,39.14025,Credit,,West,1,In-Active,شارع,Medium Grocery,2,"310,451,896,200,003",Approved by Finance,23443,JED001,2024-09-15
CS000399,الفلاح 1,JEDC08,6908,AG00313,Khaled Salama,Jeddah,Zone,"431,110,124,306",2025-06-21,2759,"533,175,908",Traditional Trade,"7,010,023,575",2025-04-18,Required,الرياض,Agent Registration,0,500.0000000,CS000399,الفلاح 1,JEDDAH,THU,السلامة,,,,,21.59347,39.15617,Credit,,West,2,ACTIVE,السلامة,Medium Grocery,30,"311,338,443,800,003",Approved by Finance,23466,JED001,2024-09-15
CS000409,أسةاق الرغامة,JEDC01,0,AG00294,Biju  Poochothiyil,Jeddah,Zone,"440,210,522,665",2025-08-10,0,"566,225,439",Traditional Trade,"4,030,483,403",2025-07-30,Required,جدة,Agent Registration,17,500.0000000,CS000409,أسةاق الرغامة,JEDDAH,SAT,ابرق الرغامة,,,,,21.51773,39.26611,Credit,0566225439,West,2,ACTIVE,شارع,Large Grocery,2,"310,339,778,400,003",Approved by Finance,22239,JED002,2025-05-12
CS000411,تموينات صادرات السلة للمواد الغذائية,JEDC02,0,AG00313,Khaled Salama,Jeddah,Zone,0,2025-11-30,0,"531,970,286",Traditional Trade,"4,030,536,202",2025-12-17,Required,جدة,Agent Registration,0,500.0000000,CS000411,تموينات صادرات السلة للمواد الغذائية,JEDDAH,THU,النعيم,,,,,21.61463,39.14161,Credit,,West,2,In-Active,شارع,Large Grocery,13,"312,906,399,100,003",Approved by Finance,23526,JED001,2025-09-11
CS000413,سوبر ماركت ترود,JEDC08,00,AG00313,Khaled Salama,Jeddah,Zone,"43,099,575,256",,1,"553,194,942",Traditional Trade,"4,030,457,224",,Required,جدة,Agent Registration,0,0.0000000,CS000413,سوبر ماركت ترود,JEDDAH,MON,اليسر,,,,,21.81529,39.14219,,,West,1,In-Active,اليسر,Small Grocery,6,"311,195,955,300,003",Approved by Finance,00000,JED001,2023-08-05
CS000414,تموينات السلطانه,JEDC01,3340,AG00294,Biju  Poochothiyil,Jeddah,Zone,"39,111,422,400",2024-11-17,6334,"567,659,470",Traditional Trade,"4,030,433,745",2025-09-29,Required,جدة,Agent Registration,0,0.0000000,CS000414,تموينات السلطانه,JEDDAH,TUE,النسيم,,,,,21.51237,39.23120,Credit,,West,2,In-Active,شارع,Medium Grocery,10,"311,083,870,400,003",Approved by Finance,23233,JED002,2024-09-15
CS000415,مخابز و سوبر ماركت العربية,JEDC04,1,AG00294,Biju  Poochothiyil,Jeddah,Zone,"43,089,513,864",2025-02-16,1,"504,328,575",Traditional Trade,"7,017,522,926",2025-06-17,Required,جدة,Agent Registration,0,1432.9600000,CS000415,مخابز و سوبر ماركت العربية,JEDDAH,SUN,البوادي,,,,,21.58940,39.16972,Credit,,West,1,ACTIVE,الخطيب التبريزي,Medium Grocery,29,"310,639,960,900,003",Approved by Finance,23622,JED002,2024-09-15
CS000416,تموينات السلامة,JEDC08,00,AG00313,Khaled Salama,Jeddah,Zone,"39,111,284,010",,1,"567,635,938",,"4,030,237,645",,Required,جدة,Agent Registration,0,0.0000000,CS000416,تموينات السلامة,JEDDAH,THU,السلامة,,,,,21.59460,39.15499,,,West,2,In-Active,نهضة الشرق,,0,"300,824,008,200,003",Approved by Finance,00000,JED001,2023-08-05
CS000417,نهضه النسيم,JEDC01,00,AG00294,Biju  Poochothiyil,Jeddah,Zone,"4,208,540,572",,1,"538,532,486",,"4,030,458,840",,Required,جدة,Agent Registration,0,0.0000000,CS000417,نهضه النسيم,JEDDAH,TUE,النسيم,,,,,21.51187,39.23088,,,West,2,In-Active,طريق الملك عبدالله,,0,"311,087,497,900,003",Approved by Finance,00000,JED002,2023-08-05
CS000427,تموينات النبع,JEDC04,1,AG00294,Biju  Poochothiyil,Jeddah,Zone,"39,111,338,152",2024-10-07,1,"552,394,200",,"4,030,245,345",2024-11-29,Required,جدة,Agent Registration,0,0.0000000,CS000427,تموينات النبع,JEDDAH,MON,السلامة,,,,,21.59186,39.15621,,,West,1,In-Active,كنوز العلم,,4,"300,357,871,900,003",Approved by Finance,000000,JED002,2023-08-05
CS000429,ماركت الين,JEDC02,4490,AG00313,Khaled Salama,Jeddah,Zone,"441,012,208,383",2025-04-26,7665,"546,207,611",Traditional Trade,"4,030,363,328",2025-07-20,Required,جدة,Agent Registration,0,500.0000000,CS000429,ماركت الين,JEDDAH,THU,النعيم,,,,,21.61562,39.14432,Credit,,West,2,ACTIVE,رشيد الناصر,Medium Grocery,7,"310,451,490,500,003",Approved by Finance,23535,JED001,2024-09-15
CS000430,تموينات السعود,JEDC04,8044,AG00294,Biju  Poochothiyil,Jeddah,Zone,"440,410,891,572",2025-10-08,4641,"507,728,193",Traditional Trade,"4,030,485,332",2025-09-06,Required,جدة,Agent Registration,0,0.0000000,CS000430,تموينات السعود,JEDDAH,SUN,البوادي,,,,,21.59078,39.17052,Credit,,West,1,In-Active,سعد بن عائز,Medium Grocery,3,"311,410,478,500,003",Approved by Finance,22413,JED002,2024-12-14
CS000432,مخابزوتموينات السعادة,JEDC07,00,AG00294,Biju  Poochothiyil,Jeddah,Zone,"4,319,793,631",,1,"502,898,123",,"4,700,113,249",,Required,جدة,Agent Registration,0,0.0000000,CS000432,مخابزوتموينات السعادة,JEDDAH,SAT,البركة,,,,,21.50814,39.27430,,,West,2,In-Active,عبدالله المانع,,3,"300,892,672,800,003",Approved by Finance,00000,JED002,2023-08-05
CS000433,أسواق ومخابز جدة,JEDC07,00,AG00294,Biju  Poochothiyil,Jeddah,Zone,"4,030,317,302",,1,"541,960,866",,"4,030,317,302",,Required,جدة,Agent Registration,0,0.0000000,CS000433,أسواق ومخابز جدة,JEDDAH,SAT,البركة,,,,,21.49504,39.29758,,,West,2,In-Active,طريق الملك عبدالله,,3,"310,970,996,900,003",Approved by Finance,22261,JED002,2023-08-05
CS000435,تموينات دلال,JEDC04,00,AG00294,Biju  Poochothiyil,Jeddah,Zone,"39,111,282,778",,1,"570,475,635",,"4,030,084,042",,Required,جدة,Agent Registration,0,0.0000000,CS000435,تموينات دلال,JEDDAH,MON,السلامة,,,,,21.58670,39.15769,,,West,1,In-Active,مواكب النصر,,7,"310,158,373,900,003",Approved by Finance,00000,JED002,2023-08-05
CS000436,تموينات ماسة الراية,JEDC01,8184,AG00294,Biju  Poochothiyil,Jeddah,Zone,"43,016,089,823",2026-07-10,3825,"557,554,217",Traditional Trade,"4,030,238,511",2025-09-10,Required,جدة,Agent Registration,0,0.0000000,CS000436,تموينات ماسة الراية,JEDDAH,SAT,ابرق الرغامة,,,,,21.50789,39.26985,Credit,,West,2,In-Active,الرغامة,Medium Grocery,9,"300,785,095,100,003",Approved by Finance,22261,JED002,2024-09-15
CS000437,اسواق نهر الامداد,JEDC02,0,AG00313,Khaled Salama,Jeddah,Zone,"41,073,473,671",2025-01-20,0,"568,029,307",Traditional Trade,"4,030,202,656",2025-09-25,Required,جدة,Agent Registration,0,0.0000000,CS000437,اسواق نهر الامداد,JEDDAH,THU,النعيم,,,,,21.61695,39.14716,Credit,,West,2,In-Active,محمد زيدان,Medium Grocery,8,"310,879,297,300,003",Approved by Finance,00000,JED001,2024-09-15
CS000438,تموينات ومخابز جنى ستور,JEDC03,00,AG00313,Khaled Salama,Jeddah,Zone,"42,126,017,063",,1,"536,430,186",,"4,030,410,853",,Required,جدة,Agent Registration,0,0.0000000,CS000438,تموينات ومخابز جنى ستور,JEDDAH,THU,البشائر,,,,,21.74197,39.20149,,,West,1,In-Active,النضير بن الحارث,,4,"300,257,364,700,003",Approved by Finance,23643,JED001,2023-08-05
CS000440,بقالة سلامة,JEDC04,00,AG00294,Biju  Poochothiyil,Jeddah,Zone,"441,212,630,993",,1,"559,509,902",,"4,030,136,353",,Required,جدة,Agent Registration,0,0.0000000,CS000440,بقالة سلامة,JEDDAH,MON,السلامة,,,,,21.58420,39.15838,,,West,1,In-Active,منارة باب السلام,,13,"300,833,682,700,003",Approved by Finance,00000,JED002,2023-08-05
CS000441,تموينات اريج  للمواد الغذائية,JEDC04,00,AG00294,Biju  Poochothiyil,Jeddah,Zone,"39,111,442,265",,1,"570,137,652",,"4,030,466,890",,Required,جدة,Agent Registration,0,0.0000000,CS000441,تموينات اريج  للمواد الغذائية,JEDDAH,SUN,البوادي,,,,,21.58470,39.17133,,,West,1,In-Active,الخطيب التبريزي,,0,"302,010,408,500,003",Approved by Finance,00000,JED002,2023-08-05
CS000442,تموينات عبق الحجاز,JEDC04,00,AG00294,Biju  Poochothiyil,Jeddah,Zone,"440,410,996,680",,1,"560,815,345",,"4,030,326,237",,Required,جدة,Agent Registration,0,0.0000000,CS000442,تموينات عبق الحجاز,JEDDAH,SUN,البوادي,,,,,21.58425,39.16513,,,West,1,In-Active,ابراهيم,,0,"302,147,847,500,003",Approved by Finance,00,JED002,2023-08-05
CS000443,تموينات سميره,JEDC07,00,AG00294,Biju  Poochothiyil,Jeddah,Zone,"4,030,508,459",,1,"537,506,280",,"4,030,508,459",,Required,جدة,Agent Registration,0,0.0000000,CS000443,تموينات سميره,JEDDAH,SAT,البركة,,,,,21.48606,39.29640,,,West,2,In-Active,ابي الغانم المصري,,4,"310,262,085,500,003",Approved by Finance,22354,JED002,2023-08-05
CS000446,تموينات القمة2,JEDC03,00,AG00313,Khaled Salama,Jeddah,Zone,"40,122,535,015",,1,"566,104,259",,"4,030,432,400",,Required,جدة,Agent Registration,0,0.0000000,CS000446,تموينات القمة2,JEDDAH,THU,الكوثر,,,,,21.72913,39.20515,,,West,1,In-Active,الشارع العام,,1,"311,055,456,300,003",Approved by Finance,23743,JED001,2023-08-05
CS000448,بقالة خط النجوم,JEDC01,00,AG00294,Biju  Poochothiyil,Jeddah,Zone,"441,112,366,944",,1,"596,563,181",,"4,030,788,791",,Required,جدة,Agent Registration,0,0.0000000,CS000448,بقالة خط النجوم,JEDDAH,SAT,البركة,,,,,21.50430,39.26186,,,West,2,In-Active,الاحمر السعدي,,3,"311,437,490,600,003",Approved by Finance,23454,JED002,2023-08-05
CS000449,بقالة هاجر سنيان ين حسن,JEDC04,1,AG00294,Biju  Poochothiyil,Jeddah,Zone,"39,111,444,737",2025-02-15,1,"536,628,621",Traditional Trade,"4,030,550,637",2025-03-20,Required,جدة,Agent Registration,0,711.9400000,CS000449,بقالة هاجر سنيان ين حسن,JEDDAH,SUN,البوادي,,,,,21.58415,39.16913,Credit,,West,1,ACTIVE,البدوي الملثم,Small Grocery,28,"312,127,805,300,003",Approved by Finance,23436,JED002,2024-09-15
CS000450,تموينات الحزمين,JEDC01,00,AG00294,Biju  Poochothiyil,Jeddah,Zone,"40,052,037,602",,1,"505,245,982",,"4,030,446,241",,Required,جدة,Agent Registration,0,0.0000000,CS000450,تموينات الحزمين,JEDDAH,SAT,البركة,,,,,21.50071,39.26302,,,West,2,In-Active,ابا المياه,,3,"311,124,552,700,003",Approved by Finance,22341,JED002,2023-08-05
