Area,Region,City,Zone,AgentId,AgentName,CusId,CusName,BuyerPhone,ReceiverPhone,FinancePhone,CH,SubChannel,F,StartWeeks,Days,Latitude,Longitude,VAT,CR,BL,createdDate,TotalDeliveredOrders,PaymentType,CreditDays,CreditLimit,Status,Validation,CreationType,CheckIn,CRExpiryDate,BLExpiryDate,StreetName,DistrictName,AdditionalNum,ZipCode,BuildingNumber,DC,AssignmentType,Geocode Quality,Full Corrected Address
,,الدمام,DAM003,,,CS003329,‏ ‏تموينات بركة الأنوار,"502,853,692",,0530922665,Traditional Trade,Medium Grocery,,1,SUN,26.40928,50.08102,"300,866,167,500,003","2,050,232,945","40,052,029,085",2024-05-08,0,Credit,0,0.0000000,In-Active,Approved by Finance,Agent Registration,Required,,,الامير نايف بن عبدالعزيز,الروضة,1,32257,7998,JEDDAH,Zone,,
,,الدمام,DAM003,,,CS003342,مركز ركن الرحلات للتسوق,"550,195,724",0550195724,,Traditional Trade,Medium Grocery,,2,MON,26.38429,50.09694,"300,929,965,200,003","2,050,144,320","41,063,416,632",2024-05-11,0,Credit,0,0.0000000,In-Active,Approved by Finance,Agent Registration,Required,,,عمرو بن الخطاب,الفيصلية,1,1234,3969,JEDDAH,Zone,,
,,الدمام,DAM003,,,CS003346,‏تموينات سلة الشاطئ للمواد الغذائية,"558,339,020",,,Traditional Trade,Small Grocery,,1,SAT,26.42324,50.11419,"310,583,718,500,003","2,050,156,957","43,099,747,412",2024-05-13,0,Credit,0,0.0000000,In-Active,Approved by Finance,Agent Registration,Required,,,الامير محمد بن فهد الشارع الاول,الشفا,1,32236,1,JEDDAH,Zone,,
,,الدمام,DAM003,,,CS003347,تموينات غذاء ستور للتسوق,"570,765,562",0570765562,,Traditional Trade,Small Grocery,,1,WED,26.36205,49.97119,"310,724,786,900,003","2,050,137,819","440,611,334,166",2024-05-13,0,Credit,0,0.0000000,In-Active,Approved by Finance,Agent Registration,Required,,,الكوكب حي الشروق  الفرسان,الشرق,1,32272,4277,JEDDAH,Zone,,
,,,DAM003,,,CS017727,مركز سما الريان  عامر الراشدي,,,,,,,2,TUE,26.36599,50.20376,"300,412,772,800,003","1,052,107,180",,2025-02-24,0,,0,500.0000000,ACTIVE,Missing Documents,Potential,Required,,,,,,,,,Zone,,
,,,DAM003,,,CS017728,مؤسسة الحسام الفضى للتجارة  1,,,,,,,2,TUE,26.36473,50.20154,"310,616,313,400,003","3,909,110,958",,2025-02-24,0,,0,500.0000000,ACTIVE,Missing Documents,Potential,Required,,,,,,,,,Zone,,
,,,DAM003,,,CS017729,مركز تاج محل للتموين 1,,,,,,,2,TUE,26.37008,50.19044,"300,422,868,900,003","2,050,044,149",,2025-02-24,0,,0,500.0000000,ACTIVE,Missing Documents,Potential,Required,,,,,,,,,Zone,,
,,,DAM003,,,CS017730,مؤسسة الأرض الخضراء التجارية,,,,,,,2,TUE,26.36883,50.18833,"302,214,812,100,003","2,050,040,687",,2025-02-24,0,,0,500.0000000,ACTIVE,Missing Documents,Potential,Required,,,,,,,,,Zone,,
,,,DAM003,,,CS017731,مؤسسسة ميدان الخيل,,,,,,,2,TUE,26.38920,50.17823,"310,954,661,300,003","2,050,079,497",,2025-02-24,0,,0,500.0000000,ACTIVE,Missing Documents,Potential,Required,,,,,,,,,Zone,,
,,,DAM003,,,CS017733,الغذاء الاساسي,,,,,,,1,SUN,26.41795,50.09098,"310,162,667,800,003","2,050,062,732",,2025-02-24,0,,0,500.0000000,ACTIVE,Missing Documents,Potential,Required,,,,,,,,,Zone,,
,,,DAM003,,,CS017734,مركز مسعد حمد المنهالى  دره الريان,,,,,,,1,SUN,26.41105,50.09716,"311,378,264,700,003","2,050,074,929",,2025-02-24,0,,0,500.0000000,ACTIVE,Missing Documents,Potential,Required,,,,,,,,,Zone,,
,,,DAM003,,,CS017735,مركز مانع البيشي للتسويق,,,,,,,1,SUN,26.39563,50.08749,"300,477,768,600,003","2,050,014,594",,2025-02-24,0,,0,500.0000000,ACTIVE,Missing Documents,Potential,Required,,,,,,,,,Zone,,
,,,DAM003,,,CS017736,مؤسسة ارياف الخليج للتسويق,,,,,,,1,SUN,26.41052,50.07457,"300,706,661,400,003","3,909,199,254",,2025-02-24,0,,0,500.0000000,ACTIVE,Missing Documents,Potential,Required,,,,,,,,,Zone,,
,,,DAM003,,,CS017737,بركة الانوار,,,,,,,1,SUN,26.40902,50.08072,"300,866,167,500,003","2,050,232,945",,2025-02-24,0,,0,500.0000000,ACTIVE,Missing Documents,Potential,Required,,,,,,,,,Zone,,
,,,DAM003,,,CS017738,تموينات وضاح معيض,,,,,,,1,SUN,26.39928,50.08654,"311,462,544,400,003","2,050,164,049",,2025-02-24,0,,0,500.0000000,ACTIVE,Missing Documents,Potential,Required,,,,,,,,,Zone,,
,,,DAM003,,,CS017739,مؤسسة طلة الخير للتجارة,,,,,,,2,SUN,26.36310,50.06351,"300,487,314,900,003","2,050,240,940",,2025-02-24,0,,0,500.0000000,ACTIVE,Missing Documents,Potential,Required,,,,,,,,,Zone,,
,,,DAM003,,,CS017740,تموينات ناس الشرق,,,,,,,2,SUN,26.36763,50.05953,"310,519,319,500,003","2,050,131,951",,2025-02-24,0,,0,500.0000000,ACTIVE,Missing Documents,Potential,Required,,,,,,,,,Zone,,
,,,DAM003,,,CS017741,تموينات جود,,,,,,,2,SUN,26.35738,50.06164,"311,242,773,600,003","2,050,138,610",,2025-02-24,0,,0,500.0000000,ACTIVE,Missing Documents,Potential,Required,,,,,,,,,Zone,,
,,,DAM003,,,CS017742,مؤسسة نخيل الارياف للتجارة,,,,,,,2,SAT,26.34687,50.04365,"300,483,952,300,003","2,050,100,582",,2025-02-24,0,,0,500.0000000,ACTIVE,Missing Documents,Potential,Required,,,,,,,,,Zone,,
,,,DAM003,,,CS017746,أسواق رونق الياسمين للتجارة,,,,,,,1,SAT,26.42205,50.11182,"302,031,278,400,003","2,050,220,774",,2025-02-24,0,,0,500.0000000,ACTIVE,Missing Documents,Potential,Required,,,,,,,,,Zone,,
,,,DAM003,,,CS017747,بقالة السعد بنت احمد بن مسلم المنهالي للمواد الغذا,,,,,,,1,SAT,26.42537,50.10672,"310,389,598,600,003","2,050,126,842",,2025-02-24,0,,0,500.0000000,ACTIVE,Missing Documents,Potential,Required,,,,,,,,,Zone,,
,,,DAM003,,,CS017749,مركز الوشام للتسويق,,,,,,,1,SAT,26.41473,50.11649,"300,682,776,300,003","205,008,889",,2025-02-24,0,,0,500.0000000,ACTIVE,Missing Documents,Potential,Required,,,,,,,,,Zone,,
,,,DAM003,,,CS017750,تموينات العامري,,,,,,,2,SUN,26.35453,50.07708,"311,637,507,100,003","2,050,112,740",,2025-02-24,0,,0,500.0000000,ACTIVE,Missing Documents,Potential,Required,,,,,,,,,Zone,,
,,,DAM003,,,CS017751,تموينات حمدبن سعيد بن شملان المهرى للمواد الغذائيه,,,,,,,2,MON,26.35397,50.09938,"310,940,955,900,003","2,050,145,457",,2025-02-24,0,,0,500.0000000,ACTIVE,Missing Documents,Potential,Required,,,,,,,,,Zone,,
,,,DAM003,,,CS017752,تموينات الصيعري,,,,,,,2,SAT,26.34335,50.03891,"300,683,886,900,003","2,050,235,634",,2025-02-24,0,,0,500.0000000,ACTIVE,Missing Documents,Potential,Required,,,,,,,,,Zone,,
,,,DAM003,,,CS017753,تموينات الصيعري,,,,,,,2,MON,26.37058,50.08254,"300,683,886,900,003","2,050,235,634",,2025-02-24,0,,0,500.0000000,ACTIVE,Missing Documents,Potential,Required,,,,,,,,,Zone,,
,,,DAM003,,,CS017754,تموينات سلال الندى,,,,,,,2,MON,26.36469,50.07328,"310,122,990,500,003","2,050,206,634",,2025-02-24,0,,0,500.0000000,ACTIVE,Missing Documents,Potential,Required,,,,,,,,,Zone,,
,,,DAM003,,,CS017755,تموينات الراقي,,,,,,,1,MON,26.37890,50.04937,"300,876,692,700,003","2,050,204,865",,2025-02-24,0,,0,500.0000000,ACTIVE,Missing Documents,Potential,Required,,,,,,,,,Zone,,
,,,DAM003,,,CS017756,بقالة مركز شوقى الغربى للمواد الغذائية,,,,,,,1,MON,26.38368,50.05741,"300,840,872,800,003","205,007,921",,2025-02-24,0,,0,500.0000000,ACTIVE,Missing Documents,Potential,Required,,,,,,,,,Zone,,
,,,DAM003,,,CS017757,تموينات خديجه عبدالله عمر العمودي للمواد الغذائية,,,,,,,1,MON,26.38542,50.05962,"311,061,801,600,003","2,050,149,933",,2025-02-24,0,,0,500.0000000,ACTIVE,Missing Documents,Potential,Required,,,,,,,,,Zone,,
,,,DAM003,,,CS017758,تموينات الدعاج,,,,,,,1,MON,26.38379,50.05693,"302,216,411,900,003","2,050,108,427",,2025-02-24,0,,0,500.0000000,ACTIVE,Missing Documents,Potential,Required,,,,,,,,,Zone,,
,,,DAM003,,,CS017759,شركة المخزن الأول التجارية,,,,,,,1,TUE,26.37249,50.04094,"310,808,160,600,003","7,014,655,455",,2025-02-24,0,,0,500.0000000,ACTIVE,Missing Documents,Potential,Required,,,,,,,,,Zone,,
,,,DAM003,,,CS017760,تموينات الوافى,,,,,,,1,TUE,26.36027,50.03220,"305,005,330,600,003","4,405,110,501",,2025-02-24,0,,0,500.0000000,ACTIVE,Missing Documents,Potential,Required,,,,,,,,,Zone,,
,,,DAM003,,,CS017761,مؤسسة ناصر عبد الله عبيد الله العليانى,,,,,,,1,TUE,26.36450,50.03909,"310,379,412,200,003","2,050,648,912",,2025-02-24,0,,0,500.0000000,ACTIVE,Missing Documents,Potential,Required,,,,,,,,,Zone,,
,,,DAM003,,,CS017762,تموينات الفتح للمواد العذائية,,,,,,,1,MON,26.39358,50.07071,"311,970,579,400,003","2,050,180,051",,2025-02-24,0,,0,500.0000000,ACTIVE,Missing Documents,Potential,Required,,,,,,,,,Zone,,
,,,DAM003,,,CS017763,مؤسسة غذاء الشرقيه التجارية,,,,,,,1,MON,26.38893,50.06445,"300,789,464,600,003","2,050,070,059",,2025-02-24,0,,0,500.0000000,ACTIVE,Missing Documents,Potential,Required,,,,,,,,,Zone,,
,,,DAM003,,,CS017764,تموينات سعدي جابر,,,,,,,2,MON,26.36973,50.08356,"310,082,814,300,003","2,050,111,996",,2025-02-24,0,,0,500.0000000,ACTIVE,Missing Documents,Potential,Required,,,,,,,,,Zone,,
,,,DAM003,,,CS017765,تموينات بركة الشعلة للمواد الغذائية,,,,,,,2,SUN,26.35989,50.07424,"310,082,814,300,003","2,050,111,996",,2025-02-24,0,,0,500.0000000,ACTIVE,Missing Documents,Potential,Required,,,,,,,,,Zone,,
,,,DAM003,,,CS017766,تموينات الغافه 1,,,,,,,1,WED,26.24086,49.97438,"300,601,572,900,003","2,251,100,553",,2025-02-24,0,,0,500.0000000,ACTIVE,Missing Documents,Potential,Required,,,,,,,,,Zone,,
,,,DAM003,,,CS017767,تموينات الغافه2,,,,,,,1,WED,26.23732,49.96961,"300,601,572,900,003","2,251,100,553",,2025-02-24,0,,0,500.0000000,ACTIVE,Missing Documents,Potential,Required,,,,,,,,,Zone,,
,,,DAM003,,,CS017819,مركز مرزوقة الدانه التجاريه,,,,,,,2,WED,26.32646,50.14599,"300,397,411,900,003","3,909,669,062",,2025-02-24,0,,0,500.0000000,ACTIVE,Missing Documents,Potential,Required,,,,,,,,,Zone,,
,,,DAM003,,,CS017820,اسواق نانا 1,,,,,,,2,WED,26.34756,50.14172,"300,397,166,900,003","2,050,062,066",,2025-02-24,0,,0,500.0000000,ACTIVE,Missing Documents,Potential,Required,,,,,,,,,Zone,,
,,,DAM003,,,CS017821,تقنيه الدانه  1,,,,,,,2,WED,26.34386,50.13916,"301,231,969,900,003","2,052,001,914",,2025-02-24,0,,0,500.0000000,ACTIVE,Missing Documents,Potential,Required,,,,,,,,,Zone,,
,,,DAM003,,,CS017822,مؤسسة منهال المودة,,,,,,,2,MON,26.38036,50.10353,"301,389,165,100,003","1,011,008,560",,2025-02-24,0,,0,500.0000000,ACTIVE,Missing Documents,Potential,Required,,,,,,,,,Zone,,
,,,DAM003,,,CS017823,مؤسسة عبدالله جمعان الزهراني التجارية,,,,,,,2,SAT,26.34687,50.03813,"310,048,013,700,003","205,009,641",,2025-02-24,0,,0,500.0000000,ACTIVE,Missing Documents,Potential,Required,,,,,,,,,Zone,,
,,,DAM003,,,CS017824,مركز عبدالعزيز محمد المالكي للتسويق,,,,,,,2,SAT,26.35446,50.04822,"300,495,158,100,003","2,050,064,614",,2025-02-24,0,,0,500.0000000,ACTIVE,Missing Documents,Potential,Required,,,,,,,,,Zone,,
,,,DAM003,,,CS017825,شركة الفكر للمواد الغذائية,,,,,,,2,SAT,26.35069,50.05338,"311,794,476,300,003","2,050,175,464",,2025-02-24,0,,0,500.0000000,ACTIVE,Missing Documents,Potential,Required,,,,,,,,,Zone,,
,,,DAM003,,,CS017826,مركز الهادي,,,,,,,2,SAT,26.34641,50.04763,"311,137,244,200,003","2,050,220,620",,2025-02-24,0,,0,500.0000000,ACTIVE,Missing Documents,Potential,Required,,,,,,,,,Zone,,
,,,DAM003,,,CS017827,شركة سلة ميرا  للمواد الغذائية,,,,,,,1,SAT,26.42088,50.11460,"310,136,721,900,003","2,050,129,386",,2025-02-24,0,,0,500.0000000,ACTIVE,Missing Documents,Potential,Required,,,,,,,,,Zone,,
,,,DAM003,,,CS017828,مؤسسة قمة هلا الغذائية,,,,,,,2,TUE,26.37396,50.17829,"300,683,886,900,003","2,050,235,634",,2025-02-24,0,,0,500.0000000,ACTIVE,Missing Documents,Potential,Required,,,,,,,,,Zone,,
,,,DAM003,,,CS017833,تموينات شعبيات,,,,,,,1,WED,26.33791,49.95755,"311,473,518,800,003","2,051,245,204",,2025-02-24,0,,0,500.0000000,ACTIVE,Missing Documents,Potential,Required,,,,,,,,,Zone,,
,,,DAM003,,,CS017840,سوبر ماركت بريق الفرسان,,,,,,,1,WED,26.37345,49.96369,"310,981,678,500,003","2,051,174,065",,2025-02-24,0,,0,500.0000000,ACTIVE,Missing Documents,Potential,Required,,,,,,,,,Zone,,
,,,DAM003,,,CS017862,تموينات العبدلي,,,,,,,2,THU,26.32251,50.15777,"311,231,857,800,003","2,052,102,111",,2025-02-24,0,,0,500.0000000,ACTIVE,Missing Documents,Potential,Required,,,,,,,,,Zone,,
,,,DAM003,,,CS017863,مركز الدوحة  2,,,,,,,2,WED,26.34954,50.15718,"301,231,969,900,003","2,052,001,914",,2025-02-24,0,,0,500.0000000,ACTIVE,Missing Documents,Potential,Required,,,,,,,,,Zone,,
,,,DAM003,,,CS017864,تموينات العنود عبدالهادي بن محمد المري للمواد الغذ,,,,,,,2,WED,26.37686,50.12281,"310,448,819,300,003","2,050,130,168",,2025-02-24,0,,0,500.0000000,ACTIVE,Missing Documents,Potential,Required,,,,,,,,,Zone,,
,,,DAM003,,,CS017878,أسواق نانا 2,,,,,,,2,WED,26.34551,50.13750,"300,397,166,900,003","2,050,062,066",,2025-02-24,0,,0,500.0000000,ACTIVE,Missing Documents,Potential,Required,,,,,,,,,Zone,,
,,,DAM003,,,CS017879,بقالة محمد الشايب  2,,,,,,,2,THU,26.34457,50.19016,"310,616,313,400,003","3,909,110,958",,2025-02-24,0,,0,500.0000000,ACTIVE,Missing Documents,Potential,Required,,,,,,,,,Zone,,
,,,DAM003,,,CS017896,تموينات البارقى,,,,,,,2,SAT,26.35499,50.04356,"311,621,652,900,003","2,050,177,375",,2025-02-24,0,,0,500.0000000,ACTIVE,Missing Documents,Potential,Required,,,,,,,,,Zone,,
,,,DAM003,,,CS017897,جناين البركة,,,,,,,1,MON,26.37682,50.04684,"302,070,829,800,003","2,050,071,080",,2025-02-24,0,,0,500.0000000,ACTIVE,Missing Documents,Potential,Required,,,,,,,,,Zone,,
,,,DAM003,,,CS017898,تموينات سلات طيبة,,,,,,,2,SUN,26.36924,50.05810,"300,487,314,900,003","2,050,234,206",,2025-02-24,0,,0,500.0000000,ACTIVE,Missing Documents,Potential,Required,,,,,,,,,Zone,,
,,,DAM003,,,CS017903,مؤسسة حنين الشرقية التجارية  2,,,,,,,2,THU,26.33860,50.19158,"300,802,093,100,003","7,023,943,543",,2025-02-24,0,,0,500.0000000,ACTIVE,Missing Documents,Potential,Required,,,,,,,,,Zone,,
,,,DAM003,,,CS017923,اسواق بوابة هلا 2,,,,,,,1,THU,26.27610,49.72227,"300,071,064,600,003","1,010,224,079",,2025-02-24,0,,0,500.0000000,ACTIVE,Missing Documents,Potential,Required,,,,,,,,,Zone,,
,,,DAM003,,,CS017930,محمصة الدوحة,,,,,,,2,THU,26.32360,50.16510,"310,755,025,800,003","40,112,511,580",,2025-02-24,0,,0,500.0000000,ACTIVE,Missing Documents,Potential,Required,,,,,,,,,Zone,,
,,,DAM003,,,CS017931,نصف الشمس ماركت,,,,,,,2,WED,26.34409,50.16275,"310,426,934,600,003","2,051,101,461",,2025-02-24,0,,0,500.0000000,ACTIVE,Missing Documents,Potential,Required,,,,,,,,,Zone,,
,,,DAM003,,,CS017932,فن السرعة واحد التجارية,,,,,,,2,THU,26.32715,50.16789,"310,333,376,800,003","2,052,101,669",,2025-02-24,0,,0,500.0000000,ACTIVE,Missing Documents,Potential,Required,,,,,,,,,Zone,,
,,,DAM003,,,CS017933,لؤلؤة الدوحة,,,,,,,2,THU,26.32292,50.15968,"300,825,145,300,003","2,052,100,456",,2025-02-24,0,,0,500.0000000,ACTIVE,Missing Documents,Potential,Required,,,,,,,,,Zone,,
,,,DAM003,,,CS017934,مشاعل الخبر,,,,,,,2,THU,26.31787,50.16347,"311,099,950,700,003","2,052,103,232",,2025-02-24,0,,0,500.0000000,ACTIVE,Missing Documents,Potential,Required,,,,,,,,,Zone,,
,,,DAM003,,,CS017939,تموينات حي الجامعة,,,,,,,2,WED,26.34632,50.13653,"300,483,623,700,003","3,909,202,911",,2025-02-24,0,,0,500.0000000,ACTIVE,Missing Documents,Potential,Required,,,,,,,,,Zone,,
,,,DAM003,,,CS017940,خيرات الظهران,,,,,,,2,WED,26.34474,50.13805,"310,489,536,900,003","2,052,001,598",,2025-02-24,0,,0,500.0000000,ACTIVE,Missing Documents,Potential,Required,,,,,,,,,Zone,,
,,,DAM003,,,CS017947,مركز فخر الفرسان لتجارة الجملة و التجزئة,,,,,,,1,WED,26.36013,49.96714,"300,373,916,300,003","2,050,117,544",,2025-02-24,0,,0,500.0000000,ACTIVE,Missing Documents,Potential,Required,,,,,,,,,Zone,,
,,,DAM003,,,CS017948,مؤسسة واحة التسوق اتجارية,,,,,,,1,WED,26.35911,49.96691,"310,168,435,100,003","2,050,099,721",,2025-02-24,0,,0,500.0000000,ACTIVE,Missing Documents,Potential,Required,,,,,,,,,Zone,,
,,,DAM003,,,CS017965,ثلاثية الأبعاد التجارية,,,,,,,2,TUE,26.38765,50.17817,"310,144,364,100,003","2,050,073,532",,2025-02-24,0,,0,500.0000000,ACTIVE,Missing Documents,Potential,Required,,,,,,,,,Zone,,
,,,DAM003,,,CS017966,تموينات نجمة البركه,,,,,,,2,MON,26.37369,50.09086,"310,388,727,400,003","2,050,183,077",,2025-02-24,0,,0,500.0000000,ACTIVE,Missing Documents,Potential,Required,,,,,,,,,Zone,,
,,,DAM003,,,CS017967,تموينات سله ديم,,,,,,,2,SUN,26.35333,50.07176,"302,156,417,200,003","2,050,143,066",,2025-02-24,0,,0,500.0000000,ACTIVE,Missing Documents,Potential,Required,,,,,,,,,Zone,,
,,,DAM003,,,CS017968,مؤسسة نبراس المعرفة التجارية,,,,,,,1,SAT,26.41942,50.11144,"310,912,576,300,003","2,052,102,908",,2025-02-24,0,,0,500.0000000,ACTIVE,Missing Documents,Potential,Required,,,,,,,,,Zone,,
,,,DAM003,,,CS017969,بقالة دار البهار للمواد الغذائية,,,,,,,1,SAT,26.41280,50.11596,"300,411,308,400,003","140,311,117",,2025-02-24,0,,0,500.0000000,ACTIVE,Missing Documents,Potential,Required,,,,,,,,,Zone,,
,,,DAM003,,,CS017970,تموينات الأسرة الأولى للمواد الغذائية,,,,,,,1,TUE,26.36626,50.03222,"311,466,730,200,003","2,050,067,511",,2025-02-24,0,,0,500.0000000,ACTIVE,Missing Documents,Potential,Required,,,,,,,,,Zone,,
,,,DAM003,,,CS017971,مركز عالم ناس التجارية,,,,,,,1,TUE,26.38062,50.02556,"300,803,978,800,003","2,050,165,634",,2025-02-24,0,,0,500.0000000,ACTIVE,Missing Documents,Potential,Required,,,,,,,,,Zone,,
,,,DAM003,,,CS017981,ركن الرحلات فرع الفرسان,,,,,,,1,WED,26.35717,49.96275,"300,929,965,200,003","2,050,219,906",,2025-02-24,0,,0,500.0000000,ACTIVE,Missing Documents,Potential,Required,,,,,,,,,Zone,,
,,,DAM003,,,CS017983,مؤسسة غازى بركات العبدلى التجارية,,,,,,,1,SAT,26.39855,50.11727,"310,033,811,800,003","2,050,219,309",,2025-02-24,0,,0,500.0000000,ACTIVE,Missing Documents,Potential,Required,,,,,,,,,Zone,,
,,,DAM003,,,CS017985,تموينات حمد طلاسى,,,,,,,2,SAT,26.35449,50.04316,"311,137,244,200,003","2,050,220,620",,2025-02-24,0,,0,500.0000000,ACTIVE,Missing Documents,Potential,Required,,,,,,,,,Zone,,
,,,DAM003,,,CS017986,تموينات البشائر,,,,,,,2,SAT,26.35611,50.04543,"300,803,978,800,003","2,050,165,634",,2025-02-24,0,,0,500.0000000,ACTIVE,Missing Documents,Potential,Required,,,,,,,,,Zone,,
,,,DAM003,,,CS017987,تموينات الندى الشرقي,,,,,,,2,MON,26.36572,50.07691,"310,424,552,800,003","2,050,132,555",,2025-02-24,0,,0,500.0000000,ACTIVE,Missing Documents,Potential,Required,,,,,,,,,Zone,,
,,,DAM003,,,CS017988,شركة نرجس الغذائية التجارية 4,,,,,,,2,MON,26.36443,50.09529,"311,305,925,800,003","2,055,125,194",,2025-02-24,0,,0,500.0000000,ACTIVE,Missing Documents,Potential,Required,,,,,,,,,Zone,,
,,,DAM003,,,CS017989,تموينات زياد الخليج للمواد الغذائية,,,,,,,2,SAT,26.34850,50.05868,"302,098,183,600,003","2,050,088,433",,2025-02-24,0,,0,500.0000000,ACTIVE,Missing Documents,Potential,Required,,,,,,,,,Zone,,
,,,DAM003,,,CS017990,اسواق مرحبا  1,,,,,,,1,SAT,26.41148,50.11507,"310,532,668,900,003","2,050,235,715",,2025-02-24,0,,0,500.0000000,ACTIVE,Missing Documents,Potential,Required,,,,,,,,,Zone,,
,,,DAM003,,,CS018070,شركة نرجس الغذائية التجارية,,,,,,,1,THU,26.15877,49.43851,"311,305,925,800,003","2,055,007,200",,2025-02-24,0,,0,500.0000000,ACTIVE,Missing Documents,Potential,Required,,,,,,,,,Zone,,
,,,DAM003,,,CS018092,تموينات واحة الدمام,,,,,,,1,SAT,26.41630,50.11448,"301,078,487,800,003","2,050,240,984",,2025-02-24,0,,0,500.0000000,ACTIVE,Missing Documents,Potential,Required,,,,,,,,,Zone,,
,,,DAM003,,,CS018098,ابراج الدوحة,,,,,,,2,THU,26.32092,50.16310,"310,954,661,300,003","2,050,079,497",,2025-02-24,0,,0,500.0000000,ACTIVE,Missing Documents,Potential,Required,,,,,,,,,Zone,,
,,,DAM003,,,CS018132,تموينات وقت الرحلات,,,,,,,1,WED,26.35807,49.96465,"311,579,100,800,003","2,050,130,444",,2025-02-24,0,,0,500.0000000,ACTIVE,Missing Documents,Potential,Required,,,,,,,,,Zone,,
,,,DAM003,,,CS018133,القهوة العربية,,,,,,,1,WED,26.35806,49.96464,"302,281,810,100,003","2,050,209,704",,2025-02-24,0,,0,500.0000000,ACTIVE,Missing Documents,Potential,Required,,,,,,,,,Zone,,
,,,DAM003,,,CS018134,تموينات احمد مرزوق بن جاسم الدليم للمواد الغذائية,,,,,,,1,WED,26.35686,49.96055,"300,468,432,500,003","2,050,152,981",,2025-02-24,0,,0,500.0000000,ACTIVE,Missing Documents,Potential,Required,,,,,,,,,Zone,,
,,,DAM003,,,CS018135,أسواق نجمة الفرسان,,,,,,,1,WED,26.34832,49.97017,"311,364,205,100,003","2,050,135,978",,2025-02-24,0,,0,500.0000000,ACTIVE,Missing Documents,Potential,Required,,,,,,,,,Zone,,
,,,DAM003,,,CS018150,اسرار المنار,,,,,,,1,TUE,26.37198,50.03302,"310,375,455,100,003","2,050,156,780",,2025-02-24,0,,0,500.0000000,ACTIVE,Missing Documents,Potential,Required,,,,,,,,,Zone,,
,,,DAM003,,,CS018151,تموينات الطلاسى,,,,,,,1,TUE,26.37592,50.02964,"302,208,278,600,003","7,006,911,577",,2025-02-24,0,,0,500.0000000,ACTIVE,Missing Documents,Potential,Required,,,,,,,,,Zone,,
,,,DAM003,,,CS018152,مؤسسة محمد حسن العنبري للمواد الغذائية,,,,,,,1,TUE,26.38106,50.02536,"310,171,991,700,003","2,050,211,984",,2025-02-24,0,,0,500.0000000,ACTIVE,Missing Documents,Potential,Required,,,,,,,,,Zone,,
,,,DAM003,,,CS018153,تموينات تشكيلة الخير للتجارة,,,,,,,2,MON,26.36858,50.07940,"310,670,109,400,003","2,050,150,738",,2025-02-24,0,,0,500.0000000,ACTIVE,Missing Documents,Potential,Required,,,,,,,,,Zone,,
,,,DAM003,,,CS018154,تموينات الفاكهني,,,,,,,1,MON,26.38122,50.05673,"302,216,411,900,003","2,050,108,427",,2025-02-24,0,,0,500.0000000,ACTIVE,Missing Documents,Potential,Required,,,,,,,,,Zone,,
,,,DAM003,,,CS018155,تموينات قف و ناظر,,,,,,,1,MON,26.38472,50.05852,"300,781,273,800,003","2,050,082,331",,2025-02-24,0,,0,500.0000000,ACTIVE,Missing Documents,Potential,Required,,,,,,,,,Zone,,
,,,DAM003,,,CS018156,كاس بن كافييه,,,,,,,1,SUN,26.39775,50.09210,"310,890,061,800,003","2,050,163,397",,2025-02-24,0,,0,500.0000000,ACTIVE,Missing Documents,Potential,Required,,,,,,,,,Zone,,
,,,DAM003,,,CS018172,شركة نخلة الدوحة التجاريةة,,,,,,,2,THU,26.33216,50.16139,"311,502,284,200,003","2,052,103,919",,2025-02-24,0,,0,500.0000000,ACTIVE,Missing Documents,Potential,Required,,,,,,,,,Zone,,
,,,DAM003,,,CS018197,تموينات ياهلا للمواد الغذائية,,,,,,,1,SUN,26.40632,50.07318,"300,454,515,700,003","2,050,132,839",,2025-02-24,0,,0,500.0000000,ACTIVE,Missing Documents,Potential,Required,,,,,,,,,Zone,,
,,,DAM003,,,CS018198,تموينات دكان الحارة المميز للمواد الغذائية,,,,,,,1,SUN,26.39674,50.08980,"310,230,752,300,003","2,050,117,838",,2025-02-24,0,,0,500.0000000,ACTIVE,Missing Documents,Potential,Required,,,,,,,,,Zone,,
,,,DAM003,,,CS018199,شركه زارا الخليجيه التجاريه,,,,,,,2,SUN,26.36281,50.07239,"311,321,149,800,003","2,050,115,625",,2025-02-24,0,,0,500.0000000,ACTIVE,Missing Documents,Potential,Required,,,,,,,,,Zone,,
,,,DAM003,,,CS018200,تموينات المنهالى,,,,,,,2,SUN,26.36302,50.07061,"310,613,924,600,003","41,032,600,709",,2025-02-24,0,,0,500.0000000,ACTIVE,Missing Documents,Potential,Required,,,,,,,,,Zone,,
,,,DAM003,,,CS018201,تموينات ال قيصوم للمواد الغذائية,,,,,,,1,SAT,26.42302,50.10551,"302,247,659,200,003","2,050,133,138",,2025-02-24,0,,0,500.0000000,ACTIVE,Missing Documents,Potential,Required,,,,,,,,,Zone,,
,,,DAM003,,,CS018216,تموينات الشعبة,,,,,,,1,THU,25.70689,48.63417,"300,043,882,400,003","4,107,349,562",,2025-02-24,0,,0,500.0000000,ACTIVE,Missing Documents,Potential,Required,,,,,,,,,Zone,,
,,,DAM003,,,CS018221,مؤسسة محمد طالب الرويمي النهدي,,,,,,,2,TUE,26.40985,50.15612,"302,190,405,400,003","2,050,122,635",,2025-02-24,0,,0,500.0000000,ACTIVE,Missing Documents,Potential,Required,,,,,,,,,Zone,,
,,,DAM003,,,CS018222,تموينات سلة العروبة,,,,,,,1,WED,26.35717,49.98954,"300,779,858,100,003","2,050,171,315",,2025-02-24,0,,0,500.0000000,ACTIVE,Missing Documents,Potential,Required,,,,,,,,,Zone,,
,,,DAM003,,,CS018223,تموينات ماي ستور,,,,,,,2,MON,26.37978,50.08633,"311,005,362,800,003","2,050,063,777",,2025-02-24,0,,0,500.0000000,ACTIVE,Missing Documents,Potential,Required,,,,,,,,,Zone,,
,,,DAM003,,,CS018226,مركز سنابل الشرق للتسويق,,,,,,,1,MON,26.38400,50.04575,"300,713,776,200,003","2,050,029,804",,2025-02-24,0,,0,500.0000000,ACTIVE,Missing Documents,Potential,Required,,,,,,,,,Zone,,
,,,DAM003,,,CS018235,شركة أسواق الافضل الرابع التجارية,,,,,,,1,SUN,26.39728,50.10463,"311,364,205,100,003","2,050,135,978",,2025-02-24,0,,0,500.0000000,ACTIVE,Missing Documents,Potential,Required,,,,,,,,,Zone,,
,,,DAM003,,,CS018236,تموينات المتجر الاخضر للمواد الغذائية,,,,,,,2,MON,26.38432,50.09646,"310,757,990,100,003","2,050,115,530",,2025-02-24,0,,0,500.0000000,ACTIVE,Missing Documents,Potential,Required,,,,,,,,,Zone,,
,,,DAM003,,,CS018237,تموينات النهدى,,,,,,,2,TUE,26.41505,50.17001,"300,113,563,600,003","4,030,257,781",,2025-02-24,0,,0,500.0000000,ACTIVE,Missing Documents,Potential,Required,,,,,,,,,Zone,,
,,,DAM003,,,CS018238,تموينات جواهر الخيرات للمواد الغذائية,,,,,,,2,TUE,26.36402,50.20048,"311,175,281,400,003","41,042,626,768",,2025-02-24,0,,0,500.0000000,ACTIVE,Missing Documents,Potential,Required,,,,,,,,,Zone,,
,,,DAM003,,,CS018243,شركه جول للوقود   3,,,,,,,1,WED,26.20165,50.02755,"310,878,292,100,003","2,052,100,076",,2025-02-24,0,,0,500.0000000,ACTIVE,Missing Documents,Potential,Required,,,,,,,,,Zone,,
,,,DAM003,,,CS018257,تموينات فرح للمواد الغذائية,,,,,,,1,TUE,26.36823,50.04340,"311,097,828,600,003","2,050,151,364",,2025-02-24,0,,0,500.0000000,ACTIVE,Missing Documents,Potential,Required,,,,,,,,,Zone,,
,,,DAM003,,,CS018258,تموينات ارياف الشرقيه للمواد الغذائية,,,,,,,1,TUE,26.36422,50.03804,"311,454,356,400,003","2,050,123,892",,2025-02-24,0,,0,500.0000000,ACTIVE,Missing Documents,Potential,Required,,,,,,,,,Zone,,
,,,DAM003,,,CS018261,شركه نخبه المستهلك التجاريه,,,,,,,1,THU,25.97981,48.86753,"311,334,020,800,003","2,056,102,449",,2025-02-24,0,,0,500.0000000,ACTIVE,Missing Documents,Potential,Required,,,,,,,,,Zone,,
,,,DAM003,,,CS018262,تموينات العاوي  1,,,,,,,1,THU,25.98414,48.86977,"300,296,607,300,003","2,051,230,457",,2025-02-24,0,,0,500.0000000,ACTIVE,Missing Documents,Potential,Required,,,,,,,,,Zone,,
,,,DAM003,,,CS018263,تموينات سلة متالع للمواد الغذائية,,,,,,,1,THU,25.97595,48.86876,"310,944,874,600,003","2,056,103,494",,2025-02-24,0,,0,500.0000000,ACTIVE,Missing Documents,Potential,Required,,,,,,,,,Zone,,
,,,DAM003,,,CS018264,تموينات الواحة,,,,,,,1,THU,25.95630,48.87644,"300,462,825,700,003","2,250,052,347",,2025-02-24,0,,0,500.0000000,ACTIVE,Missing Documents,Potential,Required,,,,,,,,,Zone,,
,,,DAM003,,,CS018265,عبير خلف احمد,,,,,,,2,SAT,26.34722,50.04567,"300,495,158,600,003","2,050,432,141",,2025-02-24,0,,0,500.0000000,ACTIVE,Missing Documents,Potential,Required,,,,,,,,,Zone,,
,,,DAM003,,,CS018270,مؤنة الغذاء للتجارة,,,,,,,2,MON,26.37392,50.10285,"310,053,959,500,003","2,050,129,085",,2025-02-24,0,,0,500.0000000,ACTIVE,Missing Documents,Potential,Required,,,,,,,,,Zone,,
,,,DAM003,,,CS018271,تموينات طلة الخير,,,,,,,2,SAT,26.35387,50.04844,"300,487,314,900,003","2,050,240,940",,2025-02-24,0,,0,500.0000000,ACTIVE,Missing Documents,Potential,Required,,,,,,,,,Zone,,
,,,DAM003,,,CS018275,مؤسسة عذبية زايد التجارية,,,,,,,2,THU,26.35690,50.20307,"300,375,438,400,003","20,510,555,507",,2025-02-24,0,,0,500.0000000,ACTIVE,Missing Documents,Potential,Required,,,,,,,,,Zone,,
,,,DAM003,,,CS018278,تموينات خيرات اليوم,,,,,,,2,TUE,26.37164,50.17546,"310,574,735,500,003","2,050,030,522",,2025-02-24,0,,0,500.0000000,ACTIVE,Missing Documents,Potential,Required,,,,,,,,,Zone,,
,,,DAM003,,,CS018279,وسيلة الصدارة,,,,,,,2,THU,26.32732,50.16938,"310,802,395,800,003","2,052,100,755",,2025-02-24,0,,0,500.0000000,ACTIVE,Missing Documents,Potential,Required,,,,,,,,,Zone,,
,,,DAM003,,,CS018280,بقالة محسن صالح علي,,,,,,,2,THU,26.33679,50.16516,"310,011,691,400,003","2,052,103,239",,2025-02-24,0,,0,500.0000000,ACTIVE,Missing Documents,Potential,Required,,,,,,,,,Zone,,
,,,DAM003,,,CS018281,مؤسسة جوهره طله الخير للتجارة,,,,,,,2,WED,26.34074,50.16044,"311,116,447,400,003","2,052,101,705",,2025-02-24,0,,0,500.0000000,ACTIVE,Missing Documents,Potential,Required,,,,,,,,,Zone,,
,,,DAM003,,,CS018283,أسواق روابي الخبر,,,,,,,2,THU,26.32644,50.21291,"302,066,833,200,003","2,051,162,905",,2025-02-24,0,,0,500.0000000,ACTIVE,Missing Documents,Potential,Required,,,,,,,,,Zone,,
,,,DAM003,,,CS018287,نانا للتسويق,,,,,,,2,WED,26.34515,50.13762,"300,397,166,900,003","2,052,002,212",,2025-02-24,0,,0,500.0000000,ACTIVE,Missing Documents,Potential,Required,,,,,,,,,Zone,,
,,,DAM003,,,CS018288,بقالة رياض الربيع,,,,,,,2,WED,26.33713,50.15529,"300,555,671,100,003","2,052,003,050",,2025-02-24,0,,0,500.0000000,ACTIVE,Missing Documents,Potential,Required,,,,,,,,,Zone,,
,,,DAM003,,,CS018289,تموينات قهوة الشيوخ,,,,,,,2,THU,26.32313,50.16280,"300,390,333,100,003","2,051,058,600",,2025-02-24,0,,0,500.0000000,ACTIVE,Missing Documents,Potential,Required,,,,,,,,,Zone,,
,,,DAM003,,,CS018293,تموينات الحاضر للمواد الغذائية,,,,,,,2,TUE,26.40822,50.18595,"310,928,497,400,003","2,050,145,001",,2025-02-24,0,,0,500.0000000,ACTIVE,Missing Documents,Potential,Required,,,,,,,,,Zone,,
,,,DAM003,,,CS018296,القهوة العربية,,,,,,,2,THU,26.32300,50.16054,"300,495,653,800,003","2,050,101,783",,2025-02-24,0,,0,500.0000000,ACTIVE,Missing Documents,Potential,Required,,,,,,,,,Zone,,
,,,DAM003,,,CS018297,مؤسسه طبيعه القصيم التجاريه,,,,,,,2,MON,26.36300,50.07274,"311,097,030,200,003","2,050,125,099",,2025-02-24,0,,0,500.0000000,ACTIVE,Missing Documents,Potential,Required,,,,,,,,,Zone,,
,,,DAM003,,,CS018311,مؤسسة بيارق دبي للتجارة,,,,,,,2,WED,26.33183,50.14546,"302,160,804,500,003","1,010,532,820",,2025-02-24,0,,0,500.0000000,ACTIVE,Missing Documents,Potential,Required,,,,,,,,,Zone,,
,,,DAM003,,,CS018314,شركة غزلان العالميه للتجارة,,,,,,,2,WED,26.34040,50.15502,"310,270,972,700,003","2,051,223,496",,2025-02-24,0,,0,500.0000000,ACTIVE,Missing Documents,Potential,Required,,,,,,,,,Zone,,
,,,DAM003,,,CS018318,شركة مزايا الاولى,,,,,,,2,WED,26.33529,50.13181,"311,231,857,800,003","2,052,102,111",,2025-02-24,0,,0,500.0000000,ACTIVE,Missing Documents,Potential,Required,,,,,,,,,Zone,,
,,,DAM003,,,CS018319,مؤسسة ميلا للمواد الغذائية,,,,,,,2,MON,26.37145,50.09556,"310,195,363,500,003","2,050,130,908",,2025-02-24,0,,0,500.0000000,ACTIVE,Missing Documents,Potential,Required,,,,,,,,,Zone,,
,,,DAM003,,,CS018326,بساتين الصفوة التجارية,,,,,,,2,SUN,26.34479,50.07744,"310,569,568,200,003","2,050,235,252",,2025-02-24,0,,0,500.0000000,ACTIVE,Missing Documents,Potential,Required,,,,,,,,,Zone,,
,,,DAM003,,,CS018331,تموينات حلاة للمواد الغذائية,,,,,,,2,THU,26.34409,50.18148,"300,594,558,300,003","2,051,058,599",,2025-02-24,0,,0,500.0000000,ACTIVE,Missing Documents,Potential,Required,,,,,,,,,Zone,,
,,,DAM003,,,CS018332,محل شهد حمود بن أحمد الامير للمواد الغذائية,,,,,,,2,SAT,26.34852,50.05014,"311,050,750,600,003","2,050,149,473",,2025-02-24,0,,0,500.0000000,ACTIVE,Missing Documents,Potential,Required,,,,,,,,,Zone,,
,,,DAM003,,,CS018333,تموينات ألوان طيف,,,,,,,2,SUN,26.34929,50.07442,"310,613,924,600,003","41,032,600,709",,2025-02-24,0,,0,500.0000000,ACTIVE,Missing Documents,Potential,Required,,,,,,,,,Zone,,
,,,DAM003,,,CS018335,سوبر ماركت ليل و نهار,,,,,,,2,THU,26.33815,50.20500,"310,310,892,600,003","20,511,224,480",,2025-02-24,0,,0,500.0000000,ACTIVE,Missing Documents,Potential,Required,,,,,,,,,Zone,,
,,,DAM003,,,CS018380,أسواق النهدي,,,,,,,1,WED,26.21776,49.92723,"300,601,572,900,003","2,251,100,553",,2025-02-24,0,,0,500.0000000,ACTIVE,Missing Documents,Potential,Required,,,,,,,,,Zone,,
,,,DAM003,,,CS018393,تموينات سواحل الشرق,,,,,,,2,SAT,26.34766,50.04965,"302,249,093,700,003","2,050,132,738",,2025-02-24,0,,0,500.0000000,ACTIVE,Missing Documents,Potential,Required,,,,,,,,,Zone,,
,,,DAM003,,,CS018406,خيرات اليوم ماركت,,,,,,,2,THU,26.33378,50.18516,"310,166,758,600,003","2,050,231,404",,2025-02-24,0,,0,500.0000000,ACTIVE,Missing Documents,Potential,Required,,,,,,,,,Zone,,
,,,DAM003,,,CS018410,ارزاق البركة,,,,,,,1,MON,26.40362,50.06277,"300,487,314,900,003","2,050,240,940",,2025-02-24,0,,0,500.0000000,ACTIVE,Missing Documents,Potential,Required,,,,,,,,,Zone,,
,,,DAM003,,,CS018411,تموينات فيول ماركت,,,,,,,1,THU,25.88688,48.92849,"301,250,364,110,003","7,017,570,792",,2025-02-24,0,,0,500.0000000,ACTIVE,Missing Documents,Potential,Required,,,,,,,,,Zone,,
,,,DAM003,,,CS018412,مؤسسة اضواء يا هلا للتجارة  1,,,,,,,1,SAT,26.41648,50.12060,"310,669,815,400,003","2,050,136,378",,2025-02-24,0,,0,500.0000000,ACTIVE,Missing Documents,Potential,Required,,,,,,,,,Zone,,
,,,DAM003,,,CS018413,عالم البشائر,,,,,,,2,THU,26.31270,50.15713,"300,501,216,900,003","2,057,472,484",,2025-02-24,0,,0,500.0000000,ACTIVE,Missing Documents,Potential,Required,,,,,,,,,Zone,,
,,,DAM003,,,CS018419,شركة جوب العالميه التجارية,,,,,,,2,MON,26.37754,50.08992,"311,089,901,600,003","2,050,241,170",,2025-02-24,0,,0,500.0000000,ACTIVE,Missing Documents,Potential,Required,,,,,,,,,Zone,,
,,,DAM003,,,CS018420,أسواق الساحل الشرقي,,,,,,,2,MON,26.35438,50.09875,"311,403,120,900,003","2,050,134,193",,2025-02-24,0,,0,500.0000000,ACTIVE,Missing Documents,Potential,Required,,,,,,,,,Zone,,
,,,DAM003,,,CS018421,قوافل الجزيرة,,,,,,,2,SUN,26.36282,50.07252,"311,561,345,300,003","2,050,135,920",,2025-02-24,0,,0,500.0000000,ACTIVE,Missing Documents,Potential,Required,,,,,,,,,Zone,,
,,,DAM003,,,CS018427,زاد السوق التجارية,,,,,,,1,TUE,26.36737,50.03739,"300,711,401,500,003","2,053,020,888",,2025-02-24,0,,0,500.0000000,ACTIVE,Missing Documents,Potential,Required,,,,,,,,,Zone,,
,,,DAM003,,,CS018431,تموينات قمة رأس الخير للمواد الغذائية 1,,,,,,,2,MON,26.36771,50.07780,"311,579,100,800,003","2,050,130,444",,2025-02-24,0,,0,500.0000000,ACTIVE,Missing Documents,Potential,Required,,,,,,,,,Zone,,
,,,DAM003,,,CS018434,بقالة عاصفة الأعمال للمواد الغذائية,,,,,,,1,WED,26.18779,50.01726,"300,425,699,100,003","2,253,100,000",,2025-02-24,0,,0,500.0000000,ACTIVE,Missing Documents,Potential,Required,,,,,,,,,Zone,,
,,,DAM003,,,CS018436,تموينات دلما الشرقية 1,,,,,,,2,SAT,26.35360,50.04192,"311,305,925,800,003","2,055,125,194",,2025-02-24,0,,0,500.0000000,ACTIVE,Missing Documents,Potential,Required,,,,,,,,,Zone,,
,,,DAM003,,,CS018440,تموينات فيرواي,,,,,,,2,THU,26.30897,50.14922,"310,731,551,700,003","2,050,068,007",,2025-02-24,0,,0,500.0000000,ACTIVE,Missing Documents,Potential,Required,,,,,,,,,Zone,,
,,,DAM003,,,CS018444,اسواق هلا,,,,,,,1,SUN,26.39622,50.08894,"310,169,317,100,003","2,050,140,762",,2025-02-24,0,,0,500.0000000,ACTIVE,Missing Documents,Potential,Required,,,,,,,,,Zone,,
,,,DAM003,,,CS018447,موسسة بدر البدر للتجاره 5,,,,,,,1,WED,26.23069,49.99802,"300,054,591,600,003","7,002,163,256",,2025-02-24,0,,0,500.0000000,ACTIVE,Missing Documents,Potential,Required,,,,,,,,,Zone,,
,,,DAM003,,,CS018448,تموينات فالكم طيب للمواد الغذائية,,,,,,,2,WED,26.34863,50.14264,"310,940,955,900,003","2,050,145,457",,2025-02-24,0,,0,500.0000000,ACTIVE,Missing Documents,Potential,Required,,,,,,,,,Zone,,
,,,DAM003,,,CS018456,اسواق وبيل المنار,,,,,,,1,TUE,26.36215,50.03510,"311,067,753,500,003","2,050,150,164",,2025-02-24,0,,0,500.0000000,ACTIVE,Missing Documents,Potential,Required,,,,,,,,,Zone,,
,,,DAM003,,,CS018463,تموينات أكاليل للمواد الغذائية,,,,,,,2,MON,26.37956,50.09984,"310,166,758,600,003","7,009,814,786",,2025-02-24,0,,0,500.0000000,ACTIVE,Missing Documents,Potential,Required,,,,,,,,,Zone,,
,,,DAM003,,,CS018468,مؤسسة رونق الياسمين للتجارة,,,,,,,1,SAT,26.42196,50.11173,"302,031,278,400,003","2,050,220,774",,2025-02-24,0,,0,500.0000000,ACTIVE,Missing Documents,Potential,Required,,,,,,,,,Zone,,
,,,DAM003,,,CS018474,اسواق مكان الجميع,,,,,,,2,SAT,26.35814,50.04468,"302,278,284,400,003","2,050,120,284",,2025-02-24,0,,0,500.0000000,ACTIVE,Missing Documents,Potential,Required,,,,,,,,,Zone,,
,,,DAM003,,,CS018476,شركة اسواق و مخابز زاد الخير للتجارة,,,,,,,2,SUN,26.35295,50.07756,"311,104,503,100,003","7,021,569,988",,2025-02-24,0,,0,500.0000000,ACTIVE,Missing Documents,Potential,Required,,,,,,,,,Zone,,
,,,DAM003,,,CS018491,مؤسسة  ثلاثية الابعاد التجارية,,,,,,,2,TUE,26.40706,50.18798,"310,144,364,100,003","2,050,073,532",,2025-02-24,0,,0,500.0000000,ACTIVE,Missing Documents,Potential,Required,,,,,,,,,Zone,,
,,,DAM003,,,CS018495,تموينات صالح جمعان سعيد الزهراني للمواد الغذائية,,,,,,,1,WED,26.35570,49.95752,"310,867,593,300,003","2,050,578,912",,2025-02-24,0,,0,500.0000000,ACTIVE,Missing Documents,Potential,Required,,,,,,,,,Zone,,
,,,DAM003,,,CS018498,تموينات راكة الخير للمواد الغذائية,,,,,,,2,THU,26.35025,50.19514,"310,944,551,600,003","2,051,235,676",,2025-02-24,0,,0,500.0000000,ACTIVE,Missing Documents,Potential,Required,,,,,,,,,Zone,,
,,,DAM003,,,CS018500,مؤسسة مذاق دلة الكيف العربيه التجارية,,,,,,,1,SAT,26.41379,50.12064,"311,661,476,300,003","2,050,145,403",,2025-02-24,0,,0,500.0000000,ACTIVE,Missing Documents,Potential,Required,,,,,,,,,Zone,,
,,,DAM003,,,CS018502,تموينات ركيب الديرة للمواد الغذائية,,,,,,,2,SUN,26.35674,50.06260,"311,631,134,400,003","4,208,549,331",,2025-02-24,0,,0,500.0000000,ACTIVE,Missing Documents,Potential,Required,,,,,,,,,Zone,,
,,,DAM003,,,CS018517,اسواق نور المدينة للمواد الغذائية,,,,,,,2,WED,26.37118,50.14005,"310,503,932,300,003","2,051,231,941",,2025-02-24,0,,0,500.0000000,ACTIVE,Missing Documents,Potential,Required,,,,,,,,,Zone,,
,,,DAM003,,,CS018518,تموينات ديم الخير للمواد الغذائية,,,,,,,2,SAT,26.34878,50.04262,"310,964,133,500,003","2,050,146,343",,2025-02-24,0,,0,500.0000000,ACTIVE,Missing Documents,Potential,Required,,,,,,,,,Zone,,
,,,DAM003,,,CS018521,شركة نجوم الخيرات التجارية 4,,,,,,,2,WED,26.34661,50.13541,"311,305,925,800,003","2,055,125,194",,2025-02-24,0,,0,500.0000000,ACTIVE,Missing Documents,Potential,Required,,,,,,,,,Zone,,
,,,DAM003,,,CS018524,مؤسسه روان يحيي القحطانى التجاريه,,,,,,,1,MON,26.38390,50.07054,"302,199,176,900,003","2,050,232,608",,2025-02-24,0,,0,500.0000000,ACTIVE,Missing Documents,Potential,Required,,,,,,,,,Zone,,
,,,DAM003,,,CS018526,تموينات سلة الشاطئ للمواد الغذائية,,,,,,,1,SAT,26.42347,50.11397,"310,583,718,500,003","2,050,156,957",,2025-02-24,0,,0,500.0000000,ACTIVE,Missing Documents,Potential,Required,,,,,,,,,Zone,,
,,,DAM003,,,CS018547,محامص و مطاحن كيف القهوة العربيه,,,,,,,1,MON,26.38562,50.05940,"310,474,834,400,003","2,050,144,802",,2025-02-24,0,,0,500.0000000,ACTIVE,Missing Documents,Potential,Required,,,,,,,,,Zone,,
,,,DAM003,,,CS018551,بقالة بدر الاسكان للمواد الغذائية,,,,,,,1,SAT,26.41479,50.12566,"311,104,560,800,003","3,909,109,127",,2025-02-24,0,,0,500.0000000,ACTIVE,Missing Documents,Potential,Required,,,,,,,,,Zone,,
,,,DAM003,,,CS018560,بقالة ليلى جبران القحطانى,,,,,,,2,SAT,26.35608,50.04566,,"2,050,368,921",,2025-02-24,0,,0,500.0000000,ACTIVE,Missing Documents,Potential,Required,,,,,,,,,Zone,,
,,,DAM003,,,CS018563,مؤسسه ربوه الفيصليه التجاريه,,,,,,,1,MON,26.37207,50.04919,"311,065,545,100,003","41,042,623,081",,2025-02-24,0,,0,500.0000000,ACTIVE,Missing Documents,Potential,Required,,,,,,,,,Zone,,
,,,DAM003,,,CS018583,أسواق سنا القمر التجارية,,,,,,,1,MON,26.38280,50.05514,"311,435,188,400,003","2,050,163,058",,2025-02-24,0,,0,500.0000000,ACTIVE,Missing Documents,Potential,Required,,,,,,,,,Zone,,
,,,DAM003,,,CS018584,تموينات سنابل يوسف,,,,,,,1,SUN,26.40286,50.07480,"311,054,912,400,003","2,050,163,067",,2025-02-24,0,,0,500.0000000,ACTIVE,Missing Documents,Potential,Required,,,,,,,,,Zone,,
,,,DAM003,,,CS018592,تموينات كواتم الشرقية للمواد الغذائية,,,,,,,1,SUN,26.40113,50.10498,"311,037,160,500,003","3,909,110,589",,2025-02-24,0,,0,500.0000000,ACTIVE,Missing Documents,Potential,Required,,,,,,,,,Zone,,
,,,DAM003,,,CS018593,مؤسسة سعد جهيم سعد الدوسري التجارية,,,,,,,2,SUN,26.34921,50.07447,"310,613,924,600,003","41,032,600,709",,2025-02-24,0,,0,500.0000000,ACTIVE,Missing Documents,Potential,Required,,,,,,,,,Zone,,
,,,DAM003,,,CS018594,تموينات بركة الشعلة للمواد الغذائية,,,,,,,2,SUN,26.35936,50.07448,"310,082,814,300,003","2,050,111,996",,2025-02-24,0,,0,500.0000000,ACTIVE,Missing Documents,Potential,Required,,,,,,,,,Zone,,
,,,DAM003,,,CS018595,بقالة المها حسين محمد الخيواني التجارية,,,,,,,1,SUN,26.40584,50.10770,"311,048,842,200,003","2,059,102,452",,2025-02-24,0,,0,500.0000000,ACTIVE,Missing Documents,Potential,Required,,,,,,,,,Zone,,
,,,DAM003,,,CS018596,شركة همة العرب التجارية,,,,,,,1,SAT,26.41131,50.11490,"311,356,914,800,003","2,050,068,426",,2025-02-24,0,,0,500.0000000,ACTIVE,Missing Documents,Potential,Required,,,,,,,,,Zone,,
,,,DAM003,,,CS018598,شركه اعمال المرافق المحدوده  1,,,,,,,1,SAT,26.40929,50.11155,"300,704,208,300,003","2,050,056,894",,2025-02-24,0,,0,500.0000000,ACTIVE,Missing Documents,Potential,Required,,,,,,,,,Zone,,
,,,DAM003,,,CS018606,تموينات بارك شوب,,,,,,,1,SAT,26.41775,50.10844,"311,218,757,900,003","43,099,593,059",,2025-02-24,0,,0,500.0000000,ACTIVE,Missing Documents,Potential,Required,,,,,,,,,Zone,,
,,,DAM003,,,CS018614,تموينات الخيزران للمواد الغذائيه,,,,,,,2,THU,26.31837,50.19401,"311,028,741,200,003","2,051,237,311",,2025-02-24,0,,0,500.0000000,ACTIVE,Missing Documents,Potential,Required,,,,,,,,,Zone,,
,,,DAM003,,,CS018627,أسواق زد ماركت,,,,,,,1,MON,26.37788,50.05955,"300,988,658,100,003","2,050,067,656",,2025-02-24,0,,0,500.0000000,ACTIVE,Missing Documents,Potential,Required,,,,,,,,,Zone,,
,,,DAM003,,,CS018628,شركة امواج الخليج للتجارة و الاستثمار 2,,,,,,,1,WED,26.23335,49.98930,"311,507,615,900,003","2,050,081,841",,2025-02-24,0,,0,500.0000000,ACTIVE,Missing Documents,Potential,Required,,,,,,,,,Zone,,
,,,DAM003,,,CS018629,شركة نجوم الخيرات التجارية 6,,,,,,,1,SAT,26.41270,50.12156,"311,305,925,800,003","2,055,125,194",,2025-02-24,0,,0,500.0000000,ACTIVE,Missing Documents,Potential,Required,,,,,,,,,Zone,,
,,,DAM003,,,CS018630,شركة المخزن الأول التجارية,,,,,,,1,MON,26.37889,50.03806,"310,808,160,600,003","2,050,209,637",,2025-02-24,0,,0,500.0000000,ACTIVE,Missing Documents,Potential,Required,,,,,,,,,Zone,,
,,,DAM003,,,CS018631,شركة اسواق تنزيل التجارية 1,,,,,,,1,MON,26.38788,50.06283,"311,242,773,600,003","2,050,138,610",,2025-02-24,0,,0,500.0000000,ACTIVE,Missing Documents,Potential,Required,,,,,,,,,Zone,,
,,,DAM003,,,CS018633,تموينات الغافة,,,,,,,1,TUE,26.36873,50.02693,"311,579,100,800,003","2,050,130,444",,2025-02-24,0,,0,500.0000000,ACTIVE,Missing Documents,Potential,Required,,,,,,,,,Zone,,
,,,DAM003,,,CS018640,شركة جول للوقود 1,,,,,,,1,WED,26.20272,50.02509,"310,878,292,100,003","2,052,100,076",,2025-02-24,0,,0,500.0000000,ACTIVE,Missing Documents,Potential,Required,,,,,,,,,Zone,,
,,,DAM003,,,CS018641,مؤسسة ددن و سل للتجارة,,,,,,,1,WED,26.19793,50.04626,"310,840,951,300,003","1,010,748,083",,2025-02-24,0,,0,500.0000000,ACTIVE,Missing Documents,Potential,Required,,,,,,,,,Zone,,
,,,DAM003,,,CS018672,تموينات  اكاليل  للمواد الغذائية 2,,,,,,,2,WED,26.38129,50.14910,"310,166,758,600,003","7,009,814,786",,2025-02-24,0,,0,500.0000000,ACTIVE,Missing Documents,Potential,Required,,,,,,,,,Zone,,
,,,DAM003,,,CS018673,اسواق شرعاء للتجاره,,,,,,,1,THU,25.97421,48.85720,"310,265,824,200,003","2,258,100,119",,2025-02-24,0,,0,500.0000000,ACTIVE,Missing Documents,Potential,Required,,,,,,,,,Zone,,
,,,DAM003,,,CS018674,سله ميرا للمواد الغذائيه,,,,,,,1,MON,26.38116,50.05688,"310,136,721,900,003","2,050,130,197",,2025-02-24,0,,0,500.0000000,ACTIVE,Missing Documents,Potential,Required,,,,,,,,,Zone,,
,,,DAM003,,,CS018675,مؤسسه شروق للمواد الغذائيه,,,,,,,1,MON,26.38116,50.05689,"302,216,411,900,003","2,050,108,427",,2025-02-24,0,,0,500.0000000,ACTIVE,Missing Documents,Potential,Required,,,,,,,,,Zone,,
,,,DAM003,,,CS018676,اسواق الدرب المضئ للمواد الغذائيه,,,,,,,1,TUE,26.37033,50.03462,"311,125,377,800,003","205,016,254",,2025-02-24,0,,0,500.0000000,ACTIVE,Missing Documents,Potential,Required,,,,,,,,,Zone,,
,,,DAM003,,,CS018686,مؤسسة عبد الله فهد بن عبد الله الدوسرى,,,,,,,2,TUE,26.38101,50.20792,"310,574,158,300,003","2,050,134,551",,2025-02-24,0,,0,500.0000000,ACTIVE,Missing Documents,Potential,Required,,,,,,,,,Zone,,
,,,DAM003,,,CS018688,اسواق البدر ماركت,,,,,,,1,WED,26.17242,49.92915,"311,643,364,300,003","2,059,103,077",,2025-02-24,0,,0,500.0000000,ACTIVE,Missing Documents,Potential,Required,,,,,,,,,Zone,,
,,,DAM003,,,CS018689,شركة نرجس الغذائية التجارية 12,,,,,,,2,SUN,26.35531,50.07098,"311,305,925,800,003","2,055,125,194",,2025-02-24,0,,0,500.0000000,ACTIVE,Missing Documents,Potential,Required,,,,,,,,,Zone,,
,,,DAM003,,,CS018690,الغافة ماركت,,,,,,,2,MON,26.36576,50.07684,"310,375,455,100,003","2,050,156,780",,2025-02-24,0,,0,500.0000000,ACTIVE,Missing Documents,Potential,Required,,,,,,,,,Zone,,
,,,DAM003,,,CS018691,مؤسسة مناحى مبخوت الصيعرى التجارية,,,,,,,1,MON,26.38292,50.07233,"300,803,978,800,003","2,050,165,634",,2025-02-24,0,,0,500.0000000,ACTIVE,Missing Documents,Potential,Required,,,,,,,,,Zone,,
,,,DAM003,,,CS018692,تموينات دلما الشرقية 2,,,,,,,2,SAT,26.35359,50.04214,"311,305,925,800,003","2,055,125,194",,2025-02-24,0,,0,500.0000000,ACTIVE,Missing Documents,Potential,Required,,,,,,,,,Zone,,
,,,DAM003,,,CS018695,بقالة فريده مشعل بن مبروك العازمي للمواد الغذائية,,,,,,,1,SAT,26.41403,50.13540,"310,132,436,300,003","2,050,088,291",,2025-02-24,0,,0,500.0000000,ACTIVE,Missing Documents,Potential,Required,,,,,,,,,Zone,,
,,,DAM003,,,CS018702,تموينات حنيفه محسن بن محمد المهرى للتجاره,,,,,,,1,MON,26.37636,50.04596,"311,423,335,900,003","2,050,162,576",,2025-02-24,0,,0,500.0000000,ACTIVE,Missing Documents,Potential,Required,,,,,,,,,Zone,,
,,,DAM003,,,CS018703,تموينات جود وجمان للمواد الغذائيه,,,,,,,1,TUE,26.37288,50.04083,"311,633,412,600,003","2,050,162,212",,2025-02-24,0,,0,500.0000000,ACTIVE,Missing Documents,Potential,Required,,,,,,,,,Zone,,
,,,DAM003,,,CS018704,اسواق روابى الفرسان,,,,,,,1,WED,26.35801,49.96473,"311,137,244,200,003","2,050,220,620",,2025-02-24,0,,0,500.0000000,ACTIVE,Missing Documents,Potential,Required,,,,,,,,,Zone,,
,,,DAM003,,,CS018706,بقالة برجس مبارك ابن برجس الدوسري للمواد الغذائية,,,,,,,2,TUE,26.41889,50.16146,"310,925,635,900,003","2,050,144,896",,2025-02-24,0,,0,500.0000000,ACTIVE,Missing Documents,Potential,Required,,,,,,,,,Zone,,
,,,DAM003,,,CS018707,بقاله سحاب المدن التجاريه,,,,,,,2,TUE,26.41719,50.16558,"311,299,551,900,003","2,050,158,575",,2025-02-24,0,,0,500.0000000,ACTIVE,Missing Documents,Potential,Required,,,,,,,,,Zone,,
,,,DAM003,,,CS018708,تموينات المناره للمواد الغذائيه,,,,,,,2,WED,26.34845,50.13459,"311,439,923,700,003","2,052,103,821",,2025-02-24,0,,0,500.0000000,ACTIVE,Missing Documents,Potential,Required,,,,,,,,,Zone,,
,,,DAM003,,,CS018709,بقاله سور الحديقه للمواد الغذائيه,,,,,,,2,THU,26.33628,50.16543,"310,011,691,400,003","2,052,103,239",,2025-02-24,0,,0,500.0000000,ACTIVE,Missing Documents,Potential,Required,,,,,,,,,Zone,,
,,,DAM003,,,CS018730,مؤسسة محمد عبد الله محمد الهويمل التجارية,,,,,,,2,TUE,26.36133,50.19621,"311,473,518,800,003","2,051,245,204",,2025-02-24,0,,0,500.0000000,ACTIVE,Missing Documents,Potential,Required,,,,,,,,,Zone,,
,,,DAM003,,,CS018731,محل سله طيبه للمواد الغذائيه,,,,,,,2,SAT,26.34508,50.04477,"310,305,868,500,003","2,050,122,012",,2025-02-24,0,,0,500.0000000,ACTIVE,Missing Documents,Potential,Required,,,,,,,,,Zone,,
,,,DAM003,,,CS018732,تموينات روائع المستهلك للمواد الغذائية,,,,,,,2,SUN,26.35469,50.07111,"311,429,601,400,003","2,050,166,504",,2025-02-24,0,,0,500.0000000,ACTIVE,Missing Documents,Potential,Required,,,,,,,,,Zone,,
,,,DAM003,,,CS018747,شركة ديماركت العالميه للتجارة,,,,,,,1,WED,26.37387,49.96401,"310,981,678,500,003","2,051,174,065",,2025-02-24,0,,0,500.0000000,ACTIVE,Missing Documents,Potential,Required,,,,,,,,,Zone,,
,,,DAM003,,,CS018753,بقالة توب المنار,,,,,,,1,TUE,26.36658,50.03315,"300,445,186,600,003","3,004,451,866",,2025-02-24,0,,0,500.0000000,ACTIVE,Missing Documents,Potential,Required,,,,,,,,,Zone,,
,,,DAM003,,,CS018757,تموينات شعبيات,,,,,,,2,TUE,26.36016,50.19185,"311,473,518,800,003","2,051,245,204",,2025-02-24,0,,0,500.0000000,ACTIVE,Missing Documents,Potential,Required,,,,,,,,,Zone,,
,,,DAM003,,,CS018765,تموينات منصور سليمان ال سليمان,,,,,,,1,SAT,26.42392,50.10232,"300,123,132,100,003","1,010,619,166",,2025-02-24,0,,0,500.0000000,ACTIVE,Missing Documents,Potential,Required,,,,,,,,,Zone,,
,,,DAM003,,,CS018766,بقالة سجى الثاني للمواد الغذائية,,,,,,,1,SAT,26.42103,50.11150,"310,040,748,900,003","2,050,076,784",,2025-02-24,0,,0,500.0000000,ACTIVE,Missing Documents,Potential,Required,,,,,,,,,Zone,,
,,,DAM003,,,CS018774,اسواق خدمة العملاء 2,,,,,,,2,TUE,26.35971,50.19118,"310,033,811,800,003","2,050,110,473",,2025-02-24,0,,0,500.0000000,ACTIVE,Missing Documents,Potential,Required,,,,,,,,,Zone,,
,,,DAM003,,,CS018783,بقالة فاطمه جعفر آل رمضان التجارية,,,,,,,2,TUE,26.37211,50.19301,"311,089,746,100,003","4,106,341,772",,2025-02-24,0,,0,500.0000000,ACTIVE,Missing Documents,Potential,Required,,,,,,,,,Zone,,
,,,DAM003,,,CS018785,شركة قمة لين التجارية  1,,,,,,,2,TUE,26.36600,50.20577,"311,288,764,900,003","2,050,121,469",,2025-02-24,0,,0,500.0000000,ACTIVE,Missing Documents,Potential,Required,,,,,,,,,Zone,,
,,,DAM003,,,CS018825,تموينات يوم سهل للمواد الغذائية,,,,,,,2,TUE,26.36500,50.20194,"300,435,429,200,003","2,050,159,854",,2025-02-24,0,,0,500.0000000,ACTIVE,Missing Documents,Potential,Required,,,,,,,,,Zone,,
,,,DAM003,,,CS018846,تموينات حسين علي بن احمد شاخور للمواد الغذائية,,,,,,,2,TUE,26.39768,50.16134,"310,413,851,600,003","4,111,359,177",,2025-02-24,0,,0,500.0000000,ACTIVE,Missing Documents,Potential,Required,,,,,,,,,Zone,,
,,,DAM003,,,CS018852,عالم البشاير,,,,,,,2,THU,26.33572,50.19383,"300,501,216,900,003","2,057,472,484",,2025-02-24,0,,0,500.0000000,ACTIVE,Missing Documents,Potential,Required,,,,,,,,,Zone,,
,,,DAM003,,,CS018853,شركة تموينات قيم البركة للمواد الغذائية,,,,,,,1,WED,26.33625,50.00016,"311,406,527,600,003","2,050,210,013",,2025-02-24,0,,0,500.0000000,ACTIVE,Missing Documents,Potential,Required,,,,,,,,,Zone,,
,,,DAM003,,,CS018865,محل أحمد عيد بن محمد الطلاسي للمواد الغذائية,,,,,,,2,TUE,26.41771,50.16188,"302,224,560,300,003","2,050,147,689",,2025-02-24,0,,0,500.0000000,ACTIVE,Missing Documents,Potential,Required,,,,,,,,,Zone,,
,,,DAM003,,,CS018868,شركه جوهر الخليج التجاريه,,,,,,,1,SAT,26.42285,50.09886,"311,365,335,400,003","7,014,607,290",,2025-02-24,0,,0,500.0000000,ACTIVE,Missing Documents,Potential,Required,,,,,,,,,Zone,,
,,,DAM003,,,CS018870,بقاله خيرات الدهناء,,,,,,,1,SUN,26.42275,50.09674,"311,528,898,300,003","7,030,210,178",,2025-02-24,0,,0,500.0000000,ACTIVE,Missing Documents,Potential,Required,,,,,,,,,Zone,,
,,,DAM003,,,CS018871,تموينات الموزه,,,,,,,1,SAT,26.42161,50.10902,"300,397,014,800,003","2,050,144,695",,2025-02-24,0,,0,500.0000000,ACTIVE,Missing Documents,Potential,Required,,,,,,,,,Zone,,
,,,DAM003,,,CS018872,شركه المها المتحدة المحدوده,,,,,,,1,SAT,26.42052,50.11475,"310,363,206,700,003","2,050,120,151",,2025-02-24,0,,0,500.0000000,ACTIVE,Missing Documents,Potential,Required,,,,,,,,,Zone,,
,,,DAM003,,,CS018876,تموينات الانصاري للمواد الغذائية,,,,,,,1,TUE,26.38073,50.02493,"310,171,991,700,003","2,050,211,984",,2025-02-24,0,,0,500.0000000,ACTIVE,Missing Documents,Potential,Required,,,,,,,,,Zone,,
,,,DAM003,,,CS018879,مؤسسه زريفه للتجارة,,,,,,,1,SUN,26.41647,50.09370,"311,321,149,800,003","2,050,115,625",,2025-02-24,0,,0,500.0000000,ACTIVE,Missing Documents,Potential,Required,,,,,,,,,Zone,,
,,,DAM003,,,CS018880,مؤسسه توريد الشرق التجارية,,,,,,,2,SUN,26.34892,50.07466,"311,591,329,700,003","4,306,915,531",,2025-02-24,0,,0,500.0000000,ACTIVE,Missing Documents,Potential,Required,,,,,,,,,Zone,,
,,,DAM003,,,CS018883,مؤسسة سحب الشرق التجارية,,,,,,,2,SUN,26.35854,50.07464,"300,798,969,200,003","2,050,136,921",,2025-02-24,0,,0,500.0000000,ACTIVE,Missing Documents,Potential,Required,,,,,,,,,Zone,,
,,,DAM003,,,CS018887,سوبر ماركت ملتقى التوفير 5,,,,,,,1,TUE,26.38078,50.02511,"300,035,979,300,003","1,010,350,030",,2025-02-24,0,,0,500.0000000,ACTIVE,Missing Documents,Potential,Required,,,,,,,,,Zone,,
,,,DAM003,,,CS018898,تموينات طلعة الخير للمواد الغذائية,,,,,,,1,MON,26.38336,50.07342,"311,363,226,800,003","2,050,147,563",,2025-02-24,0,,0,500.0000000,ACTIVE,Missing Documents,Potential,Required,,,,,,,,,Zone,,
,,,DAM003,,,CS018899,مركز عالم ناس التجارية,,,,,,,1,MON,26.38310,50.07275,"300,803,978,800,003","2,050,165,634",,2025-02-24,0,,0,500.0000000,ACTIVE,Missing Documents,Potential,Required,,,,,,,,,Zone,,
,,,DAM003,,,CS018900,تموينات لؤلؤة الشعلة للمواد الغذائية,,,,,,,2,SUN,26.35581,50.07647,"300,394,466,800,003","4,308,953,542",,2025-02-24,0,,0,500.0000000,ACTIVE,Missing Documents,Potential,Required,,,,,,,,,Zone,,
,,,DAM003,,,CS018905,مركز كيان العربي للتسوق,,,,,,,2,SUN,26.34569,50.07676,"311,196,556,100,003","2,050,141,257",,2025-02-24,0,,0,500.0000000,ACTIVE,Missing Documents,Potential,Required,,,,,,,,,Zone,,
,,,DAM003,,,CS018906,اسواق روابي الفرسان المركزية,,,,,,,1,WED,26.35807,49.96416,"311,137,244,200,003","2,062,617,798",,2025-02-24,0,,0,500.0000000,ACTIVE,Missing Documents,Potential,Required,,,,,,,,,Zone,,
,,,DAM003,,,CS018920,بقاله نجمه ايلان التجارية,,,,,,,1,SUN,26.41240,50.07884,"311,313,865,200,003","4,312,101,532",,2025-02-24,0,,0,500.0000000,ACTIVE,Missing Documents,Potential,Required,,,,,,,,,Zone,,
,,,DAM003,,,CS018923,تموينات تغاريد للمواد الغذائية,,,,,,,1,WED,26.36804,49.96410,"311,526,621,100,003","3,909,112,137",,2025-02-24,0,,0,500.0000000,ACTIVE,Missing Documents,Potential,Required,,,,,,,,,Zone,,
,,,DAM003,,,CS018924,تموينات سلمان علي بن سلمان,,,,,,,1,WED,26.35693,49.96169,"302,256,180,300,003","4,107,348,825",,2025-02-24,0,,0,500.0000000,ACTIVE,Missing Documents,Potential,Required,,,,,,,,,Zone,,
,,,DAM003,,,CS018929,شركة غذاء ستور للتجاره,,,,,,,1,WED,26.36200,49.97117,"310,724,786,900,003","5,806,101,695",,2025-02-24,0,,0,500.0000000,ACTIVE,Missing Documents,Potential,Required,,,,,,,,,Zone,,
,,,DAM003,,,CS018930,شركه مجتمع الأسرة للتجاره,,,,,,,1,WED,26.36142,49.98493,"311,519,310,200,003","4,406,113,919",,2025-02-24,0,,0,500.0000000,ACTIVE,Missing Documents,Potential,Required,,,,,,,,,Zone,,
,,,DAM003,,,CS018931,تمويانات سلاسل المشرق للمواد الغذائية,,,,,,,1,WED,26.34738,49.99983,"310,661,862,500,003","3,106,618,625",,2025-02-24,0,,0,500.0000000,ACTIVE,Missing Documents,Potential,Required,,,,,,,,,Zone,,
,,,DAM003,,,CS018939,تموينات شرق للمواد الغذائية,,,,,,,1,MON,26.38109,50.05658,"302,216,411,900,003","2,050,108,427",,2025-02-24,0,,0,500.0000000,ACTIVE,Missing Documents,Potential,Required,,,,,,,,,Zone,,
,,,DAM003,,,CS018944,شركه سله الخير للتجاره,,,,,,,2,SUN,26.36297,50.06440,"311,412,426,900,003","2,050,235,576",,2025-02-24,0,,0,500.0000000,ACTIVE,Missing Documents,Potential,Required,,,,,,,,,Zone,,
,,,DAM003,,,CS018946,تموينات زهرة الشباب للمواد الغذائية,,,,,,,2,WED,26.37573,50.12303,"310,855,519,500,003","2,050,142,081",,2025-02-24,0,,0,500.0000000,ACTIVE,Missing Documents,Potential,Required,,,,,,,,,Zone,,
,,,DAM003,,,CS018963,تموينات واحه الاطلال للمواد الغذائية,,,,,,,2,SUN,26.34772,50.07887,"310,876,543,700,003","4,106,342,437",,2025-02-24,0,,0,500.0000000,ACTIVE,Missing Documents,Potential,Required,,,,,,,,,Zone,,
,,,DAM003,,,CS018964,تموينات الناله للمواد الغذائية,,,,,,,1,MON,26.38831,50.04166,"311,254,394,900,003","4,311,997,260",,2025-02-24,0,,0,500.0000000,ACTIVE,Missing Documents,Potential,Required,,,,,,,,,Zone,,
,,,DAM003,,,CS018967,تموينات روائع المستهلك للمواد الغذائية,,,,,,,2,SUN,26.35467,50.07153,"311,429,601,400,003","2,050,166,504",,2025-02-24,0,,0,500.0000000,ACTIVE,Missing Documents,Potential,Required,,,,,,,,,Zone,,
,,,DAM003,,,CS018968,تموينات نزهة المستهلك للمواد الغذائية,,,,,,,1,SAT,26.42623,50.11144,"310,634,805,300,003","2,050,126,160",,2025-02-24,0,,0,500.0000000,ACTIVE,Missing Documents,Potential,Required,,,,,,,,,Zone,,
,,,DAM003,,,CS018971,تموينات محمد عبدالله محمد الباز للمواد الغذائية,,,,,,,1,TUE,26.38016,50.02465,"310,750,156,600,003","3,909,109,135",,2025-02-24,0,,0,500.0000000,ACTIVE,Missing Documents,Potential,Required,,,,,,,,,Zone,,
,,,DAM003,,,CS018972,مقهئ البن المختص لتقديم الوجبات,,,,,,,1,TUE,26.36056,50.03354,"310,021,397,200,003","1,027,277,415",,2025-02-24,0,,0,500.0000000,ACTIVE,Missing Documents,Potential,Required,,,,,,,,,Zone,,
,,,DAM003,,,CS018979,تموينات بابكو للمواد الغذائية,,,,,,,1,SUN,26.40863,50.07154,"300,763,763,600,003","2,066,611,685",,2025-02-24,0,,0,500.0000000,ACTIVE,Missing Documents,Potential,Required,,,,,,,,,Zone,,
,,,DAM003,,,CS018980,موارد المدينة,,,,,,,2,MON,26.38278,50.09803,"310,207,311,600,003","2,066,611,635",,2025-02-24,0,,0,500.0000000,ACTIVE,Missing Documents,Potential,Required,,,,,,,,,Zone,,
,,,DAM003,,,CS018984,تموينات ترف وحور,,,,,,,1,TUE,26.36066,50.03323,"311,323,650,600,003","2,050,158,971",,2025-02-24,0,,0,500.0000000,ACTIVE,Missing Documents,Potential,Required,,,,,,,,,Zone,,
,,,DAM003,,,CS018989,تموينات نانا,,,,,,,2,THU,26.33597,50.16745,"300,397,166,900,003","2,052,002,211",,2025-02-24,0,,0,500.0000000,ACTIVE,Missing Documents,Potential,Required,,,,,,,,,Zone,,
,,,DAM003,,,CS018994,شركة نهار الخير للتسويق,,,,,,,2,THU,26.32288,50.16153,"311,503,088,400,003","4,105,261,940",,2025-02-24,0,,0,500.0000000,ACTIVE,Missing Documents,Potential,Required,,,,,,,,,Zone,,
,,,DAM003,,,CS018996,تموينات امواج البحر للمواد الغذائية,,,,,,,2,SAT,26.34984,50.04955,"311,513,356,100,003","4,406,113,587",,2025-02-24,0,,0,500.0000000,ACTIVE,Missing Documents,Potential,Required,,,,,,,,,Zone,,
,,,DAM003,,,CS018997,ماي استور فرع المنار,,,,,,,2,SAT,26.36086,50.04203,"311,231,857,800,003","2,052,102,111",,2025-02-24,0,,0,500.0000000,ACTIVE,Missing Documents,Potential,Required,,,,,,,,,Zone,,
,,,DAM003,,,CS019017,شركة نرجس الغذائية التجارية 18,,,,,,,1,TUE,26.36450,50.03903,"311,305,925,800,003","2,055,125,194",,2025-02-24,0,,0,500.0000000,ACTIVE,Missing Documents,Potential,Required,,,,,,,,,Zone,,
,,,DAM003,,,CS019018,مركز ابو بدر للمواد الغذائية,,,,,,,1,TUE,26.36310,50.04038,"310,627,001,700,003","42,065,210,649",,2025-02-24,0,,0,500.0000000,ACTIVE,Missing Documents,Potential,Required,,,,,,,,,Zone,,
,,,DAM003,,,CS019026,تموينات فاطمه علي بن خميس الصيعري للمواد الغذائية,,,,,,,1,SUN,26.40279,50.07469,"311,054,912,400,003","2,051,237,652",,2025-02-24,0,,0,500.0000000,ACTIVE,Missing Documents,Potential,Required,,,,,,,,,Zone,,
,,,DAM003,,,CS019043,شركة بسمي للتجارة,,,,,,,2,MON,26.35092,50.09323,"311,326,472,700,003","2,050,095,357",,2025-02-24,0,,0,500.0000000,ACTIVE,Missing Documents,Potential,Required,,,,,,,,,Zone,,
,,,DAM003,,,CS019047,شركة نرجس الغذائية التجارية 19,,,,,,,1,WED,26.35614,49.95935,"311,305,925,800,003","2,055,125,194",,2025-02-24,0,,0,500.0000000,ACTIVE,Missing Documents,Potential,Required,,,,,,,,,Zone,,
,,,DAM003,,,CS019048,شركة سلة الخير التجارية,,,,,,,1,SUN,26.40363,50.08437,"311,412,426,900,003","2,050,235,576",,2025-02-24,0,,0,500.0000000,ACTIVE,Missing Documents,Potential,Required,,,,,,,,,Zone,,
,,,DAM003,,,CS019060,شركة توفير الغذاء للتجارة 6,,,,,,,2,WED,26.34898,50.14273,"311,467,171,700,003","2,055,128,319",,2025-02-24,0,,0,500.0000000,ACTIVE,Missing Documents,Potential,Required,,,,,,,,,Zone,,
,,,DAM003,,,CS019061,تموينات خيرات التوت للمواد الغذائية,,,,,,,1,WED,26.35091,49.99005,"311,238,260,300,003","7,028,425,242",,2025-02-24,0,,0,500.0000000,ACTIVE,Missing Documents,Potential,Required,,,,,,,,,Zone,,
,,,DAM003,,,CS019065,مؤسسة اجمل التوابل التجارية,,,,,,,1,MON,26.38047,50.04846,"310,720,078,400,003","2,055,128,698",,2025-02-24,0,,0,500.0000000,ACTIVE,Missing Documents,Potential,Required,,,,,,,,,Zone,,
,,,DAM003,,,CS019069,شركة البحرين الشامل,,,,,,,1,SUN,26.41095,50.09713,"311,378,264,700,003","2,050,074,929",,2025-02-24,0,,0,500.0000000,ACTIVE,Missing Documents,Potential,Required,,,,,,,,,Zone,,
,,,DAM003,,,CS019070,مؤسسة مبارك عبدالله ناصر الصيعري,,,,,,,2,SAT,26.35426,50.04786,"311,325,627,300,003","2,050,167,587",,2025-02-24,0,,0,500.0000000,ACTIVE,Missing Documents,Potential,Required,,,,,,,,,Zone,,
,,,DAM003,,,CS019076,محل سله طيبه للمواد الغذائية,,,,,,,2,SAT,26.34505,50.04461,"310,305,868,500,003","2,050,122,012",,2025-02-24,0,,0,500.0000000,ACTIVE,Missing Documents,Potential,Required,,,,,,,,,Zone,,
,,,DAM003,,,CS019077,بقاله نايفه,,,,,,,2,SUN,26.35912,50.06669,"311,232,782,300,003","441,112,282,078",,2025-02-24,0,,0,500.0000000,ACTIVE,Missing Documents,Potential,Required,,,,,,,,,Zone,,
,,,DAM003,,,CS019078,اسواق عالم السعادة للمواد الغذائية,,,,,,,2,SAT,26.35297,50.04911,"310,530,418,700,003","441,012,127,881",,2025-02-24,0,,0,500.0000000,ACTIVE,Missing Documents,Potential,Required,,,,,,,,,Zone,,
,,,DAM003,,,CS019088,محل كنوز القهوه والمكسرات للقهوة,,,,,,,1,SUN,26.40339,50.08452,"310,384,976,800,003","40,072,077,143",,2025-02-24,0,,0,500.0000000,ACTIVE,Missing Documents,Potential,Required,,,,,,,,,Zone,,
,,,DAM003,,,CS019092,مؤسسه اضواء ياهلا التحارية,,,,,,,1,SUN,26.39088,50.10497,"310,669,815,400,003","2,050,136,378",,2025-02-24,0,,0,500.0000000,ACTIVE,Missing Documents,Potential,Required,,,,,,,,,Zone,,
,,,DAM003,,,CS019106,اسواق سماء بلادي للمواد الغذائية,,,,,,,1,MON,26.39242,50.07314,"311,454,231,900,003","2,050,163,870",,2025-02-24,0,,0,500.0000000,ACTIVE,Missing Documents,Potential,Required,,,,,,,,,Zone,,
,,,DAM003,,,CS019108,تموينات في,,,,,,,2,THU,26.32398,50.18018,"300,047,426,410,003","2,051,238,945",,2025-02-24,0,,0,500.0000000,ACTIVE,Missing Documents,Potential,Required,,,,,,,,,Zone,,
,,,DAM003,,,CS019110,مؤسسة خديجه علي بن ال حسن انصيف للتجارة,,,,,,,1,TUE,26.37032,50.03423,"311,061,801,600,003","2,050,149,933",,2025-02-24,0,,0,500.0000000,ACTIVE,Missing Documents,Potential,Required,,,,,,,,,Zone,,
,,,DAM003,,,CS019116,أسواق درة المسافر التجارية,,,,,,,1,WED,26.17241,49.92941,"311,643,364,300,003","2,059,103,077",,2025-02-24,0,,0,500.0000000,ACTIVE,Missing Documents,Potential,Required,,,,,,,,,Zone,,
,,,DAM003,,,CS019130,موسسة ندايا الغذا للمواد الغذائية,,,,,,,2,SUN,26.36267,50.07188,"311,593,484,400,003","441,112,449,698",,2025-02-24,0,,0,500.0000000,ACTIVE,Missing Documents,Potential,Required,,,,,,,,,Zone,,
,,,DAM003,,,CS019147,مؤسسه انعام الزبير التجاره,,,,,,,2,WED,26.37259,50.12332,"300,813,383,200,003","3,909,114,316",,2025-02-24,0,,0,500.0000000,ACTIVE,Missing Documents,Potential,Required,,,,,,,,,Zone,,
,,,DAM003,,,CS019151,تموينات خيمه الغذاء للمواد الغذائية,,,,,,,1,SUN,26.40562,50.08071,"311,081,434,500,003","43,089,445,097",,2025-02-24,0,,0,500.0000000,ACTIVE,Missing Documents,Potential,Required,,,,,,,,,Zone,,
,,,DAM003,,,CS019161,تموينات جود السعاده,,,,,,,1,SUN,26.40598,50.10780,"310,166,758,600,003","2,050,231,404",,2025-02-24,0,,0,500.0000000,ACTIVE,Missing Documents,Potential,Required,,,,,,,,,Zone,,
,,,DAM003,,,CS019164,شركة اسواق تنزيل التجارية 2,,,,,,,1,WED,26.23072,49.99803,"311,242,773,600,003","2,050,138,610",,2025-02-24,0,,0,500.0000000,ACTIVE,Missing Documents,Potential,Required,,,,,,,,,Zone,,
,,,DAM003,,,CS019171,بقالة هدى بنت حسين بن علي الحيز للمواد الغذائية,,,,,,,2,SUN,26.36571,50.06761,"310,966,106,500,003","40,072,068,532",,2025-02-24,0,,0,500.0000000,ACTIVE,Missing Documents,Potential,Required,,,,,,,,,Zone,,
,,,DAM003,,,CS019174,تموينات ارزاق زهران للمواد الغذائية,,,,,,,2,SUN,26.35953,50.06525,"311,756,739,900,003","450,112,924,702",,2025-02-24,0,,0,500.0000000,ACTIVE,Missing Documents,Potential,Required,,,,,,,,,Zone,,
,,,DAM003,,,CS019175,شركة نجوم الخيرات التجارية 3,,,,,,,2,SAT,26.35370,50.04205,"311,305,925,800,003","2,055,125,194",,2025-02-24,0,,0,500.0000000,ACTIVE,Missing Documents,Potential,Required,,,,,,,,,Zone,,
,,,DAM003,,,CS019180,شركة أسواق ضاحية الأسرة للمواد الغذائية,,,,,,,1,TUE,26.36671,50.03716,"311,459,855,100,003","2,050,135,066",,2025-02-24,0,,0,500.0000000,ACTIVE,Missing Documents,Potential,Required,,,,,,,,,Zone,,
,,,DAM003,,,CS019193,مؤسسة قف وناظر,,,,,,,2,SUN,26.35685,50.06083,"300,781,273,800,003","2,050,082,331",,2025-02-24,0,,0,500.0000000,ACTIVE,Missing Documents,Potential,Required,,,,,,,,,Zone,,
,,,DAM003,,,CS019196,شركه مزايا الاولى,,,,,,,2,MON,26.37245,50.09919,"311,231,857,800,003","2,052,102,111",,2025-02-24,0,,0,500.0000000,ACTIVE,Missing Documents,Potential,Required,,,,,,,,,Zone,,
,,,DAM003,,,CS019198,تموينات المكان,,,,,,,1,SAT,26.43082,50.13289,"311,358,637,900,003","2,050,160,121",,2025-02-24,0,,0,500.0000000,ACTIVE,Missing Documents,Potential,Required,,,,,,,,,Zone,,
,,,DAM003,,,CS019202,تموينات نبل الواحه للتجاره,,,,,,,1,SUN,26.42201,50.09665,"300,717,713,600,003","2,050,174,402",,2025-02-24,0,,0,500.0000000,ACTIVE,Missing Documents,Potential,Required,,,,,,,,,Zone,,
,,,DAM003,,,CS019203,تموينات الصيف السعيد,,,,,,,1,SAT,26.42321,50.10511,0,"2,050,239,697",,2025-02-24,0,,0,500.0000000,ACTIVE,Missing Documents,Potential,Required,,,,,,,,,Zone,,
,,,DAM003,,,CS019215,مؤسسه علي ال سنان,,,,,,,1,SUN,26.41742,50.09235,"300,474,524,800,003","3,909,115,457",,2025-02-24,0,,0,500.0000000,ACTIVE,Missing Documents,Potential,Required,,,,,,,,,Zone,,
,,,DAM003,,,CS019220,مؤسسه السله الشمالية للمواد الغذائية,,,,,,,2,WED,26.35617,50.13334,"311,011,448,400,003","43,036,475,921",,2025-02-24,0,,0,500.0000000,ACTIVE,Missing Documents,Potential,Required,,,,,,,,,Zone,,
,,,DAM003,,,CS019221,اسواق فخر المستهلك المركزيه,,,,,,,1,MON,26.37581,50.04560,"300,373,916,300,003","2,050,117,544",,2025-02-24,0,,0,500.0000000,ACTIVE,Missing Documents,Potential,Required,,,,,,,,,Zone,,
,,,DAM003,,,CS019225,تموينات الامواج الساحره للمواد الغذائية,,,,,,,1,SAT,26.41304,50.11183,"310,711,407,100,003","450,313,419,849",,2025-02-24,0,,0,500.0000000,ACTIVE,Missing Documents,Potential,Required,,,,,,,,,Zone,,
,,,DAM003,,,CS019226,تموينات توفير طيبه للمواد الغذائية,,,,,,,2,MON,26.37048,50.08457,"302,052,707,400,003","2,050,159,638",,2025-02-24,0,,0,500.0000000,ACTIVE,Missing Documents,Potential,Required,,,,,,,,,Zone,,
,,,DAM003,,,CS019228,شركه مناره الشرق النادره للمواد الغذائية,,,,,,,2,SAT,26.34924,50.04207,"310,811,107,400,003","450,313,456,894",,2025-02-24,0,,0,500.0000000,ACTIVE,Missing Documents,Potential,Required,,,,,,,,,Zone,,
,,,DAM003,,,CS019230,تموينات ميزة المستهلك للتجارة,,,,,,,2,SAT,26.34497,50.04473,"310,723,255,000,003","40,052,030,632",,2025-02-24,0,,0,500.0000000,ACTIVE,Missing Documents,Potential,Required,,,,,,,,,Zone,,
,,,DAM003,,,CS019233,تموينات شرعاء,,,,,,,1,THU,26.07308,49.29498,0,"20,591,025,220",,2025-02-24,0,,0,500.0000000,ACTIVE,Missing Documents,Potential,Required,,,,,,,,,Zone,,
,,,DAM003,,,CS019241,تموينات هنا الحلم للمواد الغذائية,,,,,,,2,MON,26.36489,50.07519,"311,176,916,400,003","2,050,176,058",,2025-02-24,0,,0,500.0000000,ACTIVE,Missing Documents,Potential,Required,,,,,,,,,Zone,,
,,,DAM003,,,CS019243,ابراج الدوحة,,,,,,,2,TUE,26.38924,50.17825,"310,954,661,300,003","2,050,079,497",,2025-02-24,0,,0,500.0000000,ACTIVE,Missing Documents,Potential,Required,,,,,,,,,Zone,,
,,,DAM003,,,CS019245,تموينات نهار عيظه بن عمر الصيعري للمواد الغذائية,,,,,,,2,SAT,26.35076,50.05318,"311,794,476,300,003","2,050,175,464",,2025-02-24,0,,0,500.0000000,ACTIVE,Missing Documents,Potential,Required,,,,,,,,,Zone,,
,,,DAM003,,,CS019248,اسواق ميزة المستهلك للتجاره,,,,,,,1,SAT,26.40927,50.10849,"310,723,255,800,003","2,050,100,614",,2025-02-24,0,,0,500.0000000,ACTIVE,Missing Documents,Potential,Required,,,,,,,,,Zone,,
,,,DAM003,,,CS019254,بقاله المواسم المتميز للمواد الغذائية,,,,,,,1,SUN,26.41241,50.07886,"310,084,927,700,003","441,212,661,393",,2025-02-24,0,,0,500.0000000,ACTIVE,Missing Documents,Potential,Required,,,,,,,,,Zone,,
,,,DAM003,,,CS019256,بقاله سكه الرزق للمواد الغذائية,,,,,,,2,SAT,26.35252,50.03933,"311,504,054,900,003","44,061,123,951",,2025-02-24,0,,0,500.0000000,ACTIVE,Missing Documents,Potential,Required,,,,,,,,,Zone,,
,,,DAM003,,,CS019259,تنوينات الحاضره للمواد الغذائية,,,,,,,1,SUN,26.40912,50.07946,"310,928,497,400,003","2,050,145,001",,2025-02-24,0,,0,500.0000000,ACTIVE,Missing Documents,Potential,Required,,,,,,,,,Zone,,
,,,DAM003,,,CS019262,مؤسسه فهد طامي,,,,,,,2,SAT,26.35496,50.03720,"300,826,201,300,003","42,013,846,934",,2025-02-24,0,,0,500.0000000,ACTIVE,Missing Documents,Potential,Required,,,,,,,,,Zone,,
,,,DAM003,,,CS019265,تموينات ربيع الصمان للمواد الغذائية,,,,,,,1,TUE,26.36865,50.04428,"302,097,327,700,003","450,313,346,250",,2025-02-24,0,,0,500.0000000,ACTIVE,Missing Documents,Potential,Required,,,,,,,,,Zone,,
,,,DAM003,,,CS019276,تموينات نجوم خيرات,,,,,,,2,THU,26.32002,50.16329,"311,305,925,800,003","2,055,125,194",,2025-02-24,0,,0,500.0000000,ACTIVE,Missing Documents,Potential,Required,,,,,,,,,Zone,,
,,,DAM003,,,CS019277,فرع شركة مزيا,,,,,,,2,THU,26.32229,50.15781,"311,231,857,800,003","2,052,102,111",,2025-02-24,0,,0,500.0000000,ACTIVE,Missing Documents,Potential,Required,,,,,,,,,Zone,,
,,,DAM003,,,CS019282,شركه سله الخير التجاريه فرع المنار,,,,,,,1,TUE,26.37277,50.04090,"311,412,426,900,003","2,050,235,576",,2025-02-24,0,,0,500.0000000,ACTIVE,Missing Documents,Potential,Required,,,,,,,,,Zone,,
,,,DAM003,,,CS019291,شركه قمه عزم للمواد الغذائية,,,,,,,2,MON,26.37065,50.08257,"311,868,414,300,003","2,055,128,124",,2025-02-24,0,,0,500.0000000,ACTIVE,Missing Documents,Potential,Required,,,,,,,,,Zone,,
,,,DAM003,,,CS019292,شركة مبدأ الحياة,,,,,,,1,WED,26.35048,49.96905,"311,351,656,500,003","1,010,170,041",,2025-02-24,0,,0,500.0000000,ACTIVE,Missing Documents,Potential,Required,,,,,,,,,Zone,,
,,,DAM003,,,CS019305,تمونات طالب على النهدى,,,,,,,2,TUE,26.41516,50.17004,"300,113,563,600,003","4,030,243,188",,2025-02-24,0,,0,500.0000000,ACTIVE,Missing Documents,Potential,Required,,,,,,,,,Zone,,
,,,DAM003,,,CS019307,تموينات اصالة جود للمواد الغذائية,,,,,,,1,SUN,26.41479,50.08728,"301,233,869,500,003","43,109,831,530",,2025-02-24,0,,0,500.0000000,ACTIVE,Missing Documents,Potential,Required,,,,,,,,,Zone,,
,,,DAM003,,,CS019308,بقاله عبدالعزيز ابراهيم النعيمي للمواد الغذائية,,,,,,,1,TUE,26.37530,50.03024,"300,680,779,300,003","43,047,919,817",,2025-02-24,0,,0,500.0000000,ACTIVE,Missing Documents,Potential,Required,,,,,,,,,Zone,,
,,,DAM003,,,CS019313,مؤسسة سلة ورف,,,,,,,1,SAT,26.41735,50.10809,"311,809,499,700,003","7,036,364,722",,2025-02-24,0,,0,500.0000000,ACTIVE,Missing Documents,Potential,Required,,,,,,,,,Zone,,
,,,DAM003,,,CS019329,موسسه دوحة الابداع,,,,,,,2,SUN,26.36292,50.06417,"302,131,065,500,003","450,313,442,817",,2025-02-24,0,,0,500.0000000,ACTIVE,Missing Documents,Potential,Required,,,,,,,,,Zone,,
,,,DAM003,,,CS019330,تموينات شاطى المدينه للمواد الغذائية,,,,,,,2,SUN,26.36227,50.06463,"310,730,502,800,003","3,909,108,050",,2025-02-24,0,,0,500.0000000,ACTIVE,Missing Documents,Potential,Required,,,,,,,,,Zone,,
,,,DAM003,,,CS019335,بقالة ثروات وخيرات,,,,,,,2,WED,26.35160,50.13130,"305,006,442,700,003","2,050,149,733",,2025-02-24,0,,0,500.0000000,ACTIVE,Missing Documents,Potential,Required,,,,,,,,,Zone,,
,,,DAM003,,,CS019336,شركه نرجس الغذائية فرع الفيصلية,,,,,,,1,MON,26.38283,50.07292,"311,305,925,800,003","2,050,124,811",,2025-02-24,0,,0,500.0000000,ACTIVE,Missing Documents,Potential,Required,,,,,,,,,Zone,,
,,,DAM003,,,CS019340,مؤسسه رحمه محمد صالح البريكي,,,,,,,2,SAT,26.34718,50.04549,"311,048,778,500,003","431,110,041,685",,2025-02-24,0,,0,500.0000000,ACTIVE,Missing Documents,Potential,Required,,,,,,,,,Zone,,
,,,DAM003,,,CS019348,تموينات قمة عزم الغذائية,,,,,,,2,TUE,26.37422,50.17864,"300,683,886,900,003","2,050,235,634",,2025-02-24,0,,0,500.0000000,ACTIVE,Missing Documents,Potential,Required,,,,,,,,,Zone,,
,,,DAM003,,,CS019362,موسسة محمد سعد,,,,,,,1,THU,26.07308,49.29518,"300,980,878,500,003","2,050,124,041",,2025-02-24,0,,0,500.0000000,ACTIVE,Missing Documents,Potential,Required,,,,,,,,,Zone,,
,,,DAM003,,,CS019363,تموينات الجزيره  المطورة,,,,,,,1,THU,25.97632,48.86724,"311,334,020,800,003","2,056,102,449",,2025-02-24,0,,0,500.0000000,ACTIVE,Missing Documents,Potential,Required,,,,,,,,,Zone,,
,,,DAM003,,,CS019374,شركة مونة هجر التجارية,,,,,,,2,MON,26.35102,50.09333,"311,308,195,900,003","2,252,039,408",,2025-02-24,0,,0,500.0000000,ACTIVE,Missing Documents,Potential,Required,,,,,,,,,Zone,,
,,,DAM003,,,CS019376,أسواق مكان الجميع التجارية,,,,,,,2,SAT,26.29601,50.03489,"311,876,598,800,003","2,031,102,317",,2025-02-24,0,,0,500.0000000,ACTIVE,Missing Documents,Potential,Required,,,,,,,,,Zone,,
,,,DAM003,,,CS019416,تموينات وضحى ناصر عبداللة,,,,,,,1,THU,26.01575,49.14325,"310,208,307,600,003","2,052,102,312",,2025-02-24,0,,0,500.0000000,ACTIVE,Missing Documents,Potential,Required,,,,,,,,,Zone,,
,,,DAM003,,,CS019430,تموينات اطلاله الوادى,,,,,,,2,SAT,26.33849,50.04022,"311,253,104,500,003","2,050,150,177",,2025-02-24,0,,0,500.0000000,ACTIVE,Missing Documents,Potential,Required,,,,,,,,,Zone,,
,,,DAM003,,,CS019434,موسسة عارف بن احمد بن حبيب,,,,,,,1,TUE,26.37004,50.02723,"310,348,568,400,003","7,038,391,111",,2025-02-24,0,,0,500.0000000,ACTIVE,Missing Documents,Potential,Required,,,,,,,,,Zone,,
,,,DAM003,,,CS019511,سله الخير 3,,,,,,,1,TUE,26.36712,50.03376,"311,412,426,900,003","2,050,235,576",,2025-02-24,0,,0,500.0000000,ACTIVE,Missing Documents,Potential,Required,,,,,,,,,Zone,,
,,,DAM003,,,CS019512,شاطى الشرقيه,,,,,,,1,TUE,26.36351,50.02915,"310,054,342,700,003","450,213,171,447",,2025-02-24,0,,0,500.0000000,ACTIVE,Missing Documents,Potential,Required,,,,,,,,,Zone,,
,,,DAM003,,,CS019527,سله رابيه,,,,,,,1,MON,26.37624,50.04643,"300,709,794,800,003","440,310,761,601",,2025-02-24,0,,0,500.0000000,ACTIVE,Missing Documents,Potential,Required,,,,,,,,,Zone,,
,,,DAM003,,,CS019528,تموينات انوار الزعد للمواد الغذائية,,,,,,,1,TUE,26.36058,50.03193,"310,250,816,400,003","440,911,997,884",,2025-02-24,0,,0,500.0000000,ACTIVE,Missing Documents,Potential,Required,,,,,,,,,Zone,,
,,,DAM003,,,CS019530,تاليا العرب,,,,,,,2,SAT,26.34222,50.03760,"311,642,241,900,003","450,814,773,970",,2025-02-24,0,,0,500.0000000,ACTIVE,Missing Documents,Potential,Required,,,,,,,,,Zone,,
,,,DAM003,,,CS019569,اسواق استعلاكية  الدوحة المركزية,,,,,,,2,THU,26.31278,50.15706,"310,208,307,600,003","2,052,104,493",,2025-02-24,0,,0,500.0000000,ACTIVE,Missing Documents,Potential,Required,,,,,,,,,Zone,,
,,,DAM003,,,CS019570,تموينات آراك الوطنيه,,,,,,,1,WED,26.35183,49.99487,"302,215,824,100,003","2,050,100,354",,2025-02-24,0,,0,500.0000000,ACTIVE,Missing Documents,Potential,Required,,,,,,,,,Zone,,
,,,DAM003,,,CS019575,شركه بسمي للتجاره ٢,,,,,,,2,SUN,26.35349,50.07167,"311,326,472,700,003","7,038,612,094",,2025-02-24,0,,0,500.0000000,ACTIVE,Missing Documents,Potential,Required,,,,,,,,,Zone,,
,,,DAM003,,,CS019576,بقالة عموري للمواد الغذائيه,,,,,,,1,TUE,26.37148,50.03345,"311,079,475,900,003","2,050,172,278",,2025-02-24,0,,0,500.0000000,ACTIVE,Missing Documents,Potential,Required,,,,,,,,,Zone,,
,,,DAM003,,,CS019579,تموينات هلا الشعله,,,,,,,2,MON,26.36124,50.08035,"310,756,560,100,003","2,251,504,807",,2025-02-24,0,,0,500.0000000,ACTIVE,Missing Documents,Potential,Required,,,,,,,,,Zone,,
,,,DAM003,,,CS019582,شركة نرجس الغذائيه 8,,,,,,,1,MON,26.37899,50.04936,"311,305,925,800,003","2,055,125,194",,2025-02-24,0,,0,500.0000000,ACTIVE,Missing Documents,Potential,Required,,,,,,,,,Zone,,
,,,DAM003,,,CS019584,تموينات عنان البركات للمواد الغذائية,,,,,,,1,MON,26.37518,50.04466,"310,269,419,200,003","2,050,172,296",,2025-02-24,0,,0,500.0000000,ACTIVE,Missing Documents,Potential,Required,,,,,,,,,Zone,,
,,,DAM003,,,CS019588,تموينات أمجاد الحزم للمواد الغذائية,,,,,,,1,WED,26.36691,49.96039,"311,490,654,500,003","2,050,174,407",,2025-02-24,0,,0,500.0000000,ACTIVE,Missing Documents,Potential,Required,,,,,,,,,Zone,,
,,,DAM003,,,CS019593,تموينات سدرة الواحه للمواد الغذائية,,,,,,,2,SUN,26.36636,50.06126,"310,822,499,300,003","2,050,174,286",,2025-02-24,0,,0,500.0000000,ACTIVE,Missing Documents,Potential,Required,,,,,,,,,Zone,,
,,,DAM003,,,CS019594,بقالة الوان سبأ التجاريه,,,,,,,2,SUN,26.36598,50.06134,"300,435,263,800,003","2,050,182,745",,2025-02-24,0,,0,500.0000000,ACTIVE,Missing Documents,Potential,Required,,,,,,,,,Zone,,
,,,DAM003,,,CS019596,تموينات عايشة المتميزة للتجارة,,,,,,,1,TUE,26.37275,50.03175,"310,228,285,100,003","2,050,184,928",,2025-02-24,0,,0,500.0000000,ACTIVE,Missing Documents,Potential,Required,,,,,,,,,Zone,,
,,,DAM003,,,CS019599,شركة بسمي للتجارة 8,,,,,,,2,SUN,26.34316,50.07871,"311,326,472,700,003","7,013,215,087",,2025-02-24,0,,0,500.0000000,ACTIVE,Missing Documents,Potential,Required,,,,,,,,,Zone,,
,,,DAM003,,,CS019608,ماركت خالد الشهرى2,,,,,,,1,THU,26.18823,49.48302,"300,401,585,100,003","2,050,063,440",,2025-02-24,0,,0,500.0000000,ACTIVE,Missing Documents,Potential,Required,,,,,,,,,Zone,,
,,,DAM003,,,CS019610,تموينات اطيب المشتريات 2,,,,,,,1,SUN,26.40136,50.10502,"310,177,427,300,003","7,029,104,622",,2025-02-24,0,,0,500.0000000,ACTIVE,Missing Documents,Potential,Required,,,,,,,,,Zone,,
,,,DAM003,,,CS019611,تموينات مواسم رحيمة,,,,,,,1,SUN,26.40857,50.07157,"300,763,763,600,003","7,004,452,202",,2025-02-24,0,,0,500.0000000,ACTIVE,Missing Documents,Potential,Required,,,,,,,,,Zone,,
,,,DAM003,,,CS019616,ريما ماركت 5,,,,,,,1,SAT,26.43099,50.13300,"310,264,009,900,003","7,003,923,187",,2025-02-24,0,,0,500.0000000,ACTIVE,Missing Documents,Potential,Required,,,,,,,,,Zone,,
,,,DAM003,,,CS019618,شركة نرجس الغذائية 11,,,,,,,2,TUE,26.37888,50.19644,"311,305,925,800,003","7,061,211,174",,2025-02-24,0,,0,500.0000000,ACTIVE,Missing Documents,Potential,Required,,,,,,,,,Zone,,
,,,DAM003,,,CS019624,شركة درع النخبه المحدوده 2,,,,,,,2,SAT,26.35456,50.04832,"311,622,731,100,003","2,050,169,909",,2025-02-24,0,,0,500.0000000,ACTIVE,Missing Documents,Potential,Required,,,,,,,,,Zone,,
,,,DAM003,,,CS019625,قمة عزم,,,,,,,2,TUE,26.37424,50.17875,"311,868,514,300,003","2,050,235,634",,2025-02-24,0,,0,500.0000000,ACTIVE,Missing Documents,Potential,Required,,,,,,,,,Zone,,
,,,DAM003,,,CS019626,شركة نرجس الغذائية 15,,,,,,,2,TUE,26.41515,50.17021,"311,305,925,800,003","2,055,007,200",,2025-02-24,0,,0,500.0000000,ACTIVE,Missing Documents,Potential,Required,,,,,,,,,Zone,,
,,,DAM003,,,CS019631,أسواق كيان العائله المركزية,,,,,,,1,TUE,26.37002,50.02736,"310,348,568,400,003","2,050,182,707",,2025-02-24,0,,0,500.0000000,ACTIVE,Missing Documents,Potential,Required,,,,,,,,,Zone,,
,,,DAM003,,,CS019639,مؤسسة صقر سالم الصيعري,,,,,,,1,WED,26.13419,49.88899,"302,172,672,900,003","1,010,512,421",,2025-02-24,0,,0,500.0000000,ACTIVE,Missing Documents,Potential,Required,,,,,,,,,Zone,,
,,,DAM003,,,CS019640,شركة مكان الجميع 4,,,,,,,2,SAT,26.35813,50.04466,"311,876,598,800,003","2,050,128,851",,2025-02-24,0,,0,500.0000000,ACTIVE,Missing Documents,Potential,Required,,,,,,,,,Zone,,
,,,DAM003,,,CS019642,مؤسسة مابعد الخامسه التجارية,,,,,,,1,WED,26.24103,49.97436,"310,451,281,500,003","2,050,156,914",,2025-02-24,0,,0,500.0000000,ACTIVE,Missing Documents,Potential,Required,,,,,,,,,Zone,,
,,,DAM003,,,CS019663,حصاد و زاد,,,,,,,1,SUN,26.39680,50.09031,"311,561,929,800,003","2,050,175,472",,2025-02-24,0,,0,500.0000000,ACTIVE,Missing Documents,Potential,Required,,,,,,,,,Zone,,
,,,DAM003,,,CS019674,تموينات الزاد المفضل للمواد الغذائيه,,,,,,,2,TUE,26.36079,50.19150,"312,378,401,100,003","2,051,257,183",,2025-02-24,0,,0,500.0000000,ACTIVE,Missing Documents,Potential,Required,,,,,,,,,Zone,,
,,,DAM003,,,CS019677,مونة هجر 2,,,,,,,2,SUN,26.35895,50.06693,"311,308,195,900,003","7,040,630,951",,2025-02-24,0,,0,500.0000000,ACTIVE,Missing Documents,Potential,Required,,,,,,,,,Zone,,
,,,DAM003,,,CS019678,تموينات الواحة الجميلة,,,,,,,2,MON,26.37613,50.10207,"312,399,047,200,003","2,050,179,553",,2025-02-24,0,,0,500.0000000,ACTIVE,Missing Documents,Potential,Required,,,,,,,,,Zone,,
,,,DAM003,,,CS019683,مؤسسة ساهر النون للمواد الغذائية,,,,,,,1,THU,25.97423,48.86916,"311,410,757,300,003","2,257,108,329",,2025-02-24,0,,0,500.0000000,ACTIVE,Missing Documents,Potential,Required,,,,,,,,,Zone,,
,,,DAM003,,,CS019689,تموينات نجوم السعاده,,,,,,,1,WED,26.35690,49.96180,"311,146,429,600,003","2,053,124,733",,2025-02-24,0,,0,500.0000000,ACTIVE,Missing Documents,Potential,Required,,,,,,,,,Zone,,
,,,DAM003,,,CS019692,تموينات عبدالله بدر علي الزوري,,,,,,,1,TUE,26.36297,50.03590,"300,418,066,400,003","7,036,320,070",,2025-02-24,0,,0,500.0000000,ACTIVE,Missing Documents,Potential,Required,,,,,,,,,Zone,,
