Area,Region,City,Zone,AgentId,AgentName,CusId,CusName,BuyerPhone,ReceiverPhone,FinancePhone,CH,SubChannel,F,StartWeeks,Days,Latitude,Longitude,VAT,CR,BL,createdDate,TotalDeliveredOrders,PaymentType,CreditDays,CreditLimit,Status,Validation,CreationType,CheckIn,CRExpiryDate,BLExpiryDate,StreetName,DistrictName,AdditionalNum,ZipCode,BuildingNumber,DC,AssignmentType,Geocode Quality,Full Corrected Address
Jizan,South,الوسقة,JIZ002,,,CS001860,تموينات غاية الجديدة,"535,334,957",,,Traditional Trade,Medium Grocery,,1,SUN,19.98170,40.57552,"311,208,386,700,003","4,601,103,489","441,112,466,582",2023-09-23,9,Credit,30,1500.0000000,ACTIVE,Approved by Finance,Agent Registration,Required,2025-02-06,2024-07-18,طريق مكة,الوسقة,2322,28493,7415,JIZAN,Zone,,
Jizan,South,الليث,JIZ002,,,CS001862,تموينات غايه للمواد الغذائية,"530,720,529",,,Traditional Trade,Medium Grocery,,1,SUN,19.98439,40.57281,"311,090,078,200,003","4,601,102,480","41,103,586,876",2024-09-15,14,Credit,0,0.0000000,ACTIVE,Approved by Finance,Agent Registration,Required,2025-06-28,2026-07-05,الوسقة,الليث,0,28425,0,JIZAN,Zone,,
Jizan,South,المظيلف,JIZ002,,,CS001866,تموينات البرج للمواد الغذائية,"508,396,400",,,Traditional Trade,Medium Grocery,,1,SUN,19.68483,40.91593,"301,104,361,600,003","7,012,236,977","3,909,414,319",2024-09-15,8,Credit,0,763.1400000,ACTIVE,Approved by Finance,Agent Registration,Required,2026-07-01,2025-05-30,شارع عام,عسيله,27858,28778,2717,JIZAN,Zone,,
Jizan,South,الرياض,JIZ002,,,CS001867,اسواق العمري,"535,062,281",,,Traditional Trade,Medium Grocery,,1,SUN,19.56051,41.01850,"311,015,208,200,003","1,010,799,098","440,711,409,353",2024-09-15,7,Credit,30,500.0000000,ACTIVE,Approved by Finance,Agent Registration,NOT Required,2026-04-16,2025-07-09,المظليف,القنفذة,8006,14548,5767,JIZAN,Zone,,
Jizan,South,مكة المكرمة,JIZ002,,,CS001869,تموينات المدينة,"570,828,350",,,Traditional Trade,Medium Grocery,,1,SUN,19.41668,41.05730,"310,436,159,400,003","4,031,249,672","440,410,983,145",2024-10-17,3,Credit,0,500.0000000,ACTIVE,Approved by Finance,Agent Registration,Required,2025-03-24,2025-10-19,شارع,القضب,2851,24243,7843,JIZAN,Zone,,
Jizan,South,القنفذة,JIZ002,,,CS001872,تموينات جوهرة البرج للمواد الغذائية,"538,548,895",,,Traditional Trade,Medium Grocery,,1,TUE,19.11815,41.10297,"310,253,445,500,003","4,603,158,637","450,112,939,209",2024-09-15,15,Credit,9,1469.3000000,ACTIVE,Approved by Finance,Agent Registration,Required,2027-05-05,2025-07-24,طريق ابراهيم الخليل عليه السلام,البرج,1,28822,1,JIZAN,Zone,,
Jizan,South,القنفذة,JIZ002,,,CS001874,اريا مارت (القنفذة),"553,395,780",,,Traditional Trade,Large Grocery,,1,TUE,19.14941,41.08574,"311,136,444,800,003","4,603,150,266","41,052,687,161",2023-09-24,9,Credit,0,1303.5900000,ACTIVE,Approved by Finance,Agent Registration,Required,2025-01-15,2024-11-26,شارع,خارج حدود الأحياء,6776,28821,4422,JIZAN,Zone,,
Jizan,South,القنفذة,JIZ002,,,CS001877,مركز الكورنيش,"508,103,008",,,,,,1,TUE,19.12522,41.08331,"311,323,189,800,003","4,603,008,607","3,909,343,876",2024-09-15,8,Credit,3,1221.3400000,ACTIVE,Approved by Finance,Agent Registration,Required,2024-11-27,2025-04-17,عبدالله بن جحش,الشرقية,0,00000,0,JIZAN,Zone,,
Jizan,South,القنفذة,JIZ002,,,CS001879,سوبر ماركت اغادير,"553,154,208",,,,,,1,SUN,19.64191,40.95437,"311,065,052,400,003","4,603,150,097","3,909,415,249",2024-09-15,4,,0,500.0000000,ACTIVE,Approved by Finance,Agent Registration,Required,2025-08-25,2025-05-17,الطريق العام,القنفذة,0,28821,0,JIZAN,Zone,,
Jizan,South,الليث,JIZ002,,,CS002010,تموينات عفة العربيه التجاريه,"552,638,934",,,Traditional Trade,Medium Grocery,,1,SUN,19.96981,40.59897,"311,305,523,800,003","4,601,101,987","3,909,607,180",2024-09-15,5,Credit,0,500.0000000,ACTIVE,Approved by Finance,Agent Registration,Required,2025-03-27,2024-07-12,الشواق,الليث,0,28425,0,JIZAN,Zone,,
Jizan,South,القنفذة,JIZ002,,,CS002016,تموينات عشم للمواد الغذائيه,"530,896,902",,,,,,1,SUN,19.54471,41.03663,"310,161,467,700,003","4,603,153,584","42,126,002,974",2024-09-15,1,,0,500.0000000,ACTIVE,Approved by Finance,Agent Registration,Required,2026-05-06,2026-06-22,المظيلف,القنفذة,0,28777,0,JIZAN,Zone,,
Jizan,South,القنفذة,JIZ002,,,CS002022,اسواق الكنوز الكبري للمواد الغذائيه,"552,531,618",,,Traditional Trade,Medium Grocery,,1,TUE,19.13265,41.08274,"312,617,744,300,003","4,603,149,930","3,909,344,543",2024-09-15,10,Credit,30,759.4200000,ACTIVE,Approved by Finance,Agent Registration,Required,2025-09-09,2025-04-09,الملك عبدالعزيز,الشرقية,8263,28822,3597,JIZAN,Zone,,
Jizan,South,القنفذة,JIZ002,,,CS002027,تموينات جمعان عبدالله بن علي الزهراني للمواد الغذائية,"531,352,833",,,Traditional Trade,Medium Grocery,,1,TUE,19.13025,41.09109,"310,161,467,700,003","7,017,730,172","41,032,609,706",2024-09-15,9,Credit,15,564.7600000,ACTIVE,Approved by Finance,Agent Registration,Required,2025-06-01,2025-09-12,شارع عام,الشرقية,0,28822,0,JIZAN,Zone,,
Jizan,South,حلي,JIZ002,,,CS002042,تموينات المملكة (حلي),"508,163,170",,,Traditional Trade,Large Grocery,,1,THU,18.76705,41.38909,"311,419,874,900,003","4,603,148,399","3,909,612,888",2023-10-02,5,Credit,0,500.0000000,ACTIVE,Approved by Finance,Agent Registration,Required,2025-05-21,2026-05-05,الطريق العام,الحوش,0,0,0,JIZAN,Zone,,
Jizan,South,القنفذة,JIZ002,,,CS002070,شركة ديوان الاسره للمواد الغذائيه,"550,541,752",,,,,,1,SUN,19.64649,40.95808,"311,550,995,900,003","4,603,158,014","440,611,375,237",2024-09-15,10,Credit,14,927.7300000,ACTIVE,Approved by Finance,Agent Registration,Required,2024-12-23,2026-01-02,المظيلف 877,القنفذة,0,28777,0,JIZAN,Zone,,
Jizan,South,القوز,JIZ002,,,CS002080,أسواق القوز الجديد للمواد الغذائية,"546,009,399",,,Traditional Trade,Medium Grocery,,1,TUE,18.97636,41.30444,"310,425,886,600,003","4,603,160,681","3,909,608,401",2024-09-15,8,Credit,0,528.5400000,ACTIVE,Approved by Finance,Agent Registration,Required,2025-03-22,2026-09-19,الربعي,القوز,0,28849,0,JIZAN,Zone,,
Jizan,South,القوز,JIZ002,,,CS002084,مستودع الجمعيه التعاونيه (القوز),"502,633,925",,,Traditional Trade,Large Grocery,,1,TUE,18.97577,41.32234,"300,284,899,800,003","4,603,008,658","40,052,018,684",2023-10-05,0,,0,0.0000000,In-Active,Approved by Finance,Agent Registration,Required,,,شارع عام,القوز,0,0,0,JIZAN,Zone,,
Jizan,South,القوز,JIZ002,,,CS002086,تموينات امل للمواد الغذائية,"562,589,113",,,Traditional Trade,Medium Grocery,,1,TUE,18.98386,41.31664,"310,493,277,600,003","4,031,229,731","43,047,960,290",2023-10-05,1,,0,0.0000000,In-Active,Approved by Finance,Agent Registration,Required,2025-05-24,2024-10-22,عبدالله بن مكتوم,القوز,0,0,0,JIZAN,Zone,,
Jizan,South,مكة المكرمة,JIZ002,,,CS002100,سوبرماركت الهرم,"532,701,958",,,Traditional Trade,Medium Grocery,,1,SUN,19.54193,41.04306,"310,436,159,400,003","4,031,249,672","3,909,414,741",2024-09-15,4,Credit,14,500.0000000,ACTIVE,Approved by Finance,Agent Registration,Required,2025-03-24,2024-07-24,المظيف,المسفلة,2851,24243,7843,JIZAN,Zone,,
Jizan,South,المظيلف,JIZ002,,,CS002321,شركه جرين للمواد الغذائيه,"564,065,047",,,Traditional Trade,Medium Grocery,,1,SUN,19.53984,41.04303,"310,631,458,200,003","4,603,102,577","3,909,415,174",2024-09-15,1,Credit,30,810.2800000,ACTIVE,Approved by Finance,Agent Registration,Required,2025-12-24,2025-10-24,الطريق العام,المظيلف,1,21912,1,JIZAN,Zone,,
Jizan,South,القنفذة,JIZ002,,,CS002330,شركه جرين للمواد الغذائيه,"505,403,809",,,Traditional Trade,Large Grocery,,1,TUE,18.97269,41.32124,"310,631,458,200,003","4,603,102,577","43,119,944,986",2024-09-15,1,Credit,0,500.0000000,ACTIVE,Approved by Finance,Agent Registration,Required,2025-12-25,2024-06-07,الشارقة,القوز,3636,28822,8535,JIZAN,Zone,,
Jizan,South,الساحل,JIZ002,,,CS002332,شركة شرق المدينه (القحمة),"553,576,957",,,Traditional Trade,Large Grocery,,1,THU,18.00365,41.67935,"311,417,862,600,003","5,867,100,153","440,811,838,010",2023-11-07,1,,0,0.0000000,In-Active,Approved by Finance,Agent Registration,Required,,,شارع الامير محمد بن سلمان,القحمه,0,0,0,JIZAN,Zone,,
Jizan,South,القوز,JIZ002,,,CS002402,تموينات لارين الكبري (القوز),"501,763,532",,,Traditional Trade,Large Grocery,,1,TUE,18.97081,41.31103,"305,003,746,000,003","4,603,151,155","7,017,347,415",2023-11-11,1,,0,0.0000000,In-Active,Approved by Finance,Agent Registration,Required,2025-05-05,2025-05-18,شارع,القوز,0,0,0,JIZAN,Zone,,
Jizan,South,الباحة,JIZ002,,,CS003076,تموينات مرحبا هنا للمواد الغذائيه,"501,298,436",,,Traditional Trade,Medium Grocery,,1,SAT,19.78162,41.43811,"312,429,671,300,003","5,806,102,418","441,012,023,660",2024-09-15,3,Credit,0,500.0000000,ACTIVE,Approved by Finance,Agent Registration,Required,2025-04-25,2026-03-20,شارع,المخواه,0,65614,0,JIZAN,Zone,,
Jizan,South,الرياض,JIZ002,,,CS003077,اسواق ام القري للمواد الغذائيه,"567,526,586",,,Traditional Trade,Medium Grocery,,1,SAT,19.78923,41.43762,"310,859,356,700,003","5,806,101,389","41,083,526,262",2024-09-15,4,Credit,15,686.4700000,ACTIVE,Approved by Finance,Agent Registration,Required,2024-12-14,2025-02-26,شارع,العقيق,2066,65614,7262,JIZAN,Zone,,
Jizan,South,المخواه,JIZ002,,,CS003078,متاجر الاكتفاء للتسوق,"559,032,131",,,Traditional Trade,Medium Grocery,,1,MON,19.74190,41.43462,"311,116,394,800,003","5,806,100,298","40,112,497,846",2024-09-15,2,Credit,20,2558.2900000,ACTIVE,Approved by Finance,Agent Registration,Required,2025-11-06,2025-04-22,طريق الملك فهد,مخوا,2928,65441,8609,JIZAN,Zone,,
Jizan,South,الباحة,JIZ002,,,CS003079,تموينات سما الغربية,"557,292,069",,,Traditional Trade,Small Grocery,,1,MON,19.74655,41.43688,"311,854,613,400,003","4,603,007,164","41,083,503,365",2024-01-21,1,,0,0.0000000,In-Active,Approved by Finance,Agent Registration,Required,,,طريق الملك فهد,المنتزه,8176,23454,2728,JIZAN,Zone,,
Jizan,South,المخواه,JIZ002,,,CS003081,شركه متاجر الجزيره التجاريه,"559,222,320",,,Traditional Trade,Medium Grocery,,1,SAT,19.77996,41.43760,"311,323,263,900,003","5,800,109,818","40,082,098,885",2024-09-15,1,Credit,0,500.0000000,ACTIVE,Approved by Finance,Agent Registration,Required,2024-03-04,2027-02-07,شارع,المحمدية,5849,65311,7484,JIZAN,Zone,,
Jizan,South,المخواة,JIZ002,,,CS003085,تموينات القفيل للمواد الغذائية,"560,681,307",,,Traditional Trade,Medium Grocery,,1,SAT,19.79850,41.42584,"311,303,296,600,003","5,806,101,914","431,110,104,815",2024-09-15,0,,0,500.0000000,ACTIVE,Approved by Finance,Agent Registration,Required,2025-05-06,2025-08-03,شارع,السوق القديم,7206,65553,3256,JIZAN,Zone,,
Jizan,South,الباحة,JIZ002,,,CS003086,تموينات افاق الريان,"552,945,848",,,Traditional Trade,Small Grocery,,1,SAT,19.78426,41.43541,"311,360,585,700,003","5,806,100,289","41,063,373,918",2024-01-22,0,,0,0.0000000,In-Active,Approved by Finance,Agent Registration,Required,,,شارع,المضحاه 3,7074,65553,3486,JIZAN,Zone,,
Jizan,South,الباحة,JIZ002,,,CS003108,تموينات قمم الرونة للمواد الغذائية,"557,025,556",,,Traditional Trade,Medium Grocery,,1,SAT,19.82110,41.44180,"300,631,562,900,003","5,806,102,181","441,212,547,105",2024-01-23,0,,0,0.0000000,In-Active,Approved by Finance,Agent Registration,Required,,,العام,الرونة,6769,65614,2266,JIZAN,Zone,,
Jizan,South,محايل عسير,JIZ002,,,CS003118,المسارات الرائعة,"558,132,090",,,Traditional Trade,Medium Grocery,,1,THU,18.64874,41.38907,"302,189,287,900,003","5,850,137,574","450,413,670,799",2024-09-15,7,Credit,0,500.0000000,ACTIVE,Approved by Finance,Agent Registration,Required,2025-02-23,2024-10-19,سعيدة الصوالحة,البصرة,0,63311,0,JIZAN,Zone,,
Jizan,South,القنفذة,JIZ002,,,CS003142,مستودع الشهابي (القنفذه),"501,228,330",,,Traditional Trade,Large Grocery,,1,SUN,19.68516,40.91501,"310,061,732,600,003","4,603,003,999","3,909,414,313",2024-02-03,1,,0,0.0000000,In-Active,Approved by Finance,Agent Registration,Required,2025-07-16,2025-12-27,الطريق العام,القنفذة,0,0,0,JIZAN,Zone,,
Jizan,South,الشواق,JIZ002,,,CS003306,مخابز زاد مارت,"501,391,984",,,Traditional Trade,Medium Grocery,,1,SUN,19.91896,40.73839,"310,137,083,300,003","4,601,101,164","450,815,024,996",2025-01-19,2,,0,500.0000000,ACTIVE,Approved by Finance,Agent Registration,Required,2025-09-14,2026-03-05,شارع,الوسقة,0,28494,0,JIZAN,Zone,,
Jizan,South,القنفذة,JIZ002,,,CS003670,بقاله سليمان راجح,"504,614,144",,,Traditional Trade,Small Grocery,,1,TUE,19.11423,41.14204,"312,362,228,200,003","4,603,161,284","460,116,336,000",2024-09-11,0,Credit,0,0.0000000,In-Active,Approved by Finance,Agent Registration,Required,2025-06-26,2025-07-13,العام,القنفذة,0,٢٨٨٤٨,٦٣٢١,JIZAN,Zone,,
Jizan,South,جدة,JIZ002,,,CS003672,تموينات سماء الثريا (سيتي ماركت),"509,302,378",,,Traditional Trade,Large Grocery,,1,TUE,18.98314,41.31700,"310,960,165,900,003","4,030,264,006","43,016,080,948",2024-09-15,2,Credit,0,500.0000000,ACTIVE,Approved by Finance,Agent Registration,Required,2027-06-05,2025-07-16,شارع,القوز,8032,23234,3995,JIZAN,Zone,,
Jizan,South,القوز,JIZ002,,,CS003674,سوبر ماركت الناشري,"583,396,421",,,Traditional Trade,Medium Grocery,,1,TUE,18.94181,41.32312,"302,106,235,200,003","4,603,151,374","3,909,602,368",2024-09-15,3,Credit,0,603.5000000,ACTIVE,Approved by Finance,Agent Registration,Required,2025-06-15,2026-06-13,شارع,القوز,3618,28849,6291,JIZAN,Zone,,
Jizan,South,حلي,JIZ002,,,CS003676,متاجر يارا,"553,605,968",,,Traditional Trade,Small Grocery,,1,THU,18.76335,41.39191,"310,888,150,900,003","4,603,005,009","3,909,613,793",2024-09-11,0,Credit,0,0.0000000,ACTIVE,Approved by Finance,Agent Registration,Required,2025-02-07,2029-05-27,العام,الحوش,0,٢٨٩٣٩,٥٩٢١,JIZAN,Zone,,
Jizan,South,محايل عسير,JIZ002,,,CS003678,تموينات شركة أضوا القمر للمواد الغذائية,"593,413,584",,,Traditional Trade,Medium Grocery,,1,THU,18.65261,41.38681,"311,536,361,300,003","5,860,611,751","450,112,813,859",2023-11-07,7,,0,500.0000000,ACTIVE,Approved by Finance,Agent Registration,Required,2025-08-22,2025-08-20,سعيده الصوالحه,صعبان,0,0,0,JIZAN,Zone,,
Jizan,South,حلي,JIZ002,,,CS003679,تموينات روز حلي للمواد الغذائيه,"551,650,974",,,Traditional Trade,Small Grocery,,1,THU,18.76494,41.39155,"310,629,148,900,003","4,031,228,263","440,110,419,308",2024-09-15,12,Credit,0,500.0000000,ACTIVE,Approved by Finance,Agent Registration,Required,2025-04-22,2025-07-22,طريق ابراهيم الخليل,الحوش,0,28953,0,JIZAN,Zone,,
Jizan,South,جدة,JIZ002,,,CS003680,اسواق ميزو,"555,846,813",,,Traditional Trade,Large Grocery,,1,TUE,18.94815,41.32374,"311,335,131,500,003","4,030,571,196","450,614,271,171",2024-09-15,5,Credit,13,507.4400000,ACTIVE,Approved by Finance,Agent Registration,Required,2025-04-20,2025-01-03,شارع,القوز,7737,22354,4100,JIZAN,Zone,,
Jizan,South,القوز,JIZ002,,,CS003681,تموينات مدني محمد احمد العسيري,"502,387,120",,,Traditional Trade,Medium Grocery,,1,TUE,18.99283,41.30313,"300,567,484,200,003","4,603,150,316","3,909,608,803",2024-09-15,7,Credit,30,500.0000000,ACTIVE,Approved by Finance,Agent Registration,Required,2024-11-18,2025-02-21,شارع,القوز,1,28821,1,JIZAN,Zone,,
Jizan,South,القنفذة,JIZ002,,,CS003682,بقاله احسان الشرقيه للموا د الغذائيه,"552,577,328",,,Traditional Trade,Medium Grocery,,1,TUE,19.13067,41.08426,"302,057,014,200,003","4,603,145,006","450,513,830,134",2024-09-15,1,Credit,30,1161.8900000,ACTIVE,Approved by Finance,Agent Registration,Required,2025-07-17,2024-12-06,عبدالله بن عبدالله,القنفذة,0,28822,0,JIZAN,Zone,,
Jizan,South,القنفذة,JIZ002,,,CS003684,سوبر ماركت العدل,"537,293,859",,,Traditional Trade,Medium Grocery,,1,THU,18.60154,41.41802,"300,901,063,600,003","4,603,150,992","41,052,645,961",2024-09-15,7,Credit,0,500.0000000,ACTIVE,Approved by Finance,Agent Registration,Required,2025-03-15,2025-02-18,سعيده الصوالحه,القنفذة,0,28822,0,JIZAN,Zone,,
Jizan,South,عسير,JIZ002,,,CS003688,سوبر ماركت و مخبز الوطن,"557,996,211",,,Traditional Trade,Medium Grocery,,1,THU,18.00419,41.67871,"311,418,169,800,003","5,850,146,868","3,909,421,464",2024-09-15,2,Credit,0,500.0000000,ACTIVE,Approved by Finance,Agent Registration,Required,2024-11-17,2025-01-30,القحمة,القري,0,63251,0,JIZAN,Zone,,
Jizan,South,محايل,JIZ002,,,CS003689,تموينات شهد الساحل للمواد الغذائية,"559,418,693",,,Traditional Trade,Medium Grocery,,1,THU,17.99724,41.67757,"311,894,114,900,003","5,860,619,426","440,711,444,662",2024-09-15,5,Credit,0,780.0600000,ACTIVE,Approved by Finance,Agent Registration,Required,2025-12-07,2025-01-07,العال,القري,7719,63311,3730,JIZAN,Zone,,
Jizan,South,عسير,JIZ002,,,CS003690,سهم الوطن المتميزه التجارية,"502,621,643",,,Traditional Trade,Medium Grocery,,1,THU,18.00654,41.67945,"311,418,169,800,003","5,850,146,868","450,714,642,722",2024-09-15,6,Credit,0,655.3400000,ACTIVE,Approved by Finance,Agent Registration,Required,2024-11-17,2025-04-19,القحمة,الامواه,0,63254,0,JIZAN,Zone,,
Jizan,South,عمق,JIZ002,,,CS003691,تموينات الجوهره للمواد الغذائية,"557,352,414",,,Traditional Trade,Small Grocery,,1,THU,18.01012,41.67920,"301,256,877,200,003","5,850,102,997","440,310,713,580",2024-09-12,0,Credit,0,0.0000000,In-Active,Approved by Finance,Agent Registration,Required,2026-06-22,2025-09-05,العام,عمق,0,٦٣٧١١,٣٢٣٧,JIZAN,Zone,,
Jizan,South,عسير,JIZ002,,,CS003692,تموينات يارا للمواد الغذائية,"537,116,505",,,Traditional Trade,Medium Grocery,,1,THU,18.21038,41.53283,"310,888,150,900,003","4,603,005,009","43,016,027,857",2024-09-15,6,Credit,0,1449.0000000,ACTIVE,Approved by Finance,Agent Registration,Required,2025-02-06,2025-06-28,حي الواحة,الكدره,0,00000,0,JIZAN,Zone,,
Jizan,South,محايل,JIZ002,,,CS003693,تموينات الطيار برك للمواد الغذائية,"534,364,273",,,Traditional Trade,Medium Grocery,,1,THU,18.21130,41.53342,"311,235,864,700,003","5,860,617,801","3,909,672,069",2024-09-15,2,Credit,0,500.0000000,ACTIVE,Approved by Finance,Agent Registration,Required,2025-02-27,2025-09-21,البرك,الجنادرية,3275,63711,6438,JIZAN,Zone,,
Jizan,South,عسير,JIZ002,,,CS003694,شركه الرايه المتحده للتجاره والانشاءات المحدودة,"500,553,269",,,Traditional Trade,Medium Grocery,,1,THU,18.21617,41.53397,"310,060,841,400,003","5,860,622,490","40,031,948,560",2024-09-15,7,Credit,0,500.0000000,ACTIVE,Approved by Finance,Agent Registration,NOT Required,2025-05-02,2025-02-08,الواحة,الكدره,0,00000,0,JIZAN,Zone,,
Jizan,South,المعقص,JIZ002,,,CS005138,تموينات المعقص للمواد الغذائية,"545,236,488",,,Traditional Trade,Medium Grocery,,1,MON,19.51432,41.67017,"310,948,540,100,003","4,603,153,446","43,016,065,322",2024-09-15,0,,0,500.0000000,ACTIVE,Approved by Finance,Potential,Required,2025-05-06,2026-07-09,شارع,مخوا,5454,65235,8288,JIZAN,Zone,,
Jizan,South,,JIZ002,,,CS005141,بقالة عايض عبدالله عايض القرني للمواد الغذائية,,,,,,,1,WED,19.28530,41.82070,"311,405,505,200,003","4,603,151,933",,2024-09-15,0,,0,500.0000000,ACTIVE,Missing Documents,Potential,Required,,,,,,,,JIZAN,Zone,,
Jizan,South,الدرب,JIZ002,,,CS005350,تموينات المستقبل للمواد الغذائية,"556,472,075",,,Traditional Trade,Medium Grocery,,1,THU,17.71135,42.07797,"310,193,518,900,003","5,903,506,427","450,513,847,589",2024-09-15,9,Credit,0,1021.7900000,ACTIVE,Approved by Finance,Potential,Required,2025-07-06,2026-10-23,شارع,مدينة الدرب,0,89955,0,JIZAN,Zone,,
Jizan,South,الدرب,JIZ002,,,CS005351,تموينات مزايا كارن للمواد الغذائية,"551,031,226",,,Traditional Trade,Small Grocery,,1,THU,17.72264,42.03885,"312,033,009,300,003","5,903,510,193","450,815,038,276",2024-09-15,11,Credit,0,500.0000000,ACTIVE,Approved by Finance,Potential,Required,2025-01-27,2025-02-28,هيجان,الزهور,0,89926,0,JIZAN,Zone,,
Jizan,South,الشقيق,JIZ002,,,CS005352,متاجر الخليج,"566,716,159",,,Traditional Trade,Medium Grocery,,1,THU,17.72738,42.02830,"310,044,411,900,003","5,903,500,286","390,994,716",2024-09-15,5,Credit,0,1496.3400000,ACTIVE,Approved by Finance,Potential,Required,2027-03-27,2027-03-27,حي الشقيق,الحارة الشمالية,16130,89961,2546,JIZAN,Zone,,
Jizan,South,الدرب,JIZ002,,,CS005353,مؤسسة موسي محمد مسعود التجارية 2,"544,205,498",,,Traditional Trade,Medium Grocery,,1,THU,17.72482,42.03207,"301,357,361,300,003","5,903,500,927","3,909,389,378",2024-09-15,3,Credit,0,500.0000000,ACTIVE,Approved by Finance,Potential,Required,2585-12-21,2025-12-18,الأمير محمد بن ناصر - حي الشقيق,مدينة جيزان,0,89919,0,JIZAN,Zone,,
Jizan,South,الدرب,JIZ002,,,CS005354,تموينات صفا كارن التجارية,"535,800,307",,,Traditional Trade,Medium Grocery,,1,THU,17.72346,42.03197,"311,980,339,600,003","5,903,510,065","390,994,470",2024-09-15,7,Credit,0,1192.6000000,ACTIVE,Approved by Finance,Potential,Required,2024-12-28,2025-10-05,طريق الأمير محمد بن ناصر - حي الشقيق,مدينة جيزان,0,89926,0,JIZAN,Zone,,
Jizan,South,,JIZ002,,,CS005355,شركه متاجر الحازمي التجاريه المحدوده 2,,,,,,,1,THU,17.71310,42.06873,"311,323,189,800,003","5,909,030,029",,2024-09-15,0,,0,500.0000000,ACTIVE,Missing Documents,Potential,Required,,,,,,,,JIZAN,Zone,,
Jizan,South,الدرب,JIZ002,,,CS005356,بقاله برق لتين للمواد الغذائيه,"536,919,529",,,Traditional Trade,Medium Grocery,,1,THU,17.77540,41.93506,"310,687,646,200,003","5,850,128,208","3,909,419,660",2024-09-15,8,Credit,0,658.1800000,ACTIVE,Approved by Finance,Potential,Required,2025-07-13,2025-02-03,حي الحريضة - أسامة بن زيد 2,المروج,0,63285,0,JIZAN,Zone,,
Jizan,South,جدة,JIZ002,,,CS005357,تموينات الحمدانية للمواد الغذائية,"568,538,952",,,Traditional Trade,Medium Grocery,,1,THU,17.77559,41.93466,"311,256,594,200,003","4,030,380,579","451,015,471,485",2024-09-15,4,Credit,17,500.0000000,ACTIVE,Approved by Finance,Potential,Required,2028-01-15,2025-04-17,حي الحريضة,الكدره,3307,23234,7347,JIZAN,Zone,,
Jizan,South,عسير,JIZ002,,,CS005358,اسواق صيدا الجديده,"547,762,961",,,Traditional Trade,Medium Grocery,,1,THU,17.77785,41.93270,"310,820,693,500,003","5,861,616,283","440,611,354,382",2024-09-15,5,Credit,0,500.0000000,ACTIVE,Approved by Finance,Potential,Required,2026-11-28,2024-12-24,شارع الامير محمد بن سلمان,الكدره,0,63285,0,JIZAN,Zone,,
Jizan,South,ابها,JIZ002,,,CS005359,ويل سفن,"538,347,944",,,Traditional Trade,Medium Grocery,,1,THU,17.79707,41.90940,"311,483,506,500,003","5,850,146,791","450,513,910,971",2024-09-15,4,Credit,0,500.0000000,ACTIVE,Approved by Finance,Potential,Required,2025-11-03,2028-10-02,الحريضة 536,الخالدية,0,62583,0,JIZAN,Zone,,
Jizan,South,القنفذة,JIZ002,,,CS005361,تموينات المسيل للمواد الغذائية,"530,425,612",,,Traditional Trade,Medium Grocery,,1,TUE,19.17280,41.08611,"310,286,688,500,003","4,603,147,988","3,909,324,565",2024-09-15,2,Credit,0,500.0000000,ACTIVE,Approved by Finance,Potential,Required,2025-04-04,2025-06-28,شارع,الغربية,8683,28822,3834,JIZAN,Zone,,
Jizan,South,,JIZ002,,,CS005363,تموينات تله السراة للمواد الغذائيه,,,,,,,1,TUE,19.13323,41.08140,"311,017,653,300,003","4,603,158,537",,2024-09-15,0,,0,500.0000000,ACTIVE,Missing Documents,Potential,Required,,,,,,,,JIZAN,Zone,,
Jizan,South,القنفذة,JIZ002,,,CS005364,تموينات ريان الساحل للمواد الغذائية,"505,288,162",,,Traditional Trade,Medium Grocery,,1,TUE,19.12748,41.08748,"311,808,583,900,003","4,603,159,386","3,909,344,807",2024-09-15,2,Credit,0,500.0000000,ACTIVE,Approved by Finance,Potential,Required,2025-09-13,2025-08-16,شارع,القنفذة,8747,28822,3685,JIZAN,Zone,,
Jizan,South,,JIZ002,,,CS005366,محمد ابراهيم بحني الزبيدي,,,,,,,1,TUE,19.14953,41.08309,"300,979,475,300,003","4,603,003,368",,2024-09-15,0,,0,500.0000000,ACTIVE,Missing Documents,Potential,Required,,,,,,,,JIZAN,Zone,,
Jizan,South,مخوا,JIZ002,,,CS005368,تموينات نقطة طازجة التجارية,"501,200,810",,,Traditional Trade,Medium Grocery,,1,MON,19.54650,41.14239,"312,179,276,400,003","5,800,111,480","451,115,924,358",2024-09-15,3,Credit,0,500.0000000,ACTIVE,Approved by Finance,Potential,Required,2025-04-22,2025-06-27,احمد بن جعفر الهاشمي,مخوا,0,65396,0,JIZAN,Zone,,
Jizan,South,,JIZ002,,,CS005369,مؤسسه الاسعار المناسبه لتجاره الجمله والتجزئه,,,,,,,1,TUE,19.11660,41.08207,"302,138,563,600,003","4,603,155,537",,2024-09-15,0,,0,500.0000000,ACTIVE,Missing Documents,Potential,Required,,,,,,,,JIZAN,Zone,,
Jizan,South,,JIZ002,,,CS005370,تموينات علي محمد بلقاسم الفقيه للمواد الغذائيه,,,,,,,1,TUE,18.96895,41.32237,"310,797,900,700,003","5,902,533,093",,2024-09-15,0,,0,500.0000000,ACTIVE,Missing Documents,Potential,Required,,,,,,,,JIZAN,Zone,,
Jizan,South,,JIZ002,,,CS005371,مؤسسة علي محمد بلقاسم الفقية,,,,,,,1,TUE,18.98807,41.31198,"301,107,784,300,003","4,603,146,873",,2024-09-15,0,,0,500.0000000,ACTIVE,Missing Documents,Potential,Required,,,,,,,,JIZAN,Zone,,
Jizan,South,القوز,JIZ002,,,CS005375,شركة ملتقى الغلا التجارية,"534,785,008",,,Traditional Trade,Medium Grocery,,1,TUE,18.94701,41.32213,"311,371,560,800,003","4,603,152,896","3,909,609,377",2024-09-15,2,Credit,0,500.0000000,ACTIVE,Approved by Finance,Potential,Required,2025-04-12,2025-03-17,شارع عام,القوز,1,28849,1,JIZAN,Zone,,
Jizan,South,,JIZ002,,,CS005376,شركة رغد العالم للتجارة 2,,,,,,,1,THU,18.76353,41.39186,"310,888,150,900,003","4,603,005,009",,2024-09-15,0,,0,500.0000000,ACTIVE,Missing Documents,Potential,Required,,,,,,,,JIZAN,Zone,,
Jizan,South,,JIZ002,,,CS005377,تموينات نجم الضحى,,,,,,,1,MON,19.64564,41.34920,"311,118,774,200,003","5,806,100,359",,2024-09-15,0,,0,500.0000000,ACTIVE,Missing Documents,Potential,Required,,,,,,,,JIZAN,Zone,,
Jizan,South,القنفذة,JIZ002,,,CS005379,2 متاجر المملكه,"533,924,778",,,Traditional Trade,Medium Grocery,,1,THU,18.73280,41.40394,"311,419,874,900,003","4,603,148,345","450,614,135,643",2024-09-15,4,Credit,9,893.9700000,ACTIVE,Approved by Finance,Potential,Required,2026-06-03,2024-12-23,كياد 474,القنفذة,0,28956,0,JIZAN,Zone,,
Jizan,South,,JIZ002,,,CS005380,بقاله المحطه,,,,,,,1,TUE,18.94301,41.32357,"310,010,250,900,003","4,603,146,516",,2024-09-15,0,,0,500.0000000,ACTIVE,Missing Documents,Potential,Required,,,,,,,,JIZAN,Zone,,
Jizan,South,,JIZ002,,,CS005381,تموينات الجنوب,,,,,,,1,MON,19.74057,41.43627,"300,710,374,400,003","4,603,145,341",,2024-09-15,0,,0,500.0000000,ACTIVE,Missing Documents,Potential,Required,,,,,,,,JIZAN,Zone,,
Jizan,South,القنفذة,JIZ002,,,CS005382,شركة رغد العالم للتجارة 1,"553,605,968",,,Traditional Trade,Medium Grocery,,1,THU,18.76379,41.39281,"310,888,150,900,003","4,603,005,009",0,2024-09-15,1,Credit,20,1153.1200000,ACTIVE,Approved by Finance,Potential,Required,2025-02-07,2029-05-27,القنفذة,القنفذة,0,000000,0,JIZAN,Zone,,
Jizan,South,,JIZ002,,,CS005385,تموينات نبراس جني للمواد الغذائية,,,,,,,1,SAT,19.88754,41.44749,"310,599,726,600,003","5,806,101,205",,2024-09-15,0,,0,500.0000000,ACTIVE,Missing Documents,Potential,Required,,,,,,,,JIZAN,Zone,,
Jizan,South,القنفذة,JIZ002,,,CS005388,الخير للمواد الغذائية,"538,673,906",,,Traditional Trade,Medium Grocery,,1,SUN,19.53680,41.04692,"310,197,293,200,003","4,603,155,145","441,112,295,680",2024-09-15,2,Credit,30,500.0000000,ACTIVE,Approved by Finance,Potential,Required,2025-12-06,2026-06-29,شارع,المظيلف,8644,28822,3157,JIZAN,Zone,,
Jizan,South,,JIZ002,,,CS005390,سوبر ماركت البحرين,,,,,,,1,THU,18.23673,41.52982,"301,075,888,800,003","4,603,002,387",,2024-09-15,0,,0,500.0000000,ACTIVE,Missing Documents,Potential,Required,,,,,,,,JIZAN,Zone,,
Jizan,South,القوز,JIZ002,,,CS005392,سوبر ماركت الناشري,"500,884,277",,,Traditional Trade,Small Grocery,,1,TUE,18.97689,41.30446,"300,879,026,200,003","7,012,268,079","3,909,609,393",2024-09-15,0,,0,500.0000000,ACTIVE,Approved by Finance,Potential,Required,2025-05-14,2025-02-24,التحلية,القوز,0,28849,0,JIZAN,Zone,,
Jizan,South,القنفذة,JIZ002,,,CS005394,تموينات الحياة المثلث للمواد الغذائية,"578,559,776",,,Traditional Trade,Small Grocery,,1,TUE,19.13436,41.09001,"310,613,446,100,003","4,603,154,354","43,119,956,638",2024-09-15,0,,0,500.0000000,ACTIVE,Approved by Finance,Potential,Required,2025-09-22,2025-05-06,شارع,الشرقية,2847,28827,7219,JIZAN,Zone,,
Jizan,South,,JIZ002,,,CS005395,شركه دولي للادويه,,,,,,,1,MON,19.54426,41.15331,"311,080,717,800,003","4,030,450,449",,2024-09-15,0,,0,500.0000000,ACTIVE,Missing Documents,Potential,Required,,,,,,,,JIZAN,Zone,,
Jizan,South,الباحة,JIZ002,,,CS005396,بقاله احمد سعيد كيسان الزهراني للمواد الغذائيه,"507,059,136",,,Traditional Trade,Medium Grocery,,1,MON,19.54401,41.15077,"300,714,167,900,003","5,806,014,650","41,042,637,330",2024-09-15,3,Credit,0,500.0000000,ACTIVE,Approved by Finance,Potential,Required,2028-09-29,2024-12-27,المقارى,المخواه,0,65394,0,JIZAN,Zone,,
Jizan,South,الباحة,JIZ002,,,CS005397,تموينات الشاكرين للمواد الغذائية,"501,709,242",,,Traditional Trade,Medium Grocery,,1,MON,19.54408,41.16334,"300,715,964,900,003","5,806,015,854","41,022,589,470",2024-09-15,4,Credit,0,501.3700000,ACTIVE,Approved by Finance,Potential,Required,2026-02-17,2025-10-08,حي الحريق,المخواه,0,65394,0,JIZAN,Zone,,
Jizan,South,المخواة,JIZ002,,,CS005398,تموينات ماشي سرحان العمري التجاريه,"507,338,210",,,Traditional Trade,Medium Grocery,,1,MON,19.61029,41.32070,"300,735,678,100,003","5,806,004,965","450,313,511,165",2024-09-15,8,Credit,0,612.5500000,ACTIVE,Approved by Finance,Potential,Required,2025-07-12,2025-09-22,الامير متعب بن عبدالعزيز,الفيصلية,2994,65615,7656,JIZAN,Zone,,
Jizan,South,مخوا,JIZ002,,,CS005399,تموينات واحة الوسام,"501,956,044",,,Traditional Trade,Medium Grocery,,1,MON,19.73956,41.43327,"300,686,599,900,003","5,806,021,692","41,083,515,712",2024-09-15,6,Credit,0,500.0000000,ACTIVE,Approved by Finance,Potential,Required,2025-08-25,2025-08-15,طريق الملك فهد,مخوا,0,65552,0,JIZAN,Zone,,
Jizan,South,المخواة,JIZ002,,,CS005400,تموينات الحي,"566,762,971",,,Traditional Trade,Medium Grocery,,1,MON,19.74648,41.43691,"300,801,478,700,003","5,806,100,689","40,062,063,139",2024-09-15,0,,0,500.0000000,ACTIVE,Approved by Finance,Potential,Required,2024-11-27,2024-12-29,شارع,الفيصلية,2802,65614,7074,JIZAN,Zone,,
Jizan,South,,JIZ002,,,CS005778,بقاله الريان الشامل للمواد الغذائيه,,,,,,,1,WED,19.24801,41.80189,"310,357,843,700,003","5,864,526,801",,2024-09-15,0,,0,500.0000000,ACTIVE,Missing Documents,Potential,Required,,,,,,,,JIZAN,Zone,,
Jizan,South,,JIZ002,,,CS005779,شركة النهضة الحديثة المحدودة 2,,,,,,,1,WED,19.12068,41.91261,"302,004,739,100,003","4,030,468,483",,2024-09-15,0,,0,500.0000000,ACTIVE,Missing Documents,Potential,Required,,,,,,,,JIZAN,Zone,,
Jizan,South,,JIZ002,,,CS005780,مؤسسه عبد الله سعيد الحميدي الغامدي التجاريه,,,,,,,1,WED,18.93415,41.94271,"300,452,462,500,003","5,860,015,929",,2024-09-15,0,,0,500.0000000,ACTIVE,Missing Documents,Potential,Required,,,,,,,,JIZAN,Zone,,
Jizan,South,,JIZ002,,,CS005781,شركة احمد سعيد علي الغامدي للتجارة,,,,,,,1,WED,18.93399,41.94534,"311,442,228,800,003","5,864,033,027",,2024-09-15,0,,0,500.0000000,ACTIVE,Missing Documents,Potential,Required,,,,,,,,JIZAN,Zone,,
Jizan,South,بارق,JIZ002,,,CS005782,سوبر ماركت السنبلة,"553,967,022",,,Traditional Trade,Medium Grocery,,1,WED,18.93324,41.94568,"310,064,231,700,003","5,850,104,564","40,082,143,291",2024-09-15,4,Credit,12,500.0000000,ACTIVE,Approved by Finance,Potential,Required,2026-03-22,2025-07-12,طريق الامير فيصل بن خالد,القرى,3519,63897,8910,JIZAN,Zone,,
Jizan,South,,JIZ002,,,CS005783,شركه عربيه غذائي التجاريه,,,,,,,1,WED,18.94946,41.91171,"311,180,554,700,003","5,860,059,072",,2024-09-15,0,,0,500.0000000,ACTIVE,Missing Documents,Potential,Required,,,,,,,,JIZAN,Zone,,
Jizan,South,,JIZ002,,,CS005784,سوبر ماركت الزهيري,,,,,,,1,WED,18.95687,41.90827,"310,380,233,300,003","5,850,125,254",,2024-09-15,0,,0,500.0000000,ACTIVE,Missing Documents,Potential,Required,,,,,,,,JIZAN,Zone,,
Jizan,South,المجاردة,JIZ002,,,CS005785,تموينات التوفيق,"556,758,093",,,Traditional Trade,Medium Grocery,,1,WED,19.13077,41.92450,"310,987,766,300,003","5,850,132,336","42,054,995,798",2024-09-15,3,Credit,0,500.0000000,ACTIVE,Approved by Finance,Potential,Required,2025-06-26,2024-10-15,احد,المجاردة,0,63981,0,JIZAN,Zone,,
Jizan,South,,JIZ002,,,CS005786,تموينات النور,,,,,,,1,WED,18.95614,41.90818,"310,290,849,900,003","5,860,611,192",,2024-09-15,0,,0,500.0000000,ACTIVE,Missing Documents,Potential,Required,,,,,,,,JIZAN,Zone,,
Jizan,South,,JIZ002,,,CS005788,تموينات الأندلس,,,,,,,1,WED,18.98211,41.88510,"300,942,008,400,003","5,864,047,896",,2024-09-15,0,,0,500.0000000,ACTIVE,Missing Documents,Potential,Required,,,,,,,,JIZAN,Zone,,
Jizan,South,,JIZ002,,,CS005790,سوبر ماركت محمد سليمان الشهري,,,,,,,1,WED,19.11297,41.62878,"310,164,345,500,003","5,864,525,664",,2024-09-15,0,,0,500.0000000,ACTIVE,Missing Documents,Potential,Required,,,,,,,,JIZAN,Zone,,
Jizan,South,,JIZ002,,,CS005797,تموينات الوطن اثنين للمواد الغذائيه,,,,,,,1,WED,19.00012,41.88163,"311,511,777,100,003","5,864,525,917",,2024-09-15,0,,0,500.0000000,ACTIVE,Missing Documents,Potential,Required,,,,,,,,JIZAN,Zone,,
Jizan,South,بارق,JIZ002,,,CS005798,بقالة أحمد,"551,852,485",,,Traditional Trade,Medium Grocery,,1,WED,19.00280,41.88050,"310,266,442,200,003","5,850,125,432","40,031,779,425",2024-09-15,1,Credit,0,500.0000000,ACTIVE,Approved by Finance,Potential,Required,2025-09-02,2025-07-04,شارع,القري,7154,63917,2042,JIZAN,Zone,,
Jizan,South,المجاردة,JIZ002,,,CS005799,سوبر ماركت بن سليم,"555,197,083",,,Traditional Trade,Medium Grocery,,1,WED,19.08805,41.84723,"311,046,365,400,003","5,864,527,085","42,085,468,059",2024-09-15,3,Credit,0,500.0000000,ACTIVE,Approved by Finance,Potential,Required,2025-09-07,2029-01-10,خارج حدود الاحياء,القري,3142,63981,6881,JIZAN,Zone,,
Jizan,South,,JIZ002,,,CS005800,اسواق بالخير عبدالله زهيان الشهري للمواد الغذائيه,"508,577,547",,,,,,1,WED,19.11826,41.62707,"310,962,232,700,003","5,864,526,886",,2024-09-15,0,,0,500.0000000,ACTIVE,Missing Documents,Potential,Required,,,,,,,,JIZAN,Zone,,
Jizan,South,المجاردة,JIZ002,,,CS005801,تموينات,"556,857,959",,,Traditional Trade,Small Grocery,,1,WED,19.09702,41.83758,"311,344,213,200,003","5,864,528,029","40,072,081,798",2024-09-15,7,Credit,0,500.0000000,ACTIVE,Approved by Finance,Potential,Required,2025-10-05,2025-01-20,المجاردة,الكدره,7716,63981,2860,JIZAN,Zone,,
Jizan,South,,JIZ002,,,CS005803,بقاله العسبلي,,,,,,,1,WED,19.09668,41.82624,"310,266,184,300,003","5,864,525,323",,2024-09-15,0,,0,500.0000000,ACTIVE,Missing Documents,Potential,Required,,,,,,,,JIZAN,Zone,,
Jizan,South,القنفذة,JIZ002,,,CS005804,تموينات الضاحية للمواد الغذائية,"532,427,665",,,Traditional Trade,Medium Grocery,,1,WED,19.44572,41.82939,"300,970,834,900,003","4,603,150,271","40,011,675,317",2024-09-15,0,,0,500.0000000,ACTIVE,Approved by Finance,Potential,Required,2025-01-10,2025-08-31,ثربيان,البرج,0,26524,0,JIZAN,Zone,,
Jizan,South,,JIZ002,,,CS005805,تموينات السيف,,,,,,,1,WED,19.10932,41.63096,"310,462,487,100,003","4,603,157,888",,2024-09-15,0,,0,500.0000000,ACTIVE,Missing Documents,Potential,Required,,,,,,,,JIZAN,Zone,,
Jizan,South,,JIZ002,,,CS005835,سوبرماركت تهامه,,,,,,,1,THU,18.00842,41.67912,"302,122,429,200,003","4,603,000,852",,2024-09-15,0,,0,500.0000000,ACTIVE,Missing Documents,Potential,Required,,,,,,,,JIZAN,Zone,,
Jizan,South,القنفذة,JIZ002,,,CS005836,تموينات سما الغربية للمواد الغذائية,"538,351,413",,,Traditional Trade,Medium Grocery,,1,THU,17.93320,41.71475,"300,726,997,200,003","4,603,007,164","3,909,418,584",2024-09-15,1,Credit,0,500.0000000,ACTIVE,Approved by Finance,Potential,Required,2025-10-08,2025-01-02,الساحل,القري,8176,65434,2728,JIZAN,Zone,,
Jizan,South,,JIZ002,,,CS005837,سوبرماركت المرحبي,,,,,,,1,THU,17.72706,42.02782,"311,510,019,700,003","5,904,017,835",,2024-09-15,0,,0,500.0000000,ACTIVE,Missing Documents,Potential,Required,,,,,,,,JIZAN,Zone,,
Jizan,South,,JIZ002,,,CS005838,تموينات الحسين محمد عمر قصادي للمواد الغذائيه,,,,,,,1,THU,17.72633,42.02966,"310,010,519,800,003","5,900,105,395",,2024-09-15,0,,0,500.0000000,ACTIVE,Missing Documents,Potential,Required,,,,,,,,JIZAN,Zone,,
Jizan,South,,JIZ002,,,CS005839,سوبرماركت التاج,,,,,,,1,THU,17.71588,42.06431,"301,178,265,700,003","5,855,343,589",,2024-09-15,0,,0,500.0000000,ACTIVE,Missing Documents,Potential,Required,,,,,,,,JIZAN,Zone,,
Jizan,South,عسير,JIZ002,,,CS005840,أسواق مجهار محمد حمد جريو الفهر للمواد الغذائية,"530,697,948",,,Traditional Trade,Medium Grocery,,1,THU,17.71367,42.06919,"300,803,614,100,003","5,903,511,070","460,316,958,129",2024-09-15,5,Credit,0,500.0000000,ACTIVE,Approved by Finance,Potential,Required,2025-08-20,2025-09-14,الشقيق الزراقية,القري,0,89876,0,JIZAN,Zone,,
Jizan,South,,JIZ002,,,CS005841,بقاله هيله سعد ال علوم   التاج,,,,,,,1,THU,17.71477,42.06617,"301,178,265,700,003","5,855,343,589",,2024-09-15,0,,0,500.0000000,ACTIVE,Missing Documents,Potential,Required,,,,,,,,JIZAN,Zone,,
Jizan,South,الحريضة,JIZ002,,,CS005842,سوبر ماركت البيبا,"556,538,371",,,Traditional Trade,Medium Grocery,,1,THU,17.78340,41.94064,"302,282,938,500,003","5,861,051,002","3,909,419,673",2024-09-15,5,Credit,0,500.0000000,ACTIVE,Approved by Finance,Potential,Required,2024-10-13,2023-10-15,حي الحريضة,الكدره,2575,89936,8289,JIZAN,Zone,,
Jizan,South,,JIZ002,,,CS005843,سوبر ماركت القحماني,,,,,,,1,THU,18.00280,41.67888,"302,122,429,200,003","4,603,000,852",,2024-09-15,0,,0,500.0000000,ACTIVE,Missing Documents,Potential,Required,,,,,,,,JIZAN,Zone,,
Jizan,South,,JIZ002,,,CS005844,تموينات شرق المدينة,,,,,,,1,THU,18.00659,41.67900,"311,417,862,600,003","5,867,100,153",,2024-09-15,0,,0,500.0000000,ACTIVE,Missing Documents,Potential,Required,,,,,,,,JIZAN,Zone,,
Jizan,South,,JIZ002,,,CS005845,تموينات سليمان عمر المحمودي   رزان ماركت,,,,,,,1,TUE,19.16544,41.18502,"310,493,097,500,003","4,603,150,429",,2024-09-15,0,,0,500.0000000,ACTIVE,Missing Documents,Potential,Required,,,,,,,,JIZAN,Zone,,
Jizan,South,,JIZ002,,,CS005846,تموينات سلام الماسي للمواد الغذائيه,,,,,,,1,SAT,19.79331,41.43101,"310,877,962,100,003","5,806,101,423",,2024-09-15,0,,0,500.0000000,ACTIVE,Missing Documents,Potential,Required,,,,,,,,JIZAN,Zone,,
Jizan,South,,JIZ002,,,CS005848,سوبرماركت المنديلي,,,,,,,1,TUE,19.12725,41.08564,"310,105,624,900,003","1,131,294,352",,2024-09-15,0,,0,500.0000000,ACTIVE,Missing Documents,Potential,Required,,,,,,,,JIZAN,Zone,,
Jizan,South,,JIZ002,,,CS005850,مركز العامر التجاري,,,,,,,1,SAT,19.94711,41.24534,"311,300,741,600,003","5,808,017,014",,2024-09-15,0,,0,500.0000000,ACTIVE,Missing Documents,Potential,Required,,,,,,,,JIZAN,Zone,,
Jizan,South,,JIZ002,,,CS005852,اسواق اصاله الساحل للمواد الغذائيه,"557,942,159",,,,,,1,SUN,19.35149,41.07475,"312,129,940,300,003","4,603,160,674",,2024-09-15,0,,0,500.0000000,ACTIVE,Missing Documents,Potential,Required,,,,,,,,JIZAN,Zone,,
Jizan,South,المظيلف,JIZ002,,,CS005854,سوبرماركت بن لبدان,"538,079,932",,,Traditional Trade,Medium Grocery,,1,SUN,19.68483,40.91719,"310,208,345,700,003","4,603,159,570","3,909,668,408",2024-09-15,3,Credit,11,500.0000000,ACTIVE,Approved by Finance,Potential,Required,2026-10-26,2024-11-14,الطريق العام,عسيله,0,28779,0,JIZAN,Zone,,
Jizan,South,,JIZ002,,,CS005855,تموينات لطيفه للمواد الغذائيه,,,,,,,1,SAT,19.78292,41.43774,"310,286,035,700,003","5,806,101,614",,2024-09-15,0,,0,500.0000000,ACTIVE,Missing Documents,Potential,Required,,,,,,,,JIZAN,Zone,,
Jizan,South,,JIZ002,,,CS005857,تموينات رغد ابراهيم طواشي الشاعري للمواد الغذائيه,,,,,,,1,THU,18.45432,41.46158,"311,160,163,300,003","5,850,135,111",,2024-09-15,0,,0,500.0000000,ACTIVE,Missing Documents,Potential,Required,,,,,,,,JIZAN,Zone,,
Jizan,South,,JIZ002,,,CS005859,بقالة أحمد عبدالله محمد باحداد للمواد الغذائية,"530,856,093",,,,,,1,SUN,19.53738,41.05786,"310,390,868,200,003","4,603,149,500",,2024-09-15,0,,0,500.0000000,ACTIVE,Missing Documents,Potential,Required,,,,,,,,JIZAN,Zone,,
Jizan,South,القنفذة,JIZ002,,,CS005860,تموينات الخليج,"532,151,758",,,Traditional Trade,Medium Grocery,,1,SUN,19.53814,41.05595,"301,020,403,700,003","4,603,146,565","450,313,236,973",2024-09-15,5,Credit,0,500.0000000,ACTIVE,Approved by Finance,Potential,Required,2025-08-20,2025-08-25,طريق الملك فهد,المظيلف,8052,28822,3711,JIZAN,Zone,,
Jizan,South,,JIZ002,,,CS005861,تموينات التاج الاولى,,,,,,,1,SUN,19.53910,41.05099,"311,649,122,300,003","4,603,152,769",,2024-09-15,0,,0,500.0000000,ACTIVE,Missing Documents,Potential,Required,,,,,,,,JIZAN,Zone,,
Jizan,South,,JIZ002,,,CS005862,سوبرماركت سهارى,,,,,,,1,THU,18.26068,41.51575,"310,033,326,500,003","5,860,064,950",,2024-09-15,0,,0,500.0000000,ACTIVE,Missing Documents,Potential,Required,,,,,,,,JIZAN,Zone,,
Jizan,South,,JIZ002,,,CS005863,تموينات احمد حسن العمرى,,,,,,,1,SAT,19.78220,41.43913,"300,835,056,400,003","5,806,100,616",,2024-09-15,0,,0,500.0000000,ACTIVE,Missing Documents,Potential,Required,,,,,,,,JIZAN,Zone,,
Jizan,South,,JIZ002,,,CS005864,تموينات فاطمه راجح للمواد الغذائيه,,,,,,,1,THU,18.43929,41.45617,"301,115,262,600,003","4,603,152,504",,2024-09-15,0,,0,500.0000000,ACTIVE,Missing Documents,Potential,Required,,,,,,,,JIZAN,Zone,,
Jizan,South,الشواق,JIZ002,,,CS005866,بقالة ومخبز الصهوة للمواد الغذائية,"536,368,741",,,Traditional Trade,Medium Grocery,,1,SUN,19.91817,40.73692,"301,115,262,600,003","4,601,100,040","3,909,607,084",2024-09-15,3,Credit,0,739.3700000,ACTIVE,Approved by Finance,Potential,Required,2025-01-18,2026-01-19,حي الشاقة الجنوبية,الوسقة,0,28429,0,JIZAN,Zone,,
Jizan,South,المظيلف,JIZ002,,,CS005867,تموينات رغد العالم للتجارة,"552,417,500",,,Traditional Trade,Medium Grocery,,1,SUN,19.53794,41.04883,"310,888,150,900,003","4,603,005,009","3,909,668,338",2024-09-15,2,Credit,0,0.0000000,ACTIVE,Approved by Finance,Potential,Required,2025-02-07,2024-12-29,المظيلف,المظيلف,0,00000,0,JIZAN,Zone,,
Jizan,South,المظيلف,JIZ002,,,CS005868,تموينات القنوي,"544,189,491",,,Traditional Trade,Medium Grocery,,1,SUN,19.52495,41.05271,"302,191,305,800,003","4,603,007,074","3,910,676,576",2024-09-15,1,,0,500.0000000,ACTIVE,Approved by Finance,Potential,Required,2025-05-23,2024-12-07,الطريق العام,المظيلف,0,28778,0,JIZAN,Zone,,
Jizan,South,الشواق,JIZ002,,,CS005930,متاجر الحازمي,"550,589,985",,,Traditional Trade,Medium Grocery,,1,SUN,19.98159,40.57610,"311,323,338,600,003","3,566,000,156","3,909,607,226",2024-09-15,0,,0,500.0000000,ACTIVE,Approved by Finance,Potential,Required,2026-01-09,2025-06-28,الطريق العام,الوسقة,0,28481,0,JIZAN,Zone,,
Jizan,South,,JIZ002,,,CS005947,شركة النهضة الحديثة المحدودة 3,,,,,,,1,TUE,19.13431,41.07371,"302,004,739,100,003","4,030,468,483",,2024-09-15,0,,0,500.0000000,ACTIVE,Missing Documents,Potential,Required,,,,,,,,JIZAN,Zone,,
Jizan,South,,JIZ002,,,CS005959,تموينات فاطمه,,,,,,,1,SUN,19.71678,40.86796,"310,192,764,500,003","4,601,101,280",,2024-09-15,0,,0,500.0000000,ACTIVE,Missing Documents,Potential,Required,,,,,,,,JIZAN,Zone,,
Jizan,South,,JIZ002,,,CS005983,سوبرماركت اصايل,,,,,,,1,MON,19.69775,41.38138,"311,605,103,900,003","5,806,101,210",,2024-09-15,0,,0,500.0000000,ACTIVE,Missing Documents,Potential,Required,,,,,,,,JIZAN,Zone,,
Jizan,South,المخواة,JIZ002,,,CS005984,تموينات التل العالي للمواد الغذائية,"506,535,609",,,Traditional Trade,Small Grocery,,1,SAT,19.80963,41.44168,"311,454,490,700,003","5,806,101,351","42,075,245,311",2024-09-15,4,Credit,8,916.7500000,ACTIVE,Approved by Finance,Potential,Required,2024-11-17,2025-01-15,شارع,المخواه,2130,65614,6961,JIZAN,Zone,,
Jizan,South,المظيلف,JIZ002,,,CS005985,شركة تموينات عبدالله بكري  للمواد الغذائية,"554,045,229",,,Traditional Trade,Medium Grocery,,1,SUN,19.53325,41.04976,"311,531,021,800,003","4,603,101,867","3,909,415,252",2024-09-15,6,Credit,24,2091.6000000,ACTIVE,Approved by Finance,Potential,Required,2026-05-07,2026-03-19,شهاب بن ابي بكر,المظيلف,0,28821,0,JIZAN,Zone,,
Jizan,South,القنفذة,JIZ002,,,CS005986,شركة حياة الجزيرة للمواد الغذائية,"534,197,765",,,Traditional Trade,Medium Grocery,,1,TUE,19.02956,41.25400,"311,424,312,900,003","7,007,391,100","3,909,603,026",2024-09-15,3,Credit,0,500.0000000,ACTIVE,Approved by Finance,Potential,Required,2025-06-28,2026-04-12,طريق احمد بن عبد العزيز,القنفذة,5876,28919,8284,JIZAN,Zone,,
Jizan,South,,JIZ002,,,CS005989,مؤسسه متاجر الشاطئ,,,,,,,1,TUE,19.14713,41.07583,"311,757,462,200,003","4,603,100,153",,2024-09-15,0,,0,500.0000000,ACTIVE,Missing Documents,Potential,Required,,,,,,,,JIZAN,Zone,,
Jizan,South,محايل عسير,JIZ002,,,CS005990,تموينات عزيزه حسان احمد الصالحي للمواد الغذائيه,"554,140,519",,,Traditional Trade,Medium Grocery,,1,THU,18.59453,41.42559,"310,859,120,700,003","5,850,130,444","3,909,316,108",2024-09-15,5,Credit,18,1041.9800000,ACTIVE,Approved by Finance,Potential,Required,2025-01-06,2026-05-12,سعيدة الصوالحة,النسيم,1,63641,1,JIZAN,Zone,,
Jizan,South,,JIZ002,,,CS005992,تموينات هبه ابراهيم علي الزبيدي للمواد الغذائية,,,,,,,1,MON,19.27913,41.42520,"310,722,133,500,003","7,017,996,351",,2024-09-15,0,,0,500.0000000,ACTIVE,Missing Documents,Potential,Required,,,,,,,,JIZAN,Zone,,
Jizan,South,,JIZ002,,,CS005993,تموينات واجهه الساحل للمواد الغذائيه,,,,,,,1,THU,18.25941,41.51558,"310,243,684,100,003","5,860,610,614",,2024-09-15,0,,0,500.0000000,ACTIVE,Missing Documents,Potential,Required,,,,,,,,JIZAN,Zone,,
Jizan,South,المظيلف,JIZ002,,,CS006001,هايبر ماركت الحازمي,"531,287,469",,,Traditional Trade,Medium Grocery,,1,SUN,19.53204,41.05034,"311,323,462,500,003","4,603,101,986","3,909,415,160",2024-09-15,0,,0,500.0000000,ACTIVE,Approved by Finance,Potential,Required,2025-04-30,2025-05-24,الطريق العام,المظيلف,0,22235,0,JIZAN,Zone,,
Jizan,South,المجاردة,JIZ002,,,CS006002,تموينات خالد الشهري للمواد الغذائيه,"532,534,657",,,Traditional Trade,Medium Grocery,,1,WED,19.11039,41.92434,"311,478,667,700,003","5,864,525,960","41,052,652,562",2024-09-15,2,Credit,0,500.0000000,ACTIVE,Approved by Finance,Potential,Required,2025-04-20,2025-09-08,فتح مكة,المجاردة,6856,22425,2382,JIZAN,Zone,,
Jizan,South,القنفذة,JIZ002,,,CS006003,اسواق جسر المستهلك,"538,714,524",,,Traditional Trade,Medium Grocery,,1,MON,19.46045,41.79435,"300,822,434,700,003","5,860,612,537","41,042,622,551",2024-09-15,4,Credit,16,2995.4200000,ACTIVE,Approved by Finance,Potential,Required,2027-05-30,2025-09-27,شارع عام,شمران,0,63711,0,JIZAN,Zone,,
Jizan,South,المجاردة,JIZ002,,,CS006008,أسواق مثلث بارق للتجارة,"557,907,108",,,Traditional Trade,Medium Grocery,,1,WED,18.90432,41.97265,"311,553,308,500,003","5,864,526,112","40,072,081,698",2024-09-15,3,Credit,0,500.0000000,ACTIVE,Approved by Finance,Potential,Required,2025-01-26,2025-10-10,شارع,النسيم,2706,63918,8207,JIZAN,Zone,,
Jizan,South,العرضية الجنوبية,JIZ002,,,CS006009,اسواق الوشر المركزيه,"504,757,589",,,Traditional Trade,Small Grocery,,1,MON,19.45785,41.79437,"311,544,041,800,003","4,030,315,701","41,093,532,505",2024-09-15,1,Credit,30,500.0000000,ACTIVE,Approved by Finance,Potential,Required,2024-12-10,2025-03-03,شارع,مدينة العريضة,5607,65224,6783,JIZAN,Zone,,
Jizan,South,مخوا,JIZ002,,,CS006015,متاجر الحازمي,"532,051,676",,,Traditional Trade,Medium Grocery,,1,SAT,19.78008,41.43644,"311,323,462,500,003","5,806,020,119","41,093,534,113",2024-09-15,1,Credit,9,1111.8000000,ACTIVE,Approved by Finance,Potential,Required,2025-02-24,2025-04-09,شارع,مخوا,0,65311,0,JIZAN,Zone,,
Jizan,South,,JIZ002,,,CS006265,تموينات حسن محمد ابراهيم الحازمي,,,,,,,1,SAT,19.78009,41.43621,"301,185,482,300,003","4,603,101,515",,2024-09-15,0,,0,500.0000000,ACTIVE,Missing Documents,Potential,Required,,,,,,,,JIZAN,Zone,,
Jizan,South,,JIZ002,,,CS006317,شركه  مميزات الابداع للتجاره,,,,,,,1,SAT,20.20323,41.07342,"311,218,395,300,003","5,808,101,076",,2024-09-15,0,,0,500.0000000,ACTIVE,Missing Documents,Potential,Required,,,,,,,,JIZAN,Zone,,
Jizan,South,,JIZ002,,,CS006318,شركه اسواق ومتاجر بن مشرف للمواد الغذائيه,,,,,,,1,SAT,20.44267,40.87972,"310,619,638,600,003","4,601,102,340",,2024-09-15,0,,0,500.0000000,ACTIVE,Missing Documents,Potential,Required,,,,,,,,JIZAN,Zone,,
Jizan,South,,JIZ002,,,CS006319,تموينات أضم,,,,,,,1,SAT,20.44941,40.88427,"310,218,083,500,003","4,601,102,406",,2024-09-15,0,,0,500.0000000,ACTIVE,Missing Documents,Potential,Required,,,,,,,,JIZAN,Zone,,
Jizan,South,,JIZ002,,,CS006320,تموينات الديره,,,,,,,1,SAT,20.44409,40.88111,"300,492,549,800,003","4,601,001,304",,2024-09-15,0,,0,500.0000000,ACTIVE,Missing Documents,Potential,Required,,,,,,,,JIZAN,Zone,,
Jizan,South,المخواة,JIZ002,,,CS006322,بقالة كيان الخير للمواد الغذائية,"534,588,861",,,Traditional Trade,Medium Grocery,,1,SAT,19.79281,41.43104,"310,984,749,300,003","5,806,101,539","43,026,206,590",2024-09-15,0,,0,500.0000000,ACTIVE,Approved by Finance,Potential,Required,2025-06-22,2025-08-08,طريق الملك فهد,مخوا,4209,65553,6401,JIZAN,Zone,,
Jizan,South,,JIZ002,,,CS006323,تموبنات بحور الخيرات للمواد الغذائيه,"532,641,392",,,,,,1,SAT,19.96287,41.22478,"311,344,223,600,003","5,808,101,139",,2024-09-15,0,,0,500.0000000,ACTIVE,Missing Documents,Potential,Required,,,,,,,,JIZAN,Zone,,
Jizan,South,الباحة,JIZ002,,,CS006324,تموينات الشعب سيال,"509,607,242",,,Traditional Trade,Medium Grocery,,1,SAT,19.79334,41.43071,"302,201,686,300,003","5,800,109,212","42,034,153,758",2024-09-15,3,Credit,0,500.0000000,ACTIVE,Approved by Finance,Potential,Required,2024-12-24,2024-09-30,شارع,السوق القديم,0,65312,0,JIZAN,Zone,,
Jizan,South,,JIZ002,,,CS006325,مؤسسه سعيد صالح الزهراني للتجاره   بقاله الحياه,,,,,,,1,SAT,19.77991,41.43558,"301,253,363,800,003","5,806,016,623",,2024-09-15,0,,0,500.0000000,ACTIVE,Missing Documents,Potential,Required,,,,,,,,JIZAN,Zone,,
Jizan,South,القنفذة,JIZ002,,,CS006326,شركة البادية المميزة للمواد الغذائية,"571,791,824",,,Traditional Trade,Small Grocery,,1,TUE,19.16180,41.18229,"311,377,763,800,003","4,603,150,882","41,113,632,759",2024-09-15,3,Credit,0,500.0000000,ACTIVE,Approved by Finance,Potential,Required,2025-06-05,2025-06-23,شارع عام,القنفذة,1,28821,1,JIZAN,Zone,,
Jizan,South,,JIZ002,,,CS006327,تموينات مصلح ابراهيم احمد الشريف للمواد الغذائيه,,,,,,,1,TUE,19.18480,41.20487,"311,284,735,900,003","4,603,156,420",,2024-09-15,0,,0,500.0000000,ACTIVE,Missing Documents,Potential,Required,,,,,,,,JIZAN,Zone,,
Jizan,South,,JIZ002,,,CS006328,تموينات نسيم الجبل للمواد الغذائيه,,,,,,,1,WED,19.18637,41.53133,"302,130,394,900,003","4,603,102,355",,2024-09-15,0,,0,500.0000000,ACTIVE,Missing Documents,Potential,Required,,,,,,,,JIZAN,Zone,,
Jizan,South,,JIZ002,,,CS006329,تموينات بهجة طيبة,,,,,,,1,SAT,20.20102,41.07458,"300,714,063,200,003","5,808,013,177",,2024-09-15,0,,0,500.0000000,ACTIVE,Missing Documents,Potential,Required,,,,,,,,JIZAN,Zone,,
Jizan,South,,JIZ002,,,CS006405,عليه علي عبدالله الشهري للمواد الغذائيه,,,,,,,1,WED,19.12916,41.61448,"300,894,664,300,003","5,864,055,470",,2024-09-15,0,,0,500.0000000,ACTIVE,Missing Documents,Potential,Required,,,,,,,,JIZAN,Zone,,
Jizan,South,عسير,JIZ002,,,CS006406,مؤسسة سهل المتطورة للمواد الغذائية,"500,124,427",,,Traditional Trade,Medium Grocery,,1,WED,19.13018,41.60931,"310,987,594,200,003","5,865,353,620","450,112,815,619",2024-09-15,2,Credit,0,500.0000000,ACTIVE,Approved by Finance,Potential,Required,2024-06-12,2027-04-10,شارع,الكدره,0,63335,0,JIZAN,Zone,,
Jizan,South,,JIZ002,,,CS006589,موسسه محمد باتل العامري,,,,,,,1,MON,19.59085,41.64979,"302,058,923,900,003","4,603,150,284",,2024-09-15,0,,0,500.0000000,ACTIVE,Missing Documents,Potential,Required,,,,,,,,JIZAN,Zone,,
Jizan,South,القنفذة,JIZ002,,,CS006590,تموينات العرضيه نمره للمواد الغذائيه,"533,951,099",,,Traditional Trade,Medium Grocery,,1,MON,19.56825,41.67118,"311,205,650,400,003","4,603,155,738","451,015,390,265",2024-09-15,0,,0,500.0000000,ACTIVE,Approved by Finance,Potential,Required,2025-02-05,2025-05-08,نمرة,القنفذة,0,65218,0,JIZAN,Zone,,
Jizan,South,,JIZ002,,,CS006591,تموينات التوفيق,,,,,,,1,MON,19.56169,41.67104,"310,033,821,100,003","4,603,007,497",,2024-09-15,0,,0,500.0000000,ACTIVE,Missing Documents,Potential,Required,,,,,,,,JIZAN,Zone,,
Jizan,South,القنفذة,JIZ002,,,CS006592,شركة النخيل العالية للتجارة,"507,634,009",,,Traditional Trade,Small Grocery,,1,MON,19.49614,41.67761,"311,101,043,200,003","4,603,002,460","43,026,398,281",2024-09-15,0,,0,500.0000000,ACTIVE,Approved by Finance,Potential,Required,2026-09-24,2024-09-30,شارع عام,القنفذة,5812,65466,7526,JIZAN,Zone,,
Jizan,South,,JIZ002,,,CS006693,تموينات الثريا,,,,,,,1,THU,18.66485,41.38721,"310,285,717,400,003","4,603,147,978",,2024-09-15,0,,0,500.0000000,ACTIVE,Missing Documents,Potential,Required,,,,,,,,JIZAN,Zone,,
Jizan,South,,JIZ002,,,CS006694,تموينات أمواج للمواد الغذائية,,,,,,,1,TUE,19.15075,41.07654,"311,118,774,200,003","4,603,148,915",,2024-09-15,0,,0,500.0000000,ACTIVE,Missing Documents,Potential,Required,,,,,,,,JIZAN,Zone,,
Jizan,South,,JIZ002,,,CS006695,شركة النهضة الحديثة المحدودة 4,,,,,,,1,THU,18.69905,41.37356,"302,004,739,100,003","4,030,468,483",,2024-09-15,0,,0,500.0000000,ACTIVE,Missing Documents,Potential,Required,,,,,,,,JIZAN,Zone,,
Jizan,South,القنفذة,JIZ002,,,CS006696,مؤسسة البساتين الحديثة التجارية,"556,422,507",,,Traditional Trade,Medium Grocery,,1,TUE,19.15078,41.07741,"310,224,314,200,003","4,603,151,503","39,111,370,322",2024-09-15,1,Credit,0,500.0000000,ACTIVE,Approved by Finance,Potential,Required,2025-07-15,2025-05-14,شارع الملك فيصل,الشرقية,4165,28821,6655,JIZAN,Zone,,
Jizan,South,,JIZ002,,,CS006697,مؤسسة محمد احمد علي الهيلي,,,,,,,1,THU,18.70004,41.37249,"310,274,788,400,003","4,603,152,267",,2024-09-15,0,,0,500.0000000,ACTIVE,Missing Documents,Potential,Required,,,,,,,,JIZAN,Zone,,
Jizan,South,قلوة,JIZ002,,,CS006700,تموينات ارض الوطن للمواد الغذائيه,"503,720,484",,,Traditional Trade,Medium Grocery,,1,SAT,19.92523,41.27051,"310,291,831,300,003","5,808,100,891","43,016,093,156",2024-09-15,2,Credit,0,500.0000000,ACTIVE,Approved by Finance,Potential,Required,2025-07-02,2025-07-26,طريق الملك فهد,الازهر,5170,65335,8614,JIZAN,Zone,,
Jizan,South,بارق,JIZ002,,,CS006705,بقالة أرياف بارق,"504,578,239",,,Traditional Trade,Medium Grocery,,1,WED,18.88836,41.98277,"310,314,390,800,003","5,864,525,460","40,072,086,672",2024-09-15,4,Credit,0,500.0000000,ACTIVE,Approved by Finance,Potential,Required,2025-01-01,2025-01-26,بارق,الكدره,5303,63899,7369,JIZAN,Zone,,
Jizan,South,,JIZ002,,,CS006706,تموينات الأخوين,,,,,,,1,WED,19.09770,41.82941,"310,401,847,300,003","5,864,525,744",,2024-09-15,0,,0,500.0000000,ACTIVE,Missing Documents,Potential,Required,,,,,,,,JIZAN,Zone,,
Jizan,South,ثلوث عمارة,JIZ002,,,CS006707,تمينات تسوق المدينه للمواد الغذائيه,"553,976,180",,,Traditional Trade,Medium Grocery,,1,WED,19.18924,41.77498,"302,236,703,500,003","4,031,237,764","40,011,675,337",2024-09-15,5,Credit,0,500.0000000,ACTIVE,Approved by Finance,Potential,Required,2025-04-12,2025-07-22,عامر بن يزيد,الجوة,7802,65286,3802,JIZAN,Zone,,
Jizan,South,القنفذة,JIZ002,,,CS006708,شركه متاجر الحازمي الخليجيه,"558,954,353",,,Traditional Trade,Small Grocery,,1,MON,19.58176,41.66326,"311,323,462,500,003","4,603,008,729","3,909,422,731",2024-09-15,0,,0,500.0000000,ACTIVE,Approved by Finance,Potential,Required,2025-02-24,2025-03-18,الطريق العام,البرج,7790,65466,5439,JIZAN,Zone,,
Jizan,South,,JIZ002,,,CS006767,تموينات خيرات المثلث للمواد الغذائية,,,,,,,1,MON,19.74189,41.43295,"310,998,387,300,003","5,806,100,609",,2024-09-15,0,,0,500.0000000,ACTIVE,Missing Documents,Potential,Required,,,,,,,,JIZAN,Zone,,
Jizan,South,المخواة,JIZ002,,,CS006768,تموينات صفا التوفير التجارة,"532,820,131",,,Traditional Trade,Medium Grocery,,1,MON,19.77403,41.43486,"310,357,511,500,003","5,806,102,293","450,714,610,748",2024-09-15,3,Credit,13,500.0000000,ACTIVE,Approved by Finance,Potential,Required,2024-11-14,2025-01-17,الامير محمد بن سعود,مخوا,8694,65311,5237,JIZAN,Zone,,
Jizan,South,,JIZ002,,,CS006769,بقالة سلام,,,,,,,1,MON,19.54260,41.09447,"310,027,898,600,003","4,603,102,360",,2024-09-15,0,,0,500.0000000,ACTIVE,Missing Documents,Potential,Required,,,,,,,,JIZAN,Zone,,
Jizan,South,قلوة,JIZ002,,,CS006770,مؤسسة العائلة لتجارة الأغذية,"589,652,132",,,Traditional Trade,Medium Grocery,,1,SAT,19.94189,41.24832,"300,635,973,100,003","5,808,011,050","40,042,001,838",2024-09-15,0,,0,500.0000000,ACTIVE,Approved by Finance,Potential,Required,2025-10-17,2028-08-26,شارع,مخوا,2824,65565,7287,JIZAN,Zone,,
Jizan,South,قلوة,JIZ002,,,CS006771,تموينات امل الخيرات,"559,228,977",,,Traditional Trade,Medium Grocery,,1,SAT,19.93509,41.25773,"311,111,111,111,113","5,808,101,516","460,618,029,697",2024-09-15,1,Credit,0,500.0000000,ACTIVE,Approved by Finance,Potential,Required,2025-11-11,4965-09-20,شارع,مخوا,2376,65558,7767,JIZAN,Zone,,
Jizan,South,الباحة,JIZ002,,,CS006772,تموينات بحور الخير,"501,847,278",,,Traditional Trade,Medium Grocery,,1,SAT,19.93052,41.26605,"311,007,148,900,003","5,800,109,800","41,032,610,919",2024-09-15,0,,0,500.0000000,ACTIVE,Approved by Finance,Potential,Required,2026-03-05,2026-06-26,شارع ابن الارقم,الشروق,0,65565,0,JIZAN,Zone,,
Jizan,South,,JIZ002,,,CS006773,شركه الورده الغربيه التجاريه,,,,,,,1,SAT,19.94339,41.24831,"311,358,419,700,003","5,808,100,404",,2024-09-15,0,,0,500.0000000,ACTIVE,Missing Documents,Potential,Required,,,,,,,,JIZAN,Zone,,
Jizan,South,,JIZ002,,,CS006774,تموينات محمد بن ابراهيم بن احمد الزهراني للمواد ال,,,,,,,1,SAT,19.96187,41.22470,"310,895,412,100,003","5,808,019,215",,2024-09-15,0,,0,500.0000000,ACTIVE,Missing Documents,Potential,Required,,,,,,,,JIZAN,Zone,,
Jizan,South,القحمة,JIZ002,,,CS006775,موسسه عاليه مغزل للمواد الغذائيه,"555,741,493",,,Traditional Trade,Medium Grocery,,1,THU,17.96328,41.69422,"300,916,606,200,003","58,567,100,004","628,517",2024-09-15,3,Credit,0,500.0000000,ACTIVE,Approved by Finance,Potential,Required,2025-07-25,2025-04-29,شارع,القحمة,2315,63254,7847,JIZAN,Zone,,
Jizan,South,,JIZ002,,,CS006873,تموينات حنيش الحديث للمواد الغذائيه,,,,,,,1,TUE,19.14933,41.07027,"311,017,653,300,003","4,603,157,803",,2024-09-15,0,,0,500.0000000,ACTIVE,Missing Documents,Potential,Required,,,,,,,,JIZAN,Zone,,
Jizan,South,,JIZ002,,,CS006942,بقالة مراكش,,,,,,,1,SUN,19.61334,40.92226,"310,782,795,200,003","4,603,100,214",,2024-09-15,0,,0,500.0000000,ACTIVE,Missing Documents,Potential,Required,,,,,,,,JIZAN,Zone,,
Jizan,South,,JIZ002,,,CS006943,شركه جرين للمواد الغذائيه,,,,,,,1,SUN,19.98158,40.57563,"310,631,458,200,003","4,603,102,577",,2024-09-15,0,,0,500.0000000,ACTIVE,Missing Documents,Potential,Required,,,,,,,,JIZAN,Zone,,
Jizan,South,,JIZ002,,,CS006944,تموينات الشهرة الجديدة للمواد الغذائية,,,,,,,1,SUN,19.98249,40.57394,"311,518,602,700,003","4,601,103,953",,2024-09-15,0,,0,500.0000000,ACTIVE,Missing Documents,Potential,Required,,,,,,,,JIZAN,Zone,,
Jizan,South,,JIZ002,,,CS006945,بقالة الفلاح,,,,,,,1,SUN,19.98368,40.57136,"311,485,221,100,003","2,050,165,073",,2024-09-15,0,,0,500.0000000,ACTIVE,Missing Documents,Potential,Required,,,,,,,,JIZAN,Zone,,
Jizan,South,الليث,JIZ002,,,CS006946,بقالة الشهرة للمواد الغذائية,"501,906,179",,,Traditional Trade,Medium Grocery,,1,SUN,19.98534,40.56761,"311,332,443,100,003","4,601,000,334","14,430,022",2024-09-15,4,Credit,13,500.0000000,ACTIVE,Approved by Finance,Potential,Required,2025-01-10,2024-12-02,الوسقة,الليث,4834,28481,7100,JIZAN,Zone,,
Jizan,South,,JIZ002,,,CS006995,تموينات سوار الجنوب للمواد الغذائية,,,,,,,1,TUE,19.15009,41.08300,"310,761,577,900,003","4,603,152,072",,2024-09-15,0,,0,500.0000000,ACTIVE,Missing Documents,Potential,Required,,,,,,,,JIZAN,Zone,,
Jizan,South,,JIZ002,,,CS006996,سوبر ماركت أريا,,,,,,,1,TUE,19.14995,41.08550,"311,136,444,800,003","4,603,150,266",,2024-09-15,0,,0,500.0000000,ACTIVE,Missing Documents,Potential,Required,,,,,,,,JIZAN,Zone,,
Jizan,South,,JIZ002,,,CS007140,سوبر ماركت لؤلؤة تان للمواد الغذائيه,,,,,,,1,MON,19.54696,41.11918,"301,099,669,400,003","5,806,020,207",,2024-09-15,0,,0,500.0000000,ACTIVE,Missing Documents,Potential,Required,,,,,,,,JIZAN,Zone,,
Jizan,South,,JIZ002,,,CS007229,شركة ليالي التوفير التجارية,,,,,,,1,TUE,19.11631,41.08866,"310,226,499,500,003","4,603,145,238",,2024-09-15,0,,0,500.0000000,ACTIVE,Missing Documents,Potential,Required,,,,,,,,JIZAN,Zone,,
Jizan,South,القوز,JIZ002,,,CS007324,تموينات الحزام الأخضر للمواد الغذائية,"590,348,832",,,Traditional Trade,Medium Grocery,,1,TUE,18.97179,41.32104,"310,221,988,100,003","4,603,150,635","41,073,490,293",2024-09-15,7,Credit,0,624.8100000,ACTIVE,Approved by Finance,Potential,Required,2024-12-30,2026-01-10,شارع,القوز,1,28848,1,JIZAN,Zone,,
Jizan,South,,JIZ002,,,CS007455,تموينات الخيرات المميزه للمواد الغذائيه,"569,329,504",,,,,,1,TUE,19.16204,41.18260,"311,098,256,100,003","4,603,155,457",,2024-09-15,0,,0,500.0000000,ACTIVE,Missing Documents,Potential,Required,,,,,,,,JIZAN,Zone,,
Jizan,South,,JIZ002,,,CS007523,تموينات أمل عبدالرحمن ابراهيم الفقيه للمواد الغذائ,,,,,,,1,THU,18.76773,41.38677,"310,493,277,600,003","4,031,229,731",,2024-09-15,0,,0,500.0000000,ACTIVE,Missing Documents,Potential,Required,,,,,,,,JIZAN,Zone,,
Jizan,South,المجاردة,JIZ002,,,CS007543,تموينات سلال الجود,"531,346,476",,,Traditional Trade,Medium Grocery,,1,WED,19.13163,41.93206,"310,954,717,500,003","5,850,131,878","43,037,587,797",2024-09-15,10,Credit,0,527.8300000,ACTIVE,Approved by Finance,Potential,Required,2025-05-13,2025-09-06,شارع,المجاردة,6125,63981,3628,JIZAN,Zone,,
Jizan,South,,JIZ002,,,CS007544,اسواق رايه حسن البريكي المركزيه,,,,,,,1,WED,19.01108,41.87923,"311,353,999,800,003","5,864,527,826",,2024-09-15,0,,0,500.0000000,ACTIVE,Missing Documents,Potential,Required,,,,,,,,JIZAN,Zone,,
Jizan,South,,JIZ002,,,CS007553,تموينات نوف للمواد الغذائية,,,,,,,1,TUE,19.11723,41.13785,"310,883,884,700,003","4,603,152,941",,2024-09-15,0,,0,500.0000000,ACTIVE,Missing Documents,Potential,Required,,,,,,,,JIZAN,Zone,,
Jizan,South,,JIZ002,,,CS007638,سوبر ماركت الساحل الغربي,"558,590,289",,,,,,1,TUE,18.97596,41.29785,"302,046,788,100,003","4,603,149,909",,2024-09-15,0,,0,500.0000000,ACTIVE,Missing Documents,Potential,Required,,,,,,,,JIZAN,Zone,,
Jizan,South,الدرب,JIZ002,,,CS007658,اسواق سيتي  مارت للمواد الغذائيه,"553,766,078",,,Traditional Trade,Medium Grocery,,1,THU,17.72682,42.02759,"311,389,228,700,003","5,957,100,568","43,089,541,370",2024-09-15,7,Credit,30,1606.4100000,ACTIVE,Approved by Finance,Potential,Required,2025-05-21,2027-01-31,المرابي 664 - حي الشقيق,مدينة جيزان,0,89926,0,JIZAN,Zone,,
Jizan,South,المخواة,JIZ002,,,CS007752,السروات,"560,605,678",,,Traditional Trade,Medium Grocery,,1,SAT,19.88872,41.44485,"301,218,685,100,003","5,806,012,166","40,082,122,555",2024-09-15,3,Credit,0,500.0000000,ACTIVE,Approved by Finance,Potential,Required,2025-05-21,2025-07-28,شارع,مخوا,2108,65614,6555,JIZAN,Zone,,
Jizan,South,القوز,JIZ002,,,CS007777,تموينات موسم العربة,"559,595,758",,,Traditional Trade,Medium Grocery,,1,WED,19.35103,41.81955,"311,047,126,600,003","4,603,154,378","43,037,589,358",2024-09-15,7,Credit,0,632.6100000,ACTIVE,Approved by Finance,Potential,Required,2025-09-27,2025-09-17,ثربيان,الجوة,0,65246,0,JIZAN,Zone,,
Jizan,South,,JIZ002,,,CS007786,تمونيات المحطه,,,,,,,1,TUE,18.94364,41.32305,"310,010,250,900,003","4,603,146,516",,2024-09-15,0,,0,500.0000000,ACTIVE,Missing Documents,Potential,Required,,,,,,,,JIZAN,Zone,,
Jizan,South,,JIZ002,,,CS007797,بقاله الجنوب للمواد الغذائيه,,,,,,,1,WED,18.87258,42.01008,"300,793,373,700,003","5,864,525,586",,2024-09-15,0,,0,500.0000000,ACTIVE,Missing Documents,Potential,Required,,,,,,,,JIZAN,Zone,,
Jizan,South,,JIZ002,,,CS007798,مؤسسه شبيلي عبدالله عوض البارقي,,,,,,,1,WED,18.87263,42.01002,"301,033,295,800,003","5,864,525,847",,2024-09-15,0,,0,500.0000000,ACTIVE,Missing Documents,Potential,Required,,,,,,,,JIZAN,Zone,,
Jizan,South,القنفذة,JIZ002,,,CS007799,متاجر الوسام الاقتصاديه,"566,724,881",,,Traditional Trade,Medium Grocery,,1,THU,18.77051,41.38594,"300,696,431,800,003","4,603,006,425","42,054,977,566",2024-09-15,4,Credit,0,500.0000000,ACTIVE,Approved by Finance,Potential,Required,2586-07-19,2024-12-13,الشيخ عبدالعزيز بن باز,القنفذة,0,28821,0,JIZAN,Zone,,
Jizan,South,,JIZ002,,,CS007803,اسواق الفرسان الذهبيه للمواد الغذائيه,"554,867,685",,,,,,1,WED,19.13805,41.57444,"310,407,917,800,003","4,603,152,183",,2024-09-15,0,,0,500.0000000,ACTIVE,Missing Documents,Potential,Required,,,,,,,,JIZAN,Zone,,
Jizan,South,المجاردة,JIZ002,,,CS007804,تموينات سعيد حسن علي الشهري للمواد الغذائية,"501,225,643",,,Traditional Trade,Small Grocery,,1,WED,19.10925,41.63114,"302,153,094,900,003","5,850,125,041","40,122,540,256",2024-09-15,7,Credit,0,500.0000000,ACTIVE,Approved by Finance,Potential,Required,2025-07-17,2024-07-01,النسيم,المجاردة,3703,63971,8383,JIZAN,Zone,,
Jizan,South,,JIZ002,,,CS007806,شركه غذاء ستور للتجاره,"508,258,291",,,,,,1,SAT,19.82444,41.37440,"310,724,786,900,003","5,806,101,695",,2024-09-15,0,,0,500.0000000,ACTIVE,Missing Documents,Potential,Required,,,,,,,,JIZAN,Zone,,
Jizan,South,المجاردة,JIZ002,,,CS007815,اجمل الاصناف للمواد الغذائية,"535,474,464",,,Traditional Trade,Medium Grocery,,1,WED,19.09167,41.94598,"300,775,275,800,003","580,610,620","43,037,267,233",2024-09-15,2,Credit,0,500.0000000,ACTIVE,Approved by Finance,Potential,Required,2025-07-27,2027-08-10,شارع,الخليج,2105,63971,8675,JIZAN,Zone,,
Jizan,South,,JIZ002,,,CS007849,مؤسسه الحلا البني اللذيذ للحلويات   براونيز,,,,,,,1,TUE,18.97134,41.32064,"301,120,268,800,003","7,008,652,195",,2024-09-15,0,,0,500.0000000,ACTIVE,Missing Documents,Potential,Required,,,,,,,,JIZAN,Zone,,
Jizan,South,القنفذة,JIZ002,,,CS007908,تموينات هلو للمواد الغذائيه,"500,192,639",,,Traditional Trade,Medium Grocery,,1,MON,19.24537,41.34256,"301,004,516,700,003","5,864,043,746","43,047,976,744",2024-09-15,11,Credit,9,1372.4200000,ACTIVE,Approved by Finance,Potential,Required,2025-06-19,2024-10-29,قرية حداب الخيل,القنفذة,0,28868,0,JIZAN,Zone,,
Jizan,South,المخواة,JIZ002,,,CS007909,تموينات العائله الماسيه للمواد الغذائيه,"577,609,249",,,Traditional Trade,Medium Grocery,,1,SAT,19.78844,41.43407,"310,235,902,700,003","5,806,100,534","40,042,002,061",2024-09-15,0,,0,500.0000000,ACTIVE,Approved by Finance,Potential,Required,2025-10-23,2024-10-18,شارع,الازهر,5509,65311,7454,JIZAN,Zone,,
Jizan,South,,JIZ002,,,CS007910,بقالة حامد حمد سالم القرني للمواد الغذائية,,,,,,,1,WED,19.24644,41.80009,"310,987,219,500,003","4,603,153,735",,2024-09-15,0,,0,500.0000000,ACTIVE,Missing Documents,Potential,Required,,,,,,,,JIZAN,Zone,,
Jizan,South,محايل,JIZ002,,,CS007916,أسواق جوهرة بارق المركزية,"507,949,546",,,Traditional Trade,Medium Grocery,,1,WED,18.89204,41.98016,"311,431,500,600,003","5,860,618,938","42,013,869,891",2024-09-15,3,Credit,0,500.0000000,ACTIVE,Approved by Finance,Potential,Required,2025-09-30,2026-09-14,بارق القادسية,القري,7235,63751,4343,JIZAN,Zone,,
Jizan,South,المجاردة,JIZ002,,,CS007933,تموينات جبل ريمان للمواد الغذائية,"535,890,734",,,Traditional Trade,Small Grocery,,1,WED,19.10371,41.93145,"311,086,964,500,003","5,850,133,928","40,021,708,956",2024-09-15,10,Credit,11,779.3400000,ACTIVE,Approved by Finance,Potential,Required,2026-10-10,2025-08-17,الاندلس,المجاردة,6153,63981,4104,JIZAN,Zone,,
Jizan,South,,JIZ002,,,CS007934,تموينات تموينات البشامه للمواد الغذائية,,,,,,,1,WED,18.88851,41.98385,"310,701,506,400,003","5,864,526,252",,2024-09-15,0,,0,500.0000000,ACTIVE,Missing Documents,Potential,Required,,,,,,,,JIZAN,Zone,,
Jizan,South,,JIZ002,,,CS007935,تموينات سلام مثلث,"554,783,151",,,,,,1,WED,19.13734,41.57360,"310,243,757,500,003","4,603,154,687",,2024-09-15,0,,0,500.0000000,ACTIVE,Missing Documents,Potential,Required,,,,,,,,JIZAN,Zone,,
Jizan,South,,JIZ002,,,CS008014,سوبر ماركت الحربي,"535,065,416",,,,,,1,WED,19.15739,41.54899,"302,130,394,900,003","4,603,149,597",,2024-09-15,0,,0,500.0000000,ACTIVE,Missing Documents,Potential,Required,,,,,,,,JIZAN,Zone,,
Jizan,South,المخواة,JIZ002,,,CS008067,تموينات قمم الرونة للمواد الغذائية,"545,054,177",,,Traditional Trade,Medium Grocery,,1,SAT,19.82280,41.44164,"310,376,166,200,003","5,800,107,256","43,047,970,781",2024-09-15,1,Credit,0,500.0000000,ACTIVE,Approved by Finance,Potential,Required,2024-10-14,2024-10-21,شارع,الربيع,9081,65613,5253,JIZAN,Zone,,
Jizan,South,,JIZ002,,,CS008081,تموينات جنوب الرونة للمواد الغذائيه,,,,,,,1,SAT,19.82118,41.44182,"300,631,562,900,003","5,806,102,181",,2024-09-15,0,,0,500.0000000,ACTIVE,Missing Documents,Potential,Required,,,,,,,,JIZAN,Zone,,
Jizan,South,,JIZ002,,,CS008128,مؤسسه فور بلس الغذائيه,,,,,,,1,MON,19.63041,41.61046,"310,752,524,300,003","4,603,151,923",,2024-09-15,0,,0,500.0000000,ACTIVE,Missing Documents,Potential,Required,,,,,,,,JIZAN,Zone,,
Jizan,South,ثلوث عمارة,JIZ002,,,CS008129,تموينات التوفيق,"541,886,991",,,Traditional Trade,Medium Grocery,,1,WED,19.22204,41.78054,"310,033,821,100,003","4,603,007,497","40,031,962,962",2024-09-15,7,Credit,0,500.0000000,ACTIVE,Approved by Finance,Potential,Required,2025-08-17,2025-01-03,عامر بن يزيد,الجوة,4324,65289,6892,JIZAN,Zone,,
Jizan,South,,JIZ002,,,CS008152,تموينات الفيض الغزير للمواد الغذائيه,,,,,,,1,SUN,19.41552,41.05847,"311,065,052,400,003","4,603,150,097",,2024-09-15,0,,0,500.0000000,ACTIVE,Missing Documents,Potential,Required,,,,,,,,JIZAN,Zone,,
Jizan,South,,JIZ002,,,CS008153,تموينات اماسي طيبه للمواد الغذائيه,,,,,,,1,TUE,19.12473,41.08669,"311,079,026,600,003","4,603,154,517",,2024-09-15,0,,0,500.0000000,ACTIVE,Missing Documents,Potential,Required,,,,,,,,JIZAN,Zone,,
Jizan,South,,JIZ002,,,CS008203,تموينات بالك للمواد الغذائيه,,,,,,,1,WED,19.09657,41.82605,"301,107,862,100,003","5,864,527,027",,2024-09-15,0,,0,500.0000000,ACTIVE,Missing Documents,Potential,Required,,,,,,,,JIZAN,Zone,,
Jizan,South,,JIZ002,,,CS008275,شركه افضل جمله للتجاره,,,,,,,1,WED,19.13152,41.91647,"310,186,382,900,003","5,864,527,406",,2024-09-15,0,,0,500.0000000,ACTIVE,Missing Documents,Potential,Required,,,,,,,,JIZAN,Zone,,
Jizan,South,,JIZ002,,,CS008276,شركة النهضة الحديثة المحدودة 1,,,,,,,1,MON,19.57785,41.66966,"302,004,739,100,003","4,030,468,483",,2024-09-15,0,,0,500.0000000,ACTIVE,Missing Documents,Potential,Required,,,,,,,,JIZAN,Zone,,
Jizan,South,,JIZ002,,,CS008337,تموينات جنى حدروج حسن الشمراني للمواد الغذائية,,,,,,,1,THU,18.21560,41.53386,"311,112,063,700,003","5,860,616,802",,2024-09-15,0,,0,500.0000000,ACTIVE,Missing Documents,Potential,Required,,,,,,,,JIZAN,Zone,,
Jizan,South,,JIZ002,,,CS008340,تموينات نجاح عوض الله اللحياني للمواد الغذائيه,,,,,,,1,MON,19.56768,41.67066,"311,334,383,200,003","4,603,151,204",,2024-09-15,0,,0,500.0000000,ACTIVE,Missing Documents,Potential,Required,,,,,,,,JIZAN,Zone,,
Jizan,South,,JIZ002,,,CS008346,تموينات سما الغربيه للمواد الغذائيه,,,,,,,1,MON,19.63028,41.61145,"300,936,174,800,003","4,603,157,605",,2024-09-15,0,,0,500.0000000,ACTIVE,Missing Documents,Potential,Required,,,,,,,,JIZAN,Zone,,
Jizan,South,القوز,JIZ002,,,CS008347,تموينات لاين الكبرى للمواد الغذائيه,"530,489,445",,,Traditional Trade,Medium Grocery,,1,TUE,18.97073,41.31297,"305,003,746,000,003","4,603,151,155","41,113,601,972",2024-09-15,8,Credit,0,500.0000000,ACTIVE,Approved by Finance,Potential,Required,2025-05-09,2025-05-18,شارع,القوز,0,28821,0,JIZAN,Zone,,
Jizan,South,المجاردة,JIZ002,,,CS008409,متجر توفير المستهلك,"554,040,669",,,Traditional Trade,Medium Grocery,,1,WED,19.13191,41.91700,"301,010,269,700,003","5,864,061,371","40,062,044,929",2024-09-15,0,,0,500.0000000,ACTIVE,Approved by Finance,Potential,Required,2027-11-10,2024-12-24,شارع,المجاردة,0,63941,0,JIZAN,Zone,,
Jizan,South,,JIZ002,,,CS008423,بقاله الشاكر للمواد الغذائيه,,,,,,,1,SUN,19.71485,40.87071,"310,956,414,800,003","4,601,102,968",,2024-09-15,0,,0,500.0000000,ACTIVE,Missing Documents,Potential,Required,,,,,,,,JIZAN,Zone,,
Jizan,South,,JIZ002,,,CS008435,خلف احمد خلف الحربي,,,,,,,1,WED,19.13955,41.57337,"310,462,487,100,003","4,603,150,200",,2024-09-15,0,,0,500.0000000,ACTIVE,Missing Documents,Potential,Required,,,,,,,,JIZAN,Zone,,
Jizan,South,,JIZ002,,,CS008441,تموينات علي احمد محمد سويد للمواد الغذائيه,,,,,,,1,THU,17.72694,42.02859,"310,002,341,700,003","5,903,506,960",,2024-09-15,0,,0,500.0000000,ACTIVE,Missing Documents,Potential,Required,,,,,,,,JIZAN,Zone,,
Jizan,South,جيزان,JIZ002,,,CS008507,شركه متاجر الحازمي الخليجيه,"542,366,555",,,Traditional Trade,Medium Grocery,,1,SAT,20.41565,40.86480,"311,323,462,500,003","4,603,150,049","431,110,006,243",2024-09-15,0,,0,500.0000000,ACTIVE,Approved by Finance,Potential,Required,2025-04-30,2025-06-24,شارع,اضم,7743,22235,4871,JIZAN,Zone,,
Jizan,South,,JIZ002,,,CS008534,بقاله الوسام الفريق للمواد الغذائيه,,,,,,,1,THU,18.69742,41.39186,"310,763,259,300,003","5,806,101,305",,2024-09-15,0,,0,500.0000000,ACTIVE,Missing Documents,Potential,Required,,,,,,,,JIZAN,Zone,,
Jizan,South,,JIZ002,,,CS008543,تموينات هلو,,,,,,,1,WED,19.06785,41.52328,"301,004,516,700,003","5,864,043,746",,2024-09-15,0,,0,500.0000000,ACTIVE,Missing Documents,Potential,Required,,,,,,,,JIZAN,Zone,,
Jizan,South,نمرة,JIZ002,,,CS008551,تموينات الحلافي للمواد الغذائيه,"503,836,086",,,Traditional Trade,Small Grocery,,1,MON,19.57549,41.66957,"310,807,462,400,003","4,603,153,163","42,095,520,071",2024-09-15,4,Credit,0,590.3400000,ACTIVE,Approved by Finance,Potential,Required,2025-03-06,2025-03-12,الحارث,القنفذة,6493,65439,3725,JIZAN,Zone,,
Jizan,South,,JIZ002,,,CS008560,بقاله حمده حمود حامد العمري للمواد الغذائيه,,,,,,,1,MON,19.45830,41.79456,"311,249,350,600,003","4,603,156,166",,2024-09-15,0,,0,500.0000000,ACTIVE,Missing Documents,Potential,Required,,,,,,,,JIZAN,Zone,,
Jizan,South,,JIZ002,,,CS008621,تموينات قمه القوز للمواد الغذائيه,,,,,,,1,TUE,18.98721,41.31300,"311,167,729,300,003","4,603,155,283",,2024-09-15,0,,0,500.0000000,ACTIVE,Missing Documents,Potential,Required,,,,,,,,JIZAN,Zone,,
Jizan,South,,JIZ002,,,CS008622,اسواق المسارات الرائعه للتجاره,,,,,,,1,THU,18.25147,41.57725,"302,189,287,900,003","5,860,612,018",,2024-09-15,0,,0,500.0000000,ACTIVE,Missing Documents,Potential,Required,,,,,,,,JIZAN,Zone,,
Jizan,South,,JIZ002,,,CS008641,شركه نافذ الاولي التجاريه,,,,,,,1,SUN,19.53217,41.04956,"310,844,652,900,003","4,030,405,350",,2024-09-15,0,,0,500.0000000,ACTIVE,Missing Documents,Potential,Required,,,,,,,,JIZAN,Zone,,
Jizan,South,احد رفيده,JIZ002,,,CS008813,تموينات متاجر صيدا,"534,970,633",,,Traditional Trade,Medium Grocery,,1,THU,17.77785,41.93302,"310,127,037,800,003","5,850,138,815","40,011,581,071",2024-09-15,7,Credit,0,500.0000000,ACTIVE,Approved by Finance,Potential,Required,2025-09-15,2024-07-12,شارع الامير محمد بن سلمان,الحرجة,7525,62238,4151,JIZAN,Zone,,
Jizan,South,,JIZ002,,,CS008815,تموينات ايفا,,,,,,,1,THU,18.73149,41.40505,"311,124,341,300,003","4,603,154,907",,2024-09-15,0,,0,500.0000000,ACTIVE,Missing Documents,Potential,Required,,,,,,,,JIZAN,Zone,,
Jizan,South,,JIZ002,,,CS008832,تموينات الجرد,,,,,,,1,WED,18.97767,41.40738,"310,354,275,900,003","4,603,149,034",,2024-09-15,0,,0,500.0000000,ACTIVE,Missing Documents,Potential,Required,,,,,,,,JIZAN,Zone,,
Jizan,South,ثريبان,JIZ002,,,CS008862,تموينات الوفاء,"544,361,614",,,Traditional Trade,Medium Grocery,,1,WED,19.44542,41.82960,"311,305,034,800,003","4,603,156,562","440,310,646,850",2024-09-15,5,Credit,0,500.0000000,ACTIVE,Approved by Finance,Potential,Required,2025-05-07,2024-09-06,شارع,البرج,8929,65241,4762,JIZAN,Zone,,
Jizan,South,,JIZ002,,,CS008863,شركه نفحات القهوه لتقديم المشروبات,,,,,,,1,TUE,18.94701,41.32213,"311,474,964,800,003","5,867,100,147",,2024-09-15,0,,0,500.0000000,ACTIVE,Missing Documents,Potential,Required,,,,,,,,JIZAN,Zone,,
Jizan,South,,JIZ002,,,CS008910,مؤسسة متاجر ميلا للمواد الغذائية,,,,,,,1,THU,18.00054,41.67815,"311,344,383,700,003","5,867,100,127",,2024-09-15,0,,0,500.0000000,ACTIVE,Missing Documents,Potential,Required,,,,,,,,JIZAN,Zone,,
Jizan,South,,JIZ002,,,CS008912,بقاله وائل للمواد الغذائيه,,,,,,,1,THU,18.01019,41.67924,"301,256,877,200,003","5,850,102,997",,2024-09-15,0,,0,500.0000000,ACTIVE,Missing Documents,Potential,Required,,,,,,,,JIZAN,Zone,,
Jizan,South,القنفذة,JIZ002,,,CS008942,تموينات نعمة البركة,"508,159,686",,,Traditional Trade,Medium Grocery,,1,MON,19.28391,41.42569,"311,201,396,100,003","4,603,155,687","440,210,442,540",2024-09-15,7,Credit,30,730.0200000,ACTIVE,Approved by Finance,Potential,Required,2025-02-01,2023-08-20,سبت الجارة,القنفذة,1,28895,1,JIZAN,Zone,,
Jizan,South,الليث,JIZ002,,,CS008943,اسواق شدنه التجاريه,"538,530,361",,,Traditional Trade,Medium Grocery,,1,SUN,19.99174,40.56008,"312,268,167,400,003","4,601,103,020","431,210,232,389",2024-09-15,3,Credit,0,500.0000000,ACTIVE,Approved by Finance,Potential,Required,2025-05-15,2024-10-19,الوسقة شواق,الليث,0,28481,0,JIZAN,Zone,,
Jizan,South,طبرجل,JIZ002,,,CS008969,لؤلؤه الشمال,"534,764,327",,,Traditional Trade,Medium Grocery,,1,SUN,20.07483,40.44160,"311,449,651,100,003","3,402,101,425","440,511,033,949",2024-09-15,3,Credit,0,500.0000000,ACTIVE,Approved by Finance,Potential,Required,2025-04-07,2025-01-02,شارع,الليث,8220,74765,2761,JIZAN,Zone,,
Jizan,South,,JIZ002,,,CS009031,بقاله بال مال للموا د الغذائيه,,,,,,,1,WED,19.05015,41.87167,"311,374,746,800,003","5,864,527,873",,2024-09-15,0,,0,500.0000000,ACTIVE,Missing Documents,Potential,Required,,,,,,,,JIZAN,Zone,,
Jizan,South,المجاردة,JIZ002,,,CS009047,بقالة سالم  الصيعري للمواد الغذائيه,"531,696,048",,,Traditional Trade,Medium Grocery,,1,WED,19.11764,41.92186,"311,432,969,300,003","5,864,528,021","440,511,024,296",2024-09-15,4,Credit,0,500.0000000,ACTIVE,Approved by Finance,Potential,Required,2025-09-08,2023-11-15,بدر,المجاردة,2860,63981,6233,JIZAN,Zone,,
Jizan,South,,JIZ002,,,CS009055,تموينات عمر محمد عبدالله الرحماني للمواد الغذائية,,,,,,,1,TUE,19.15087,41.07569,"301,164,262,600,003","4,603,157,092",,2024-09-15,0,,0,500.0000000,ACTIVE,Missing Documents,Potential,Required,,,,,,,,JIZAN,Zone,,
Jizan,South,,JIZ002,,,CS009103,محل سما الخالديه للمواد الغذائيه,"553,591,469",,,,,,1,SAT,19.95326,41.23253,"311,660,928,100,003","5,808,101,190",,2024-09-15,0,,0,500.0000000,ACTIVE,Missing Documents,Potential,Required,,,,,,,,JIZAN,Zone,,
Jizan,South,جيزان,JIZ002,,,CS009109,تموينات الاء سعيد للمواد الغذائية,"500,091,289",,,Traditional Trade,Medium Grocery,,1,THU,17.71858,42.05358,"302,186,589,100,003","5,900,144,975","41,063,417,739",2024-09-15,5,Credit,0,500.0000000,ACTIVE,Approved by Finance,Potential,Required,2024-10-21,2025-01-06,سعيد بن عامر حزيم,السويس,0,63394,0,JIZAN,Zone,,
Jizan,South,,JIZ002,,,CS009254,اسواق سنابل اللؤلؤه للمواد الغذائيه,,,,,,,1,WED,18.88723,41.97788,"301,358,258,600,003","5,860,616,371",,2024-09-15,0,,0,500.0000000,ACTIVE,Missing Documents,Potential,Required,,,,,,,,JIZAN,Zone,,
Jizan,South,المظيلف,JIZ002,,,CS009258,تموينات التسامح التجاريه,"507,543,792",,,Traditional Trade,Medium Grocery,,1,SUN,19.51876,41.05675,"300,703,812,800,003","5,802,100,187","440,310,755,505",2024-09-15,7,Credit,0,500.0000000,ACTIVE,Approved by Finance,Potential,Required,2025-07-15,2025-09-15,طريق مكة,المظيلف,0,23468,0,JIZAN,Zone,,
Jizan,South,,JIZ002,,,CS009364,مؤسسه سميره راشد الشهري التجاريه,,,,,,,1,WED,18.93767,41.94850,"302,105,560,900,003","5,864,064,098",,2024-09-15,0,,0,500.0000000,ACTIVE,Missing Documents,Potential,Required,,,,,,,,JIZAN,Zone,,
Jizan,South,,JIZ002,,,CS009477,البهجه بارق للحلويات والمكسرات,,,,,,,1,WED,18.93465,41.94514,"311,111,111,111,113","5,864,526,883",,2024-09-15,0,,0,500.0000000,ACTIVE,Missing Documents,Potential,Required,,,,,,,,JIZAN,Zone,,
Jizan,South,المجاردة,JIZ002,,,CS009478,بقالة اجواد الزاوية للمواد الغذائية,"559,014,390",,,Traditional Trade,Medium Grocery,,1,WED,19.13322,41.92022,"311,111,111,111,113","5,850,134,971","43,079,381,226",2024-09-15,0,,0,500.0000000,ACTIVE,Approved by Finance,Potential,Required,2024-12-22,2025-01-20,بدر,المجاردة,2775,63981,6701,JIZAN,Zone,,
Jizan,South,,JIZ002,,,CS009480,تموينات الحسام المهند للمواد الغذائيه,,,,,,,1,WED,19.09903,41.92571,"310,825,489,800,003","5,864,526,717",,2024-09-15,0,,0,500.0000000,ACTIVE,Missing Documents,Potential,Required,,,,,,,,JIZAN,Zone,,
Jizan,South,,JIZ002,,,CS009484,تموينات غيمه للمواد الغذائيه,,,,,,,1,WED,19.09472,41.94020,"302,050,979,600,003","5,859,006,723",,2024-09-15,0,,0,500.0000000,ACTIVE,Missing Documents,Potential,Required,,,,,,,,JIZAN,Zone,,
Jizan,South,,JIZ002,,,CS009519,تموينات سنابل اللؤلؤة,,,,,,,1,WED,18.88863,41.97880,"301,358,258,600,003","7,026,123,435",,2024-09-15,0,,0,500.0000000,ACTIVE,Missing Documents,Potential,Required,,,,,,,,JIZAN,Zone,,
Jizan,South,,JIZ002,,,CS009526,شركة متجري المتكامل للمواد الغذائية,,,,,,,1,SUN,19.91867,40.73620,"311,296,307,500,003","7,013,371,989",,2024-09-15,0,,0,500.0000000,ACTIVE,Missing Documents,Potential,Required,,,,,,,,JIZAN,Zone,,
Jizan,South,عسير,JIZ002,,,CS009529,بقالة صالحه مشني علي عسيري للمواد الغذائية,"554,799,105",,,Traditional Trade,Medium Grocery,,1,WED,19.09266,41.94273,"310,114,723,800,003","5,864,526,067","41,103,584,087",2024-09-15,0,,0,500.0000000,ACTIVE,Needs Revise,Potential,Required,2025-02-09,2025-10-05,الخليج,الكدره,0,63973,0,JIZAN,Zone,,
Jizan,South,,JIZ002,,,CS009587,مؤسسة زبيبنه محمد ابراهيم الشهري,,,,,,,1,THU,18.01020,41.67952,"301,256,877,200,003","5,850,102,997",,2024-09-15,0,,0,500.0000000,ACTIVE,Missing Documents,Potential,Required,,,,,,,,JIZAN,Zone,,
Jizan,South,,JIZ002,,,CS009588,شركة ايلاف التوفير للتجاره,,,,,,,1,TUE,19.19700,41.23003,"311,409,586,400,003","4,603,146,954",,2024-09-15,0,,0,500.0000000,ACTIVE,Missing Documents,Potential,Required,,,,,,,,JIZAN,Zone,,
Jizan,South,القنفذة,JIZ002,,,CS009616,تموينات الماسية,"535,477,309",,,Traditional Trade,Medium Grocery,,1,SUN,19.62062,40.92736,"311,367,043,200,003","4,603,005,143","440,611,264,120",2024-09-15,0,,0,500.0000000,ACTIVE,Approved by Finance,Potential,Required,2025-05-01,2025-12-15,عبد الرحمن بن صالح,المظيلف,8052,28822,3711,JIZAN,Zone,,
Jizan,South,المجاردة,JIZ002,,,CS009654,سوبر ماركت الجامع,"530,314,345",,,Traditional Trade,Medium Grocery,,1,WED,19.13060,41.93242,"300,864,084,200,003","5,864,054,258","41,093,542,398",2024-09-15,3,Credit,0,500.0000000,ACTIVE,Approved by Finance,Potential,Required,2025-09-26,2023-12-21,النسيم,بلسمر,6153,63981,4104,JIZAN,Zone,,
Jizan,South,,JIZ002,,,CS009728,جمعيه بارق الاستهلاكيه,,,,,,,1,WED,18.93414,41.94447,"311,610,145,800,003","5,864,527,766",,2024-09-15,0,,0,500.0000000,ACTIVE,Missing Documents,Potential,Required,,,,,,,,JIZAN,Zone,,
Jizan,South,,JIZ002,,,CS009745,تموينات السمو الذهبيه,,,,,,,1,SAT,20.23914,41.04730,"310,197,611,600,003","4,031,274,934",,2024-09-15,0,,0,500.0000000,ACTIVE,Missing Documents,Potential,Required,,,,,,,,JIZAN,Zone,,
Jizan,South,,JIZ002,,,CS009805,تموينات الفارسي,,,,,,,1,MON,19.57889,41.13558,"301,184,426,600,003","4,603,004,426",,2024-09-15,0,,0,500.0000000,ACTIVE,Missing Documents,Potential,Required,,,,,,,,JIZAN,Zone,,
Jizan,South,,JIZ002,,,CS009818,تموينات واحةالحريضة للمواد الغذائية,,,,,,,1,THU,17.78467,41.94081,"311,206,455,800,003","1,109,251,593",,2024-09-15,0,,0,500.0000000,ACTIVE,Missing Documents,Potential,Required,,,,,,,,JIZAN,Zone,,
Jizan,South,,JIZ002,,,CS009860,رواسى البركه,,,,,,,1,SUN,19.55538,41.02608,"311,086,106,400,003","4,603,154,579",,2024-09-15,0,,0,500.0000000,ACTIVE,Missing Documents,Potential,Required,,,,,,,,JIZAN,Zone,,
Jizan,South,القنفذة,JIZ002,,,CS010025,تموينات نعناع اقتصاديه,"502,694,911",,,,,,1,TUE,19.14967,41.08193,"300,978,778,300,003","4,603,158,193","440,811,666,552",2024-09-15,3,Credit,0,500.0000000,ACTIVE,Approved by Finance,Potential,Required,2025-02-02,2025-02-06,الملك فيصل بن عبدالعزيز,القنفذة,0,28841,0,JIZAN,Zone,,
Jizan,South,,JIZ002,,,CS010052,تموينات سنبله للمواد الغذائية,,,,,,,1,SAT,19.96862,41.32844,"310,183,115,200,003","7,002,625,346",,2024-09-15,0,,0,500.0000000,ACTIVE,Missing Documents,Potential,Required,,,,,,,,JIZAN,Zone,,
Jizan,South,ابها,JIZ002,,,CS010068,اسواق نبض الوفاء,"500,221,705",,,Traditional Trade,Medium Grocery,,1,WED,19.07428,41.79251,"311,511,614,500,003","5,850,140,263","440,711,442,880",2024-09-15,2,Credit,0,500.0000000,ACTIVE,Approved by Finance,Potential,Required,2024-12-30,2027-01-15,خارج حدود الاحياء,الامواه,7019,63751,3993,JIZAN,Zone,,
Jizan,South,,JIZ002,,,CS010138,مؤسسة سيف خلوفه علي عسيري,,,,,,,1,WED,18.93731,41.95953,"310,990,316,400,003","5,860,618,076",,2024-09-15,0,,0,500.0000000,ACTIVE,Missing Documents,Potential,Required,,,,,,,,JIZAN,Zone,,
Jizan,South,,JIZ002,,,CS010634,تموينات حمد عبده احمد الهلالي,,,,,,,1,THU,18.45433,41.46129,"310,057,256,700,003","5,861,057,923",,2024-09-15,0,,0,500.0000000,ACTIVE,Missing Documents,Potential,Required,,,,,,,,JIZAN,Zone,,
Jizan,South,,JIZ002,,,CS010844,سعيد بن فايز,,,,,,,1,MON,19.60609,41.69188,"301,078,965,200,003","1,045,288,089",,2024-09-15,0,,0,500.0000000,ACTIVE,Missing Documents,Potential,Required,,,,,,,,JIZAN,Zone,,
Jizan,South,,JIZ002,,,CS010872,جوهره بارق للمواد الغذائيه,,,,,,,1,WED,18.98208,41.88513,"311,431,500,600,003","5,860,618,938",,2024-09-15,0,,0,500.0000000,ACTIVE,Missing Documents,Potential,Required,,,,,,,,JIZAN,Zone,,
Jizan,South,,JIZ002,,,CS011392,تموينات اضواء القمر,,,,,,,1,THU,18.65313,41.38745,"311,536,361,300,003","5,860,611,751",,2024-09-15,0,,0,500.0000000,ACTIVE,Missing Documents,Potential,Required,,,,,,,,JIZAN,Zone,,
Jizan,South,,JIZ002,,,CS011393,بقالة احمد محمد مرعي الهلالي للمواد الغذائية,,,,,,,1,WED,19.06590,41.52316,"311,378,045,300,003","4,603,157,043",,2024-09-15,0,,0,500.0000000,ACTIVE,Missing Documents,Potential,Required,,,,,,,,JIZAN,Zone,,
Jizan,South,,JIZ002,,,CS011395,تمويناتسلة ابيان للمواد الغذائية,,,,,,,1,THU,18.29576,41.51502,"300,535,412,400,003","4,030,452,465",,2024-09-15,0,,0,500.0000000,ACTIVE,Missing Documents,Potential,Required,,,,,,,,JIZAN,Zone,,
Jizan,South,,JIZ002,,,CS011399,تموينات رف بيتك,,,,,,,1,THU,18.65265,41.38702,"300,698,777,600,003","5,906,337,229",,2024-09-15,0,,0,500.0000000,ACTIVE,Missing Documents,Potential,Required,,,,,,,,JIZAN,Zone,,
Jizan,South,العريضة,JIZ002,,,CS011617,تموينات النسيم,"531,647,520",,,Traditional Trade,Medium Grocery,,1,MON,19.43286,41.76839,"310,824,453,300,003","7,015,304,970","441,012,143,419",2024-09-15,6,Credit,0,932.6400000,ACTIVE,Approved by Finance,Potential,Required,2025-07-08,2025-04-21,المصادعة,مدينة العريضة,1,28821,1,JIZAN,Zone,,
Jizan,South,,JIZ002,,,CS011636,تموينات الأمل المتحد للتجارة,,,,,,,1,TUE,18.97561,41.30484,"311,756,638,800,003","4,603,159,125",,2024-09-15,0,,0,500.0000000,ACTIVE,Missing Documents,Potential,Required,,,,,,,,JIZAN,Zone,,
Jizan,South,,JIZ002,,,CS011645,تموينات الغامدى,,,,,,,1,MON,19.27965,41.42640,"302,104,977,900,003","4,603,157,849",,2024-09-15,0,,0,500.0000000,ACTIVE,Missing Documents,Potential,Required,,,,,,,,JIZAN,Zone,,
Jizan,South,,JIZ002,,,CS011691,تموينات البيان وان للمواد الغذائية,,,,,,,1,TUE,19.11830,41.10511,"311,796,044,800,003","4,603,159,328",,2024-09-15,0,,0,500.0000000,ACTIVE,Missing Documents,Potential,Required,,,,,,,,JIZAN,Zone,,
Jizan,South,القنفذة,JIZ002,,,CS011969,بقالة ايلام للمواد الغذائية,"570,468,625",,,Traditional Trade,Medium Grocery,,1,SUN,19.52063,41.05520,"305,001,150,600,003","4,603,157,966","440,611,273,831",2024-09-15,2,Credit,0,500.0000000,ACTIVE,Approved by Finance,Potential,Required,2024-12-24,2024-12-12,المظليف,الغربية,4827,28821,6345,JIZAN,Zone,,
Jizan,South,القنفذة,JIZ002,,,CS012025,تموينات النور,"551,799,152",,,Traditional Trade,Medium Grocery,,1,SUN,19.56025,41.02035,"310,285,461,400,003","4,603,147,971","450,513,971,625",2024-09-15,0,,0,500.0000000,ACTIVE,Approved by Finance,Potential,Required,2025-08-14,2024-11-20,طريق مكة,المظيلف,4832,28821,6651,JIZAN,Zone,,
Jizan,South,,JIZ002,,,CS012100,تموينات الرحاب,,,,,,,1,TUE,19.13209,41.07147,"310,333,225,900,003","4,603,148,726",,2024-09-15,0,,0,500.0000000,ACTIVE,Missing Documents,Potential,Required,,,,,,,,JIZAN,Zone,,
Jizan,South,,JIZ002,,,CS012107,تموينات العبير الجديد للمواد الغذائية,,,,,,,1,WED,19.04783,41.86658,"311,721,923,500,003","5,864,528,214",,2024-09-15,0,,0,500.0000000,ACTIVE,Missing Documents,Potential,Required,,,,,,,,JIZAN,Zone,,
Jizan,South,مخوا,JIZ002,,,CS012296,تموينات افراد الاسره للمواد الغذائيه,"509,805,788",,,Traditional Trade,Medium Grocery,,1,MON,19.72373,41.41487,"311,605,103,900,003","7,014,047,380","451,015,385,006",2024-09-15,8,Credit,18,1207.7800000,ACTIVE,Approved by Finance,Potential,Required,2025-04-21,2025-04-19,شارع,النسيم,0,65312,0,JIZAN,Zone,,
Jizan,South,,JIZ002,,,CS012342,اسواق ليالى بارق,,,,,,,1,WED,19.01126,41.87918,"311,457,299,300,003","5,855,342,730",,2024-09-15,0,,0,500.0000000,ACTIVE,Missing Documents,Potential,Required,,,,,,,,JIZAN,Zone,,
Jizan,South,,JIZ002,,,CS012415,تموينات امين الحريضه للمواد الغذائية,,,,,,,1,THU,17.78763,41.94157,"311,203,273,500,003","5,850,135,788",,2024-09-15,0,,0,500.0000000,ACTIVE,Missing Documents,Potential,Required,,,,,,,,JIZAN,Zone,,
Jizan,South,,JIZ002,,,CS012416,تموينات متاجر الحريضة الجديدة للمواد الغذائية,,,,,,,1,THU,17.78831,41.94124,"311,393,260,500,003","5,850,125,507",,2024-09-15,0,,0,500.0000000,ACTIVE,Missing Documents,Potential,Required,,,,,,,,JIZAN,Zone,,
Jizan,South,,JIZ002,,,CS012417,تموينات خير الساحل للمواد الغذائية,,,,,,,1,THU,17.79419,41.94273,"310,735,189,700,003","5,861,616,639",,2024-09-15,0,,0,500.0000000,ACTIVE,Missing Documents,Potential,Required,,,,,,,,JIZAN,Zone,,
Jizan,South,,JIZ002,,,CS012418,الواحه,,,,,,,1,THU,17.81321,41.94694,"311,321,867,500,003","5,850,137,421",,2024-09-15,0,,0,500.0000000,ACTIVE,Missing Documents,Potential,Required,,,,,,,,JIZAN,Zone,,
Jizan,South,,JIZ002,,,CS012419,فردوس الحريضه,,,,,,,1,THU,17.79090,41.94266,"311,387,617,200,003","5,861,614,400",,2024-09-15,0,,0,500.0000000,ACTIVE,Missing Documents,Potential,Required,,,,,,,,JIZAN,Zone,,
Jizan,South,الشاقة / الصهوة,JIZ002,,,CS012421,أسواق الجوهرة اللامعة التجارية,"571,760,944",,,Traditional Trade,Medium Grocery,,1,SUN,19.97109,40.66674,"311,127,495,600,003","4,603,159,003","450,614,309,583",2024-09-15,1,Credit,0,500.0000000,ACTIVE,Approved by Finance,Potential,Required,2025-07-17,2028-12-25,سعد بن ابي وقاص,الوسقة,8207,28487,5252,JIZAN,Zone,,
Jizan,South,القوز,JIZ002,,,CS012589,تموينات الرفا,"538,880,422",,,Traditional Trade,Medium Grocery,,1,TUE,18.94104,41.32325,"311,109,698,600,003","4,603,154,772","40,031,764,329",2024-09-15,11,Credit,0,867.3400000,ACTIVE,Approved by Finance,Potential,Required,2024-11-10,2024-09-04,شارع,القوز,1,28925,1,JIZAN,Zone,,
Jizan,South,,JIZ002,,,CS012590,دكان يحيى للتجاره,,,,,,,1,TUE,18.94761,41.32217,"311,185,800,200,003","4,603,160,065",,2024-09-15,0,,0,500.0000000,ACTIVE,Missing Documents,Potential,Required,,,,,,,,JIZAN,Zone,,
Jizan,South,الرياض,JIZ002,,,CS012606,رود مركت,"554,851,656",,,Traditional Trade,Medium Grocery,,1,TUE,19.14960,41.08465,"310,010,998,100,003","1,010,947,290","450,815,056,377",2024-09-15,1,Credit,0,500.0000000,ACTIVE,Approved by Finance,Potential,Required,2025-11-06,2025-03-08,الملك فيصل بن عبد العزيز,القنفذة,8199,12692,3465,JIZAN,Zone,,
Jizan,South,عسير,JIZ002,,,CS012725,تموينات جابر للمواد الغذائية,"552,452,403",,,Traditional Trade,Medium Grocery,,1,WED,19.05035,41.77799,"311,170,849,500,003","5,864,528,310","450,614,198,770",2024-09-15,2,Credit,0,500.0000000,ACTIVE,Approved by Finance,Potential,Required,2025-10-02,2025-12-03,شارع,الامواه,0,63941,0,JIZAN,Zone,,
Jizan,South,,JIZ002,,,CS012755,تموينات شوق للمواد الغذائية,,,,,,,1,TUE,19.12761,41.07724,"310,722,133,500,003","4,603,152,418",,2024-09-15,0,,0,500.0000000,ACTIVE,Missing Documents,Potential,Required,,,,,,,,JIZAN,Zone,,
Jizan,South,القنفذة,JIZ002,,,CS012786,تموينات ركن الشاطئ,"535,836,915",,,Traditional Trade,Small Grocery,,1,TUE,19.13776,41.08178,"310,112,626,900,003","4,603,155,032","43,059,035,132",2024-09-15,4,Credit,12,500.9200000,ACTIVE,Approved by Finance,Potential,Required,2027-12-09,2024-11-29,القنفذة,القنفذة,0,28821,4832,JIZAN,Zone,,
Jizan,South,القنفذة,JIZ002,,,CS012824,تموينات بداية الشاطي للمواد الغذائية,"509,529,179",,,Traditional Trade,Medium Grocery,,1,TUE,19.17015,41.07563,"310,286,688,500,003","4,603,158,554","441,112,396,480",2024-09-15,3,Credit,0,500.0000000,ACTIVE,Approved by Finance,Potential,Required,2025-04-13,2025-05-16,شارع,الغربية,4608,28821,6666,JIZAN,Zone,,
Jizan,South,القنفذة,JIZ002,,,CS012826,تموينات سلال البرج للمواد الغذائية,"559,930,939",,,Traditional Trade,Medium Grocery,,1,TUE,19.11879,41.09037,"311,626,027,600,003","4,603,158,530","441,112,228,244",2024-09-15,7,Credit,0,500.0000000,ACTIVE,Approved by Finance,Potential,Required,2025-04-07,2025-04-28,عامر بن الجراح,البرج,8192,28822,3922,JIZAN,Zone,,
Jizan,South,,JIZ002,,,CS012833,تموينات شوق 2,,,,,,,1,TUE,19.12729,41.08665,"310,722,133,500,003","4,603,151,706",,2024-09-15,0,,0,500.0000000,ACTIVE,Missing Documents,Potential,Required,,,,,,,,JIZAN,Zone,,
Jizan,South,قلوة,JIZ002,,,CS012869,سوبر ماركت المئوية,"530,455,410",,,Traditional Trade,Medium Grocery,,1,SAT,19.94976,41.23771,"310,028,937,400,003","5,808,101,023","40,041,980,453",2024-09-15,0,,0,500.0000000,ACTIVE,Approved by Finance,Potential,Required,2025-03-02,2026-07-03,قلوة,المقيد,8846,65336,4657,JIZAN,Zone,,
Jizan,South,القنفذة,JIZ002,,,CS012906,اسواق الفنار للمواد الغذائية,"559,923,979",,,Traditional Trade,Medium Grocery,,1,SUN,19.21738,41.09118,"302,133,645,800,003","4,036,100,637","450,915,260,288",2024-09-15,5,Credit,7,1166.7900000,ACTIVE,Approved by Finance,Potential,Required,2027-10-09,2025-03-20,طريق مكة,الرحمانية,0,12326,13223,JIZAN,Zone,,
Jizan,South,,JIZ002,,,CS012936,تموينات البرزة للمواد الغذائية,,,,,,,1,TUE,19.16792,41.06160,"310,233,509,800,003","450,614,266,202",,2024-09-15,0,,0,500.0000000,ACTIVE,Missing Documents,Potential,Required,,,,,,,,JIZAN,Zone,,
Jizan,South,محايل عسير,JIZ002,,,CS012997,تموينات زوايا الدكان,"533,821,045",,,,,,1,THU,18.64642,41.38995,"301,315,486,500,003","5,865,067,544","451,115,882,781",2024-09-15,4,Credit,0,500.0000000,ACTIVE,Approved by Finance,Potential,Required,2024-07-14,2025-05-23,حي صعبان,البلد,0,63335,0,JIZAN,Zone,,
Jizan,South,رجال ألمع,JIZ002,,,CS013011,شركه المع الربيع,"535,121,192",,,Traditional Trade,Medium Grocery,,1,WED,18.96857,41.90254,"311,536,431,100,003","5,861,615,688","450,714,641,354",2024-09-15,4,Credit,0,500.0000000,ACTIVE,Approved by Finance,Potential,Required,2025-04-18,2025-02-06,الرحاب,القري,9440,63473,3253,JIZAN,Zone,,
Jizan,South,المجاردة,JIZ002,,,CS013090,اسواق علي محمد بن محمد الشهري للمواد الغذائية,"538,443,437",,,Traditional Trade,Medium Grocery,,1,WED,19.11534,41.62818,"302,113,536,800,003","5,864,528,584","451,115,820,966",2024-09-15,3,Credit,4,500.0000000,ACTIVE,Approved by Finance,Potential,Required,2025-04-26,2025-05-17,خارج حدود الاحياء,القري,6209,63971,3255,JIZAN,Zone,,
Jizan,South,القنفذة,JIZ002,,,CS013125,تموينات اسناد,"551,637,828",,,Traditional Trade,Medium Grocery,,1,TUE,19.18728,41.08918,"310,224,310,500,003","4,603,147,042","451,215,987,778",2024-09-15,4,Credit,20,557.9600000,ACTIVE,Approved by Finance,Potential,Required,2025-05-08,2024-12-13,المستقبل,وادي عمدان,0,28822,0,JIZAN,Zone,,
Jizan,South,العينة,JIZ002,,,CS013134,تموينات مقبول الذيبى,"502,636,514",,,,,,1,THU,18.73619,41.40535,"310,685,018,500,003","4,603,151,470","3,909,612,787",2024-09-15,3,Credit,8,500.0000000,ACTIVE,Approved by Finance,Potential,Required,2586-10-13,2022-01-13,إبراهيم الخليل,القنفذة,3351,28981,6369,JIZAN,Zone,,
Jizan,South,,JIZ002,,,CS013137,بقاله سهى,"503,944,921",,,,,,1,THU,18.77016,41.38274,"302,238,795,700,003","7,023,494,748",,2024-09-15,0,,0,500.0000000,ACTIVE,Missing Documents,Potential,Required,,,,,,,,JIZAN,Zone,,
Jizan,South,,JIZ002,,,CS013142,اليمامه ماركت,,,,,,,1,WED,19.10338,41.92884,"310,828,160,500,003","5,864,526,529",,2024-09-15,0,,0,500.0000000,ACTIVE,Missing Documents,Potential,Required,,,,,,,,JIZAN,Zone,,
Jizan,South,المجاردة,JIZ002,,,CS013155,تموينات الحياه,"530,025,168",,,Traditional Trade,Medium Grocery,,1,WED,19.10168,41.93405,"311,842,422,800,003","5,864,528,319","450,313,451,026",2024-09-15,4,Credit,0,500.0000000,ACTIVE,Approved by Finance,Potential,Required,2025-10-06,2025-09-16,ابن خلدون,المجاردة,8672,63973,3453,JIZAN,Zone,,
Jizan,South,القنفذة,JIZ002,,,CS013162,تموينات احمد,"500,854,641",,,Traditional Trade,Medium Grocery,,1,TUE,19.10235,41.15165,"311,226,717,300,003","4,603,157,375","450,714,586,470",2024-09-15,5,Credit,0,500.0000000,ACTIVE,Approved by Finance,Potential,Required,2025-09-17,2026-01-04,شارع,الغربية,3241,28822,8638,JIZAN,Zone,,
Jizan,South,بارق,JIZ002,,,CS013225,سوبر ماركت بن مخلى,"508,291,202",,,Traditional Trade,Medium Grocery,,1,WED,18.98372,41.88478,"310,322,509,900,003","5,864,525,497","440,711,553,545",2024-09-15,8,Credit,0,500.0000000,ACTIVE,Approved by Finance,Potential,Required,2025-09-21,2026-01-05,بارق,القري,7369,63972,2654,JIZAN,Zone,,
Jizan,South,بارق,JIZ002,,,CS013226,سوبر ماركت كاملة,"552,018,350",,,Traditional Trade,Medium Grocery,,1,WED,18.98427,41.88533,"311,085,840,900,003","5,850,139,879","440,711,463,742",2024-09-15,4,Credit,0,500.0000000,ACTIVE,Approved by Finance,Potential,Required,2025-11-25,2026-12-27,شارع,الربوة,3829,63897,9068,JIZAN,Zone,,
Jizan,South,جيزان,JIZ002,,,CS013253,شركة رمز مارت التجارية,"502,370,518",,,Traditional Trade,Medium Grocery,,1,THU,17.71301,42.06853,"311,243,742,600,003","5,906,328,280","451,015,576,844",2024-09-15,7,Credit,8,881.2900000,ACTIVE,Approved by Finance,Potential,Required,2026-02-03,2025-05-19,شارع,مدينة جيزان,0,89926,0,JIZAN,Zone,,
Jizan,South,,JIZ002,,,CS013256,مؤسسة المسرات المتميزة التجارية,,,,,,,1,SAT,19.77985,41.43641,"310,779,627,600,003","440,310,750,471",,2024-09-15,0,,0,500.0000000,ACTIVE,Missing Documents,Potential,Required,,,,,,,,JIZAN,Zone,,
Jizan,South,المخواة,JIZ002,,,CS013258,تموينات عياش الاقتصادية للمواد الغذائية,"503,779,762",,,Traditional Trade,Medium Grocery,,1,MON,19.75638,41.43300,"311,145,097,700,003","5,806,101,720","43,079,372,048",2024-09-15,4,Credit,0,500.0000000,ACTIVE,Approved by Finance,Potential,Required,2024-12-15,2025-01-18,الامير متعب بن عبد العزيز,مخوا,5350,65312,6562,JIZAN,Zone,,
Jizan,South,,JIZ002,,,CS013326,شركه الموارد النافعه التجاريه شخص واحد,,,,,,,1,TUE,19.16487,41.07369,"311,998,688,600,003","450,814,956,064",,2024-09-15,0,,0,500.0000000,ACTIVE,Missing Documents,Potential,Required,,,,,,,,JIZAN,Zone,,
Jizan,South,الدرب,JIZ002,,,CS013330,تموينات عامر,"530,686,648",,,Traditional Trade,Medium Grocery,,1,THU,17.96408,41.69421,"311,975,218,700,003","5,867,100,219","451,215,976,295",2024-09-15,5,Credit,0,554.7600000,ACTIVE,Approved by Finance,Potential,Required,2025-12-23,2025-06-03,شارع,الساحل,0,63255,0,JIZAN,Zone,,
Jizan,South,,JIZ002,,,CS013431,تموينات الهميطي,,,,,,,1,SAT,19.92516,41.27208,"311,312,298,100,003","41,012,552,456",,2024-09-15,0,,0,500.0000000,ACTIVE,Missing Documents,Potential,Required,,,,,,,,JIZAN,Zone,,
Jizan,South,,JIZ002,,,CS013432,تموينات تسعه نجوم,,,,,,,1,SAT,19.93605,41.25712,"311,374,912,800,003","460,116,182,958",,2024-09-15,0,,0,500.0000000,ACTIVE,Missing Documents,Potential,Required,,,,,,,,JIZAN,Zone,,
Jizan,South,,JIZ002,,,CS013438,وسام خاط,,,,,,,1,WED,19.08497,41.99811,"310,657,168,400,003","5,855,347,421",,2024-09-15,0,,0,500.0000000,ACTIVE,Missing Documents,Potential,Required,,,,,,,,JIZAN,Zone,,
Jizan,South,,JIZ002,,,CS013476,شركة ركن روائع المكسرات التجارية,,,,,,,1,SAT,19.78004,41.43526,"311,308,246,100,003","41,062,976,230",,2024-09-15,0,,0,500.0000000,ACTIVE,Missing Documents,Potential,Required,,,,,,,,JIZAN,Zone,,
Jizan,South,المظيلف,JIZ002,,,CS013478,تموينات الامين,"560,494,171",,,Traditional Trade,Medium Grocery,,1,SUN,19.53738,41.04628,"302,116,719,200,003","4,603,153,348","3,909,671,683",2024-09-15,4,Credit,0,500.0000000,ACTIVE,Approved by Finance,Potential,Required,2026-03-26,2026-08-29,1226 المظيلف,المظيلف,5159,28739,8728,JIZAN,Zone,,
Jizan,South,,JIZ002,,,CS013511,بقاله سليمان راجح ابراهيم السميري للمواد الغذائيه,,,,,,,1,TUE,19.12919,41.08310,"312,362,228,200,003","4,603,161,284",,2024-09-15,0,,0,500.0000000,ACTIVE,Missing Documents,Potential,Required,,,,,,,,JIZAN,Zone,,
Jizan,South,,JIZ002,,,CS013512,تموينات اول بلس للمواد الغذائية,,,,,,,1,TUE,19.12943,41.08321,"312,185,971,200,003","4,603,160,818",,2024-09-15,0,,0,500.0000000,ACTIVE,Missing Documents,Potential,Required,,,,,,,,JIZAN,Zone,,
Jizan,South,دوقة,JIZ002,,,CS013514,مخابز وتموينات الابراج هنا,"558,153,618",,,Traditional Trade,Medium Grocery,,1,SUN,19.64213,40.95359,"311,171,847,400,003","4,601,103,404","451,015,541,058",2024-09-15,3,Credit,0,500.0000000,ACTIVE,Approved by Finance,Potential,Required,2025-01-12,2025-05-23,الشهيب المسيليم الدوقة,الليث,6882,28736,4029,JIZAN,Zone,,
Jizan,South,,JIZ002,,,CS013540,مؤسسة بشرى الزهراني,,,,,,,1,SAT,19.96863,41.33270,"311,756,194,700,003","41,032,617,173",,2024-09-15,0,,0,500.0000000,ACTIVE,Missing Documents,Potential,Required,,,,,,,,JIZAN,Zone,,
Jizan,South,جدة,JIZ002,,,CS013828,أسواق العمري,"548,117,264",,,Traditional Trade,Medium Grocery,,1,SUN,20.04826,40.48572,"311,015,208,200,003","4,030,508,998","451,115,803,206",2024-10-17,6,Credit,15,1075.4100000,ACTIVE,Approved by Finance,Agent Registration,Required,2026-04-17,2025-06-30,شارع,الليث,3658,24943,7111,JIZAN,Zone,,
Jizan,South,,JIZ002,,,CS013848,,"551,437,211",,,,,,1,MON,19.39707,41.46162,,,,2024-10-19,0,,0,500.0000000,ACTIVE,Missing Documents,Agent Registration,Required,,,,,,,,JIZAN,Zone,,
Jizan,South,القنفذة,JIZ002,,,CS013853,تموينات وتين المميزة للمواد الغذائية,"551,951,864",,,Traditional Trade,Medium Grocery,,1,MON,19.44407,41.37458,"310,763,259,300,003","4,603,154,108","41,042,633,091",2024-10-19,0,,0,500.0000000,ACTIVE,Approved by Finance,Agent Registration,Required,2025-08-19,2025-07-29,شارع,القنفذة,9135,28862,2513,JIZAN,Zone,,
