Area,Region,City,Zone,AgentId,AgentName,CusId,CusName,BuyerPhone,ReceiverPhone,FinancePhone,CH,SubChannel,F,StartWeeks,Days,Latitude,Longitude,VAT,CR,BL,createdDate,TotalDeliveredOrders,PaymentType,CreditDays,CreditLimit,Status,Validation,CreationType,CheckIn,CRExpiryDate,BLExpiryDate,StreetName,DistrictName,AdditionalNum,ZipCode,BuildingNumber,DC,AssignmentType,Geocode Quality,Full Corrected Address
,,حبونا,HAIL002,AG00301,ELTAHIR  HASSAN,CS002003,ركن الاختيار للمواد الغذائية,"595,500,489",,,Traditional Trade,Medium Grocery,,1,SAT,27.54666,41.71698,"310,520,246,100,003","3,350,152,643","42,085,447,626",2023-10-01,1,,0,0.0000000,In-Active,Approved by Finance,Agent Registration,Required,2025-02-22,2026-02-13,الامير نايف بن عبدالعزيز,المنتزه الشرقي,......,.....,....,HAIL,Zone,,
,,حبونا,HAIL002,AG00301,ELTAHIR  HASSAN,CS002018,ركن عروب للمواد الغذائية,"502,520,041",,,Traditional Trade,Medium Grocery,,1,SAT,27.54706,41.71859,"310,961,550,500,003","3,350,154,041","430,580,164,485",2023-10-01,1,,0,0.0000000,In-Active,Approved by Finance,Agent Registration,Required,,,الهادي,المنتزه الشمالي,.....,....,....,HAIL,Zone,,
,,موقق,HAIL002,AG00301,ELTAHIR  HASSAN,CS014773,بقالة حبيبه سليمان ثعلوق السعدي,"538,985,376",,,Traditional Trade,Medium Grocery,,1,MON,27.52024,41.69113,"302,046,674,100,003","3,350,152,083","460,617,793,348",2025-01-07,2,Credit,0,500.0000000,ACTIVE,Approved by Finance,Potential,Required,2025-01-08,2025-11-21,قصيريات,موقق,9002,55342,2849,HAIL,Zone,,
,,,HAIL002,AG00301,ELTAHIR  HASSAN,CS014774,شركة زين المتحده للتجارة,,,,,,,1,MON,27.52201,41.69089,,,,2025-01-07,0,,0,500.0000000,ACTIVE,Missing Documents,Potential,Required,,,,,,,,HAIL,Zone,,
,,حائل,HAIL002,AG00301,ELTAHIR  HASSAN,CS014775,بن خميس,"503,923,414",,,Traditional Trade,Medium Grocery,,2,TUE,27.50717,41.72844,"310,807,391,400,003","3,350,165,467","441,212,616,534",2025-01-07,11,Credit,15,100000.0000000,ACTIVE,Approved by Finance,Potential,Required,2025-05-05,2025-08-13,شارع,السلام,0,55426,0,Corporate Business,Zone,,
,,,HAIL002,AG00301,ELTAHIR  HASSAN,CS014777,أسواق دار الشمال للمواد الغذائية,,,,,,,1,MON,27.52041,41.69118,,,,2025-01-07,0,,0,500.0000000,ACTIVE,Missing Documents,Potential,Required,,,,,,,,HAIL,Zone,,
,,,HAIL002,AG00301,ELTAHIR  HASSAN,CS014778,شركة وسائل للتجارة,,,,,,,1,MON,27.51929,41.69232,,,,2025-01-07,0,,0,500.0000000,ACTIVE,Missing Documents,Potential,Required,,,,,,,,HAIL,Zone,,
,,,HAIL002,AG00301,ELTAHIR  HASSAN,CS014780,أسواق شروق الزمن التجارية,,,,,,,2,THU,25.78605,40.59102,,,,2025-01-07,0,,0,500.0000000,ACTIVE,Missing Documents,Potential,Required,,,,,,,,HAIL,Zone,,
,,,HAIL002,AG00301,ELTAHIR  HASSAN,CS014781,مؤسسة مبخوت الصيعري,,,,,,,2,SUN,27.47034,41.76182,,,,2025-01-07,0,,0,500.0000000,ACTIVE,Missing Documents,Potential,Required,,,,,,,,HAIL,Zone,,
,,,HAIL002,AG00301,ELTAHIR  HASSAN,CS014785,مؤسسة عائض مفرح بن ظافر السبيعي للتجارة,,,,,,,2,SUN,27.50841,41.70010,,,,2025-01-07,0,,0,500.0000000,ACTIVE,Missing Documents,Potential,Required,,,,,,,,HAIL,Zone,,
,,,HAIL002,AG00301,ELTAHIR  HASSAN,CS014787,شركه مجموعه عبد الرحمن السيف 1,,,,,,,1,SUN,27.20346,42.48485,,,,2025-01-07,0,,0,500.0000000,ACTIVE,Missing Documents,Potential,Required,,,,,,,,HAIL,Zone,,
,,الدارة,HAIL002,AG00301,ELTAHIR  HASSAN,CS014788,تموينات هدى فهد فايد الشمري للمواد الغذائية,"555,819,852",,,Traditional Trade,Medium Grocery,,1,WED,26.97623,41.48017,"311,111,111,111,113","3,350,162,819","450,213,212,999",2025-01-07,7,Credit,0,631.6200000,ACTIVE,Approved by Finance,Potential,Required,2026-10-26,2025-08-25,شارع,الرقاب,5117,55299,7029,HAIL,Zone,,
,,حائل,HAIL002,AG00301,ELTAHIR  HASSAN,CS014798,اسواق و مخابزشركة سما الأصيل التجارية,"501,334,676",,,Traditional Trade,Medium Grocery,,2,THU,25.99285,40.47434,"311,227,962,300,003","3,356,354,961","41,052,640,647",2025-01-07,9,Credit,0,2980.0200000,ACTIVE,Approved by Finance,Potential,Required,2026-01-15,2026-09-24,طريق الملك عبد العزيز,الرقاب,0,57359,0,HAIL,Zone,,
,,حائل,HAIL002,AG00301,ELTAHIR  HASSAN,CS014808,مخابز شركة بروق للمواد الغذائية,"533,530,822",,,Traditional Trade,Medium Grocery,,2,THU,25.98265,40.45878,"311,342,663,100,003","4,032,233,754","39,111,462,987",2025-01-07,7,Credit,10,2358.2700000,ACTIVE,Approved by Finance,Potential,Required,2586-08-26,2025-02-10,حليفة,المحطة,9277,55241,4901,HAIL,Zone,,
,,,HAIL002,AG00301,ELTAHIR  HASSAN,CS014812,مؤسسة وليد نايف بن سعود آل على التحارية,,,,,,,2,TUE,27.51994,41.70147,,,,2025-01-07,0,,0,500.0000000,ACTIVE,Missing Documents,Potential,Required,,,,,,,,HAIL,Zone,,
,,,HAIL002,AG00301,ELTAHIR  HASSAN,CS014816,أسواق مضارب المشرق,,,,,,,1,SUN,27.30379,42.25596,,,,2025-01-07,0,,0,500.0000000,ACTIVE,Missing Documents,Potential,Required,,,,,,,,HAIL,Zone,,
,,الدارة,HAIL002,AG00301,ELTAHIR  HASSAN,CS014819,أسواق هيفاء الشمري,"557,618,004",,,Traditional Trade,Medium Grocery,,1,WED,26.97307,41.48270,"311,104,107,200,003","3,357,607,444","40,112,489,864",2025-01-07,5,Credit,10,733.1300000,ACTIVE,Approved by Finance,Potential,Required,2025-05-26,2026-04-21,شارع,الرقاب,2621,57647,9300,HAIL,Zone,,
,,حائل,HAIL002,AG00301,ELTAHIR  HASSAN,CS014820,أسواق تاون المركزية,"507,005,695",,,Traditional Trade,Medium Grocery,,2,SAT,27.45137,41.64455,"300,994,786,100,003","3,350,157,991","43,079,417,586",2025-01-07,13,Credit,0,947.0200000,ACTIVE,Approved by Finance,Potential,Required,2025-12-06,2025-02-12,شارع,الحائط,8495,55215,3213,HAIL,Zone,,
,,,HAIL002,AG00301,ELTAHIR  HASSAN,CS014821,تموينات قادي سدران البلاد,"538,164,695",,,,,,1,SAT,27.55302,41.72645,,,,2025-01-07,0,,0,500.0000000,ACTIVE,Missing Documents,Potential,Required,,,,,,,,HAIL,Zone,,
,,الحليفة العليا,HAIL002,AG00301,ELTAHIR  HASSAN,CS014825,أسواق بروق,"555,849,568",,,Traditional Trade,Medium Grocery,,2,THU,25.94151,40.73431,"311,601,803,100,003","3,350,165,141","451,015,545,010",2025-01-07,5,Credit,0,1661.4300000,ACTIVE,Approved by Finance,Potential,Required,2025-05-05,2025-05-25,شارع,المحطة,2071,57516,6289,HAIL,Zone,,
,,حائل,HAIL002,AG00301,ELTAHIR  HASSAN,CS014837,تموينات جوهرة المدائن للمواد الغذائية,"580,373,929",,,Traditional Trade,Medium Grocery,,2,MON,27.38958,41.72009,"301,313,463,700,003","3,350,149,447","42,013,869,328",2025-01-07,3,Credit,0,500.0000000,ACTIVE,Approved by Finance,Potential,Required,2025-07-23,2025-08-27,شارع,المنتزه الغربي,8394,55225,5659,HAIL,Zone,,
,,حائل,HAIL002,AG00301,ELTAHIR  HASSAN,CS014839,تموينات سلة حائل للمواد الغذائية,"505,920,527",,,Traditional Trade,Medium Grocery,,1,THU,27.49120,41.68184,"300,526,792,900,003","3,350,152,007","42,105,740,872",2025-01-07,1,Credit,0,500.0000000,ACTIVE,Approved by Finance,Potential,Required,2587-04-20,2025-04-25,الجامعيين,الوسيطاء,3585,55421,7171,HAIL,Zone,,
,,الحائط,HAIL002,AG00301,ELTAHIR  HASSAN,CS014842,بقالة أراس الابيض للمواد الغذائية,"542,532,618",,,Traditional Trade,Medium Grocery,,2,THU,25.97804,40.45440,"310,687,263,800,003","3,356,354,859","40,072,079,435",2025-01-07,9,Credit,3,800.1200000,ACTIVE,Approved by Finance,Potential,Required,2025-07-13,2026-01-06,شارع,العزيزية,2833,57359,6972,HAIL,Zone,,
,,حائل,HAIL002,AG00301,ELTAHIR  HASSAN,CS014843,تموينات دار طي للمواد الغذائية,"536,292,782",,,Traditional Trade,Medium Grocery,,1,SAT,27.55202,41.72588,"301,078,568,100,003","3,350,151,946","42,085,418,637",2025-01-07,8,Credit,9,1178.6200000,ACTIVE,Approved by Finance,Potential,Required,2025-12-04,2026-03-26,شارع,شنان,9450,55428,5037,HAIL,Zone,,
,,,HAIL002,AG00301,ELTAHIR  HASSAN,CS014844,موسسه التقدم  للمواد الغذائية,,,,,,,2,THU,26.07589,40.70723,,,,2025-01-07,0,,0,500.0000000,ACTIVE,Missing Documents,Potential,Required,,,,,,,,HAIL,Zone,,
,,,HAIL002,AG00301,ELTAHIR  HASSAN,CS014846,اسواق الرشد الحليفة,,,,,,,2,THU,25.99017,40.81022,,,,2025-01-07,0,,0,500.0000000,ACTIVE,Missing Documents,Potential,Required,,,,,,,,HAIL,Zone,,
,,حائل,HAIL002,AG00301,ELTAHIR  HASSAN,CS014849,شركة طيبات سلتي,"506,325,800",,,Traditional Trade,Medium Grocery,,1,THU,27.49872,41.69469,"310,400,146,500,003","3,350,021,695","440,811,816,330",2025-01-07,6,Credit,14,2002.6400000,ACTIVE,Approved by Finance,Potential,Required,2025-11-05,2026-02-11,شارع,المطار,0,55421,0,HAIL,Zone,,
,,,HAIL002,AG00301,ELTAHIR  HASSAN,CS014853,موسسة حماد نايف خلف الشمري,,,,,,,2,SUN,27.50832,41.69865,,,,2025-01-07,0,,0,500.0000000,ACTIVE,Missing Documents,Potential,Required,,,,,,,,HAIL,Zone,,
,,,HAIL002,AG00301,ELTAHIR  HASSAN,CS014856,تموينات احمد سعود عبدالله العريفي,"595,182,154",,,,,,2,MON,27.46744,41.69703,,,,2025-01-07,0,,0,500.0000000,ACTIVE,Missing Documents,Potential,Required,,,,,,,,HAIL,Zone,,
,,,HAIL002,AG00301,ELTAHIR  HASSAN,CS014859,مؤسسة محمود مزوق حبي الرشيدي,"561,628,770",,,,,,2,THU,25.98977,40.80468,,,,2025-01-07,0,,0,500.0000000,ACTIVE,Missing Documents,Potential,Required,,,,,,,,HAIL,Zone,,
,,حائل,HAIL002,AG00301,ELTAHIR  HASSAN,CS014860,أسواق بروق,"593,920,971",,,Traditional Trade,Large Grocery,,2,THU,26.01981,40.81272,"311,351,970,900,003","3,356,355,634","440,310,719,782",2025-01-07,3,Credit,17,500.0000000,ACTIVE,Approved by Finance,Potential,Required,2026-01-22,2025-09-20,شارع,الحائط,0,52796,0,HAIL,Zone,,
,,حائل,HAIL002,AG00301,ELTAHIR  HASSAN,CS014861,أسواق و مخابز شركة بروق للمواد الغذائية,"505,203,441",,,Traditional Trade,Large Grocery,,2,THU,25.95701,40.61618,"310,821,697,500,003","3,356,355,260","43,059,045,808",2025-01-07,3,Credit,0,622.1500000,ACTIVE,Approved by Finance,Potential,Required,2025-10-15,2027-01-15,شارع,العرضية,0,44417,0,HAIL,Zone,,
,,,HAIL002,AG00301,ELTAHIR  HASSAN,CS014863,اسواق نايف الحايط,,,,,,,2,THU,26.01214,40.47168,,,,2025-01-07,0,,0,500.0000000,ACTIVE,Missing Documents,Potential,Required,,,,,,,,HAIL,Zone,,
,,حائل,HAIL002,AG00301,ELTAHIR  HASSAN,CS014865,تموينات راي كيف للمواد الغذائية,"531,946,730",,,Traditional Trade,Medium Grocery,,1,SAT,27.55355,41.74979,"301,220,367,300,003","3,350,159,167","440,511,048,996",2025-01-07,7,Credit,0,500.0000000,ACTIVE,Approved by Finance,Potential,Required,2025-02-14,2026-10-17,عاتكة بن زيد,الوسطية,2821,55425,7967,HAIL,Zone,,
,,الشنان,HAIL002,AG00301,ELTAHIR  HASSAN,CS014866,اسواق زاد بلدتي,"532,682,805",,,Traditional Trade,Medium Grocery,,1,SUN,27.17019,42.44099,"310,348,594,800,003","3,365,100,526","43,069,108,294",2025-01-07,16,Credit,13,7062.5400000,ACTIVE,Approved by Finance,Potential,Required,2025-05-15,2025-01-19,شارع عام,الشنان,2840,53431,9651,HAIL,Zone,,
,,,HAIL002,AG00301,ELTAHIR  HASSAN,CS014868,مؤسسة العنود عبدالله نافع العنزي للمواد الغذائية,,,,,,,2,THU,25.99590,40.80579,,,,2025-01-07,0,,0,500.0000000,ACTIVE,Missing Documents,Potential,Required,,,,,,,,HAIL,Zone,,
,,,HAIL002,AG00301,ELTAHIR  HASSAN,CS014872,تموينات اضواء حائل للمواد الغذائية,,,,,,,2,WED,27.50799,41.66667,,,,2025-01-07,0,,0,500.0000000,ACTIVE,Missing Documents,Potential,Required,,,,,,,,HAIL,Zone,,
,,,HAIL002,AG00301,ELTAHIR  HASSAN,CS014876,شركة لمار السلام التجاريه,,,,,,,2,THU,25.99106,40.80906,,,,2025-01-07,0,,0,500.0000000,ACTIVE,Missing Documents,Potential,Required,,,,,,,,HAIL,Zone,,
,,,HAIL002,AG00301,ELTAHIR  HASSAN,CS014880,اسواق الفيصل الأول التجارية,,,,,,,1,THU,27.50008,41.69753,,,,2025-01-07,0,,0,500.0000000,ACTIVE,Missing Documents,Potential,Required,,,,,,,,HAIL,Zone,,
,,,HAIL002,AG00301,ELTAHIR  HASSAN,CS014882,تموينات محمد علي عبد الله,"530,490,437",,,,,,1,WED,26.75757,41.70374,,,,2025-01-07,0,,0,500.0000000,ACTIVE,Missing Documents,Potential,Required,,,,,,,,HAIL,Zone,,
,,حائل,HAIL002,AG00301,ELTAHIR  HASSAN,CS014883,شركة رواد العروض التجارية,"545,250,061",,,Traditional Trade,Medium Grocery,,1,TUE,27.54520,41.72284,"311,324,360,500,003","3,350,162,305","440,310,817,375",2025-01-07,4,Credit,9,509.0200000,ACTIVE,Approved by Finance,Potential,Required,2025-09-29,2027-10-03,شارع,صديان,0,55428,0,HAIL,Zone,,
,,,HAIL002,AG00301,ELTAHIR  HASSAN,CS014885,تموينات علي مفلح هذيل الشمري,,,,,,,1,SUN,27.30366,42.26750,,,,2025-01-07,0,,0,500.0000000,ACTIVE,Missing Documents,Potential,Required,,,,,,,,HAIL,Zone,,
,,,HAIL002,AG00301,ELTAHIR  HASSAN,CS014886,مؤسسة تموينات ركن دريم الغذائية,,,,,,,1,MON,27.51770,41.68928,,,,2025-01-07,0,,0,500.0000000,ACTIVE,Missing Documents,Potential,Required,,,,,,,,HAIL,Zone,,
,,حائل,HAIL002,AG00301,ELTAHIR  HASSAN,CS014891,مجمع أسرة التوفير التجاري,"551,525,874",,,Traditional Trade,Medium Grocery,,1,SUN,27.17971,42.43575,"310,215,738,100,003","3,365,100,585","431,210,190,819",2025-01-07,5,Credit,27,1278.9200000,ACTIVE,Approved by Finance,Potential,Required,2025-05-19,2025-08-09,شارع,الشنان,0,52356,0,HAIL,Zone,,
,,حائل,HAIL002,AG00301,ELTAHIR  HASSAN,CS014895,تموينات عكاظ حائل للمواد الغذائية,"502,640,270",,,Traditional Trade,Medium Grocery,,2,TUE,27.51493,41.70524,"311,322,188,300,003","3,350,037,733","40,011,626,099",2025-01-07,8,Credit,17,1696.7600000,ACTIVE,Approved by Finance,Potential,Required,2025-06-06,2026-07-20,شارع,العزيزية,8360,55425,2955,HAIL,Zone,,
,,,HAIL002,AG00301,ELTAHIR  HASSAN,CS014896,مؤسسة درر الجبل  للتجارة,"505,158,606",,,,,,2,SAT,27.44931,41.64216,,,,2025-01-07,0,,0,500.0000000,ACTIVE,Missing Documents,Potential,Required,,,,,,,,HAIL,Zone,,
,,حائل,HAIL002,AG00301,ELTAHIR  HASSAN,CS014897,تموينات البارجه للمواد الغذائية,"543,754,310",,,Traditional Trade,Medium Grocery,,2,TUE,27.51725,41.75912,"310,935,113,700,003","3,350,164,304","42,013,818,464",2025-01-07,3,Credit,12,500.0000000,ACTIVE,Approved by Finance,Potential,Required,2025-03-01,2025-07-14,مالك بن نويرة,المحطة,6995,55426,4783,HAIL,Zone,,
,,حائل,HAIL002,AG00301,ELTAHIR  HASSAN,CS014907,تموينات القوافل السارية للمواد الغذائية,"563,450,588",,,Traditional Trade,Medium Grocery,,1,TUE,27.52925,41.76003,"311,111,111,111,113","3,350,150,730","450,714,575,695",2025-01-07,8,Credit,11,1177.0600000,ACTIVE,Approved by Finance,Potential,Required,2587-01-15,2025-01-14,غرناطة,الوسطية,8526,55428,4290,HAIL,Zone,,
,,,HAIL002,AG00301,ELTAHIR  HASSAN,CS014909,بقالة فوزيه عبدالله جروح الشمري للمواد الغذائية,,,,,,,1,SUN,27.30515,42.24417,,,,2025-01-07,0,,0,500.0000000,ACTIVE,Missing Documents,Potential,Required,,,,,,,,HAIL,Zone,,
,,حائل,HAIL002,AG00301,ELTAHIR  HASSAN,CS014912,تموينات وسام الديرة للمواد الغذائية,"501,266,030",,,Traditional Trade,Medium Grocery,,2,MON,27.46821,41.69504,"310,121,833,700,003","3,350,154,823","43,016,091,120",2025-01-07,5,Credit,13,500.0000000,ACTIVE,Approved by Finance,Potential,Required,2025-07-10,2025-07-19,اشبيليا,الجفر,8487,55421,4511,HAIL,Zone,,
,,حائل,HAIL002,AG00301,ELTAHIR  HASSAN,CS014917,أسواق ينتقي  المركزية,"572,871,909",,,Traditional Trade,Medium Grocery,,2,SAT,27.44767,41.64056,"300,998,728,400,003","3,350,127,051","40,011,613,845",2025-01-07,17,Credit,0,2752.2100000,ACTIVE,Approved by Finance,Potential,Required,2025-08-09,2025-07-02,شارع,العزيزية,2102,55471,8139,HAIL,Zone,,
,,,HAIL002,AG00301,ELTAHIR  HASSAN,CS014918,تموينات هايبر كنز,,,,,,,2,THU,25.99099,40.81133,,,,2025-01-07,0,,0,500.0000000,ACTIVE,Missing Documents,Potential,Required,,,,,,,,HAIL,Zone,,
,,,HAIL002,AG00301,ELTAHIR  HASSAN,CS014920,محل وليد محمد بن حمدان الشمري,,,,,,,1,SUN,27.06720,42.22551,,,,2025-01-07,0,,0,500.0000000,ACTIVE,Missing Documents,Potential,Required,,,,,,,,HAIL,Zone,,
,,,HAIL002,AG00301,ELTAHIR  HASSAN,CS014923,تموينات أمل مقبل الشمري للمواد الغذائية,,,,,,,1,THU,27.49897,41.69046,,,,2025-01-07,0,,0,500.0000000,ACTIVE,Missing Documents,Potential,Required,,,,,,,,HAIL,Zone,,
,,حائل,HAIL002,AG00301,ELTAHIR  HASSAN,CS014924,شركة طيبات سلتي التجارية,"550,590,581",,,Traditional Trade,Medium Grocery,,2,WED,27.50882,41.68214,"310,400,146,500,003","3,350,021,695","440,911,885,178",2025-01-07,10,Credit,16,786.9500000,ACTIVE,Approved by Finance,Potential,Required,2025-11-05,2026-03-16,شارع,الوسيطاء,0,55411,0,HAIL,Zone,,
,,حائل,HAIL002,AG00301,ELTAHIR  HASSAN,CS014926,أسواق جوهرة الشنان,"559,597,497",,,Traditional Trade,Medium Grocery,,1,SUN,27.18314,42.43897,"311,340,209,900,003","1,010,517,098","440,410,861,889",2025-01-07,0,,0,500.0000000,ACTIVE,Needs Revise,Potential,Required,2025-02-14,2025-09-28,شارع,شنان,0,12661,0,HAIL,Zone,,
,,,HAIL002,AG00301,ELTAHIR  HASSAN,CS014927,تموينات الرائد الشمالية للمواد الغذائية,,,,,,,2,THU,25.98595,40.46374,,,,2025-01-07,0,,0,500.0000000,ACTIVE,Missing Documents,Potential,Required,,,,,,,,HAIL,Zone,,
,,,HAIL002,AG00301,ELTAHIR  HASSAN,CS014929,موسسه مشاري مرضي إبراهيم,,,,,,,1,MON,27.51844,41.67107,,,,2025-01-07,0,,0,500.0000000,ACTIVE,Missing Documents,Potential,Required,,,,,,,,HAIL,Zone,,
,,حائل,HAIL002,AG00301,ELTAHIR  HASSAN,CS014930,مؤسسة اقدح الغذائية,"558,514,321",,,Traditional Trade,Medium Grocery,,2,SAT,27.44965,41.65211,"310,091,417,400,003","3,350,161,810","42,065,199,877",2025-01-07,4,Credit,0,500.0000000,ACTIVE,Approved by Finance,Potential,Required,2025-08-25,2025-12-22,شارع,الشميلي,2984,55215,8276,HAIL,Zone,,
,,,HAIL002,AG00301,ELTAHIR  HASSAN,CS014931,اسواق الدرة التجاريـــة,,,,,,,2,WED,27.50302,41.68167,,,,2025-01-07,0,,0,500.0000000,ACTIVE,Missing Documents,Potential,Required,,,,,,,,HAIL,Zone,,
,,,HAIL002,AG00301,ELTAHIR  HASSAN,CS014932,شركه درة الصفا للتجارة,,,,,,,1,SUN,27.17490,42.43609,,,,2025-01-07,0,,0,500.0000000,ACTIVE,Missing Documents,Potential,Required,,,,,,,,HAIL,Zone,,
,,حائل,HAIL002,AG00301,ELTAHIR  HASSAN,CS014933,شركة أسواق الجوري للمواد الغذائية,"537,866,613",,,Traditional Trade,Medium Grocery,,1,MON,27.51821,41.66871,"311,354,001,100,003","3,350,155,948","40,011,611,670",2025-01-07,2,Credit,30,500.0000000,ACTIVE,Approved by Finance,Potential,Required,2586-10-01,2025-09-20,الوسط,الوسيطاء,7148,55424,3127,HAIL,Zone,,
,,,HAIL002,AG00301,ELTAHIR  HASSAN,CS014936,تموينات هداج نايف بن هداج الرشيدي للمواد الغذائية,,,,,,,1,WED,26.28681,41.35862,,,,2025-01-07,0,,0,500.0000000,ACTIVE,Missing Documents,Potential,Required,,,,,,,,HAIL,Zone,,
,,حائل,HAIL002,AG00301,ELTAHIR  HASSAN,CS014938,ركن عروب للمواد الغذائية,"502,520,041",,,Traditional Trade,Medium Grocery,,1,SAT,27.54694,41.71860,"310,961,550,500,003","3,350,154,041","43,058,016,485",2025-01-07,3,Credit,13,594.6500000,ACTIVE,Approved by Finance,Potential,Required,2025-05-11,2024-11-03,الامير نايف بن عبد العزيز,صديان,2745,55428,8224,HAIL,Zone,,
,,,HAIL002,AG00301,ELTAHIR  HASSAN,CS014939,تموينات سلالم الخير,,,,,,,1,WED,26.17748,40.93145,,,,2025-01-07,0,,0,500.0000000,ACTIVE,Missing Documents,Potential,Required,,,,,,,,HAIL,Zone,,
,,حائل,HAIL002,AG00301,ELTAHIR  HASSAN,CS014941,تموينات خلدى فهد ابراهيم الشهيل للمواد الغذائية,"509,305,583",,,Traditional Trade,Medium Grocery,,2,TUE,27.51820,41.71410,"310,773,554,600,003","3,350,174,831","3,909,252,851",2025-01-07,2,Credit,0,500.0000000,ACTIVE,Approved by Finance,Potential,Required,2586-10-24,2025-02-08,النعام,الوسيطاء,0,00000,0,HAIL,Zone,,
,,حائل,HAIL002,AG00301,ELTAHIR  HASSAN,CS014942,أسواق ركن المخطط,"508,252,231",,,Traditional Trade,Medium Grocery,,1,SUN,27.17949,42.42975,"310,813,753,300,003","3,365,100,444","42,085,403,550",2025-01-07,2,Credit,0,500.0000000,ACTIVE,Approved by Finance,Potential,Required,2025-11-20,2026-02-02,شارع,الوسيطاء,0,53511,0,HAIL,Zone,,
,,حائل,HAIL002,AG00301,ELTAHIR  HASSAN,CS014946,تموينات درة الجبل للمواد الغذائية,"556,318,136",,,Traditional Trade,Medium Grocery,,2,SAT,27.44849,41.65601,"310,819,960,600,003","3,350,165,107","450,112,816,982",2025-01-07,2,Credit,11,500.0000000,ACTIVE,Approved by Finance,Potential,Required,2025-05-03,2026-07-28,شارع,شنان,0,55471,0,HAIL,Zone,,
,,الحائط,HAIL002,AG00301,ELTAHIR  HASSAN,CS014951,تموينات أركان المدينة للمواد الغذائية,"541,837,329",,,Traditional Trade,Medium Grocery,,2,THU,25.97801,40.45453,"312,585,352,500,003","3,356,355,799","450,213,012,919",2025-01-07,9,Credit,4,500.0000000,ACTIVE,Approved by Finance,Potential,Required,2025-08-21,2025-08-04,شارع,العزيزية,7430,57359,3134,HAIL,Zone,,
,,حائل,HAIL002,AG00301,ELTAHIR  HASSAN,CS014952,أسواق نوادر التموين للمواد الغذائية,"530,254,024",,,Traditional Trade,Medium Grocery,,1,MON,27.51883,41.67091,"311,967,940,800,003","3,350,169,057","450,714,659,600",2025-01-07,4,Credit,30,500.0000000,ACTIVE,Approved by Finance,Potential,Required,2025-12-19,2025-01-24,شارع,الوسيطاء,7192,55424,3365,HAIL,Zone,,
,,حائل,HAIL002,AG00301,ELTAHIR  HASSAN,CS014953,تموينات روائع الترف للمواد الغذائية,"561,652,645",,,Traditional Trade,Medium Grocery,,1,SAT,27.54741,41.75971,"311,391,038,500,003","3,350,161,379","450,313,288,672",2025-01-07,5,Credit,0,500.0000000,ACTIVE,Approved by Finance,Potential,Required,2025-10-20,2025-09-08,عبد الله بن حارثة,الوسطية,2100,55413,7995,HAIL,Zone,,
,,حائل,HAIL002,AG00301,ELTAHIR  HASSAN,CS014956,شركة بهارات الشمال التجارية,"502,271,107",,,Traditional Trade,Medium Grocery,,1,TUE,27.52640,41.70267,"311,332,588,400,003","3,350,041,638","450,513,953,972",2025-01-07,8,Credit,15,6000.0000000,ACTIVE,Approved by Finance,Potential,Required,2586-06-23,2029-09-27,برزان,الوسيطاء,7164,55424,2573,HAIL,Zone,,
,,,HAIL002,AG00301,ELTAHIR  HASSAN,CS014960,مؤسسة ربوة الربيع لتجارة الأغذية,,,,,,,1,MON,27.51920,41.69201,,,,2025-01-07,0,,0,500.0000000,ACTIVE,Missing Documents,Potential,Required,,,,,,,,HAIL,Zone,,
,,الغزالة,HAIL002,AG00301,ELTAHIR  HASSAN,CS014961,بقالة الهياف اجمل للمواد الغذائية,"599,167,772",,,Traditional Trade,Medium Grocery,,1,WED,26.80390,41.31884,"310,221,401,400,003","3,357,609,097","40,072,081,919",2025-01-07,4,Credit,0,500.0000000,ACTIVE,Approved by Finance,Potential,Required,2025-09-05,2025-01-20,عمر بن خطاب,المنتزه الغربي,6746,57631,2856,HAIL,Zone,,
,,,HAIL002,AG00301,ELTAHIR  HASSAN,CS014965,شركة عنوان الواحة للمواد الغذائية 2,"542,723,506",,,,,,1,SAT,27.54710,41.71264,,,,2025-01-07,0,,0,500.0000000,ACTIVE,Missing Documents,Potential,Required,,,,,,,,HAIL,Zone,,
,,حائل,HAIL002,AG00301,ELTAHIR  HASSAN,CS014968,تموينات الحميدي جارالله الحميدي الشمري للمواد الغذائية,"506,459,267",,,Traditional Trade,Medium Grocery,,2,MON,27.40142,41.71486,"300,944,272,200,003","3,350,040,658","460,116,379,441",2025-01-07,4,Credit,0,500.0000000,ACTIVE,Approved by Finance,Potential,Required,2027-03-29,2025-07-24,اامدائن,المطار,8153,55424,5214,HAIL,Zone,,
,,الغزالة,HAIL002,AG00301,ELTAHIR  HASSAN,CS014972,مؤسسة خلف حليان الفهاد التجارية,"501,423,375",,,Traditional Trade,Large Grocery,,1,WED,26.78579,41.31765,"301,034,957,300,003","3,357,004,494","3,909,610,921",2025-01-07,3,Credit,0,500.0000000,ACTIVE,Approved by Finance,Potential,Required,2026-02-07,2025-11-05,شارع,المنتزه الغربي,2225,57631,6479,HAIL,Zone,,
,,,HAIL002,AG00301,ELTAHIR  HASSAN,CS014973,سوبر ماركت الجوهرة,,,,,,,1,WED,26.79591,41.67706,,,,2025-01-07,0,,0,500.0000000,ACTIVE,Missing Documents,Potential,Required,,,,,,,,HAIL,Zone,,
,,,HAIL002,AG00301,ELTAHIR  HASSAN,CS014975,شركه مجموعه عبد الرحمن السيف 3,,,,,,,1,THU,27.50392,41.69492,,,,2025-01-07,0,,0,500.0000000,ACTIVE,Missing Documents,Potential,Required,,,,,,,,HAIL,Zone,,
,,حائل,HAIL002,AG00301,ELTAHIR  HASSAN,CS014976,تموينات جوهرة ألنخيل,"532,854,590",,,Traditional Trade,Medium Grocery,,2,TUE,27.51392,41.75735,"311,715,546,800,003","3,350,159,283","43,109,917,393",2025-01-07,14,Credit,17,1000.0000000,ACTIVE,Approved by Finance,Potential,Required,2025-02-20,2025-04-23,يثرب,المحطة,6655,55426,4709,HAIL,Zone,,
,,,HAIL002,AG00301,ELTAHIR  HASSAN,CS014982,موسسه محمد سليم دهفيل الحربي للتجاره,,,,,,,1,MON,27.51900,41.69252,,,,2025-01-07,0,,0,500.0000000,ACTIVE,Missing Documents,Potential,Required,,,,,,,,HAIL,Zone,,
,,,HAIL002,AG00301,ELTAHIR  HASSAN,CS014983,تموينات مجموعه نايف حايل للمواد الغذائية,"578,103,097",,,,,,2,THU,26.01238,40.47167,,,,2025-01-07,0,,0,500.0000000,ACTIVE,Missing Documents,Potential,Required,,,,,,,,HAIL,Zone,,
,,حائل,HAIL002,AG00301,ELTAHIR  HASSAN,CS014985,أسواق شموخ الوافي التجارية,"575,848,560",,,Traditional Trade,Medium Grocery,,1,THU,27.46910,41.71940,"302,199,847,300,003","3,350,033,181","460,316,802,912",2025-01-07,11,Credit,13,856.2900000,ACTIVE,Approved by Finance,Potential,Required,2025-01-10,2025-09-21,شارع,الشميلي,7130,55428,3147,HAIL,Zone,,
,,حائل,HAIL002,AG00301,ELTAHIR  HASSAN,CS014986,تموينات سلة السمراء للمواد الغذائية,"502,137,202",,,Traditional Trade,Medium Grocery,,2,SUN,27.49905,41.71111,"310,256,252,300,003","3,350,141,212","40,011,610,652",2025-01-07,1,,0,500.0000000,ACTIVE,Approved by Finance,Potential,Required,2026-09-23,2026-07-07,السمراء,السامرا,3667,55425,6893,HAIL,Zone,,
,,حائل,HAIL002,AG00301,ELTAHIR  HASSAN,CS014987,تموينات صخر عبدالله اليحياء للمواد الغذائية,"537,887,857",,,Traditional Trade,Medium Grocery,,2,MON,27.46989,41.69105,"302,270,452,600,003","3,350,128,699","441,212,518,639",2025-01-07,7,Credit,15,500.0000000,ACTIVE,Approved by Finance,Potential,Required,2025-12-02,2024-06-08,ايشبيليا,شنان,0,55212,0,HAIL,Zone,,
,,الروضة,HAIL002,AG00301,ELTAHIR  HASSAN,CS014991,تموينات محمد ابراهيم الجلعود للمواد الغذائية,"557,920,157",,,Traditional Trade,Medium Grocery,,1,WED,26.77396,41.68756,"301,291,762,500,003","3,365,000,089","3,909,675,381",2025-01-07,8,Credit,12,522.0200000,ACTIVE,Approved by Finance,Potential,Required,2025-07-28,2026-08-16,شارع,الرقاب,7037,57665,2705,HAIL,Zone,,
,,,HAIL002,AG00301,ELTAHIR  HASSAN,CS014993,تموينات سعد فهاد سعود التميمي,,,,,,,1,WED,26.78671,41.31745,,,,2025-01-07,0,,0,500.0000000,ACTIVE,Missing Documents,Potential,Required,,,,,,,,HAIL,Zone,,
,,,HAIL002,AG00301,ELTAHIR  HASSAN,CS014995,موسسة ساميه عايض العنزي,,,,,,,1,MON,27.51252,41.66609,,,,2025-01-07,0,,0,500.0000000,ACTIVE,Missing Documents,Potential,Required,,,,,,,,HAIL,Zone,,
,,,HAIL002,AG00301,ELTAHIR  HASSAN,CS014996,محل الوسام الذهبي للمواد الغذائية,,,,,,,2,SAT,27.44783,41.64138,,,,2025-01-07,0,,0,500.0000000,ACTIVE,Missing Documents,Potential,Required,,,,,,,,HAIL,Zone,,
,,,HAIL002,AG00301,ELTAHIR  HASSAN,CS014997,تموينات نفود غانم طريخم الشمري للمواد الغذائية,,,,,,,1,THU,27.49085,41.70498,,,,2025-01-07,0,,0,500.0000000,ACTIVE,Missing Documents,Potential,Required,,,,,,,,HAIL,Zone,,
,,الشنان,HAIL002,AG00301,ELTAHIR  HASSAN,CS015000,تموينات خالد فلاح فهد الشمري,"558,301,484",,,Traditional Trade,Medium Grocery,,1,SUN,27.17204,42.43896,"310,286,393,200,003","3,350,044,040","460,116,173,219",2025-01-07,3,Credit,0,500.0000000,ACTIVE,Approved by Finance,Potential,Required,2025-12-21,2025-06-26,شارع,شنان,8047,53521,5352,HAIL,Zone,,
,,حائل,HAIL002,AG00301,ELTAHIR  HASSAN,CS015002,محل أحمد الهيه للمواد الغذائية,"570,156,875",,,Traditional Trade,Large Grocery,,1,MON,27.51937,41.69117,"310,176,747,500,003","3,350,154,836","43,026,471,746",2025-01-07,1,Credit,16,503.3700000,ACTIVE,Approved by Finance,Potential,Required,2025-06-29,2026-08-17,شارع,المنتزه الغربي,0,44721,0,HAIL,Zone,,
,,الشنان,HAIL002,AG00301,ELTAHIR  HASSAN,CS015003,شركة امواج اللؤلؤة التجارية,"536,766,746",,,Traditional Trade,Medium Grocery,,1,SUN,27.18873,42.44322,"310,231,929,600,003","3,365,100,331","41,052,884,855",2025-01-07,11,Credit,14,1484.5600000,ACTIVE,Approved by Finance,Potential,Required,2025-02-08,2025-11-17,شارع,شنان,2894,53431,9672,HAIL,Zone,,
,,,HAIL002,AG00301,ELTAHIR  HASSAN,CS015004,مؤسسة اضواء القمه التجاريه,,,,,,,1,SUN,27.11897,42.52446,,,,2025-01-07,0,,0,500.0000000,ACTIVE,Missing Documents,Potential,Required,,,,,,,,HAIL,Zone,,
,,حائل,HAIL002,AG00301,ELTAHIR  HASSAN,CS015007,تموينات ركن المداين,"538,983,269",,,Traditional Trade,Large Grocery,,2,MON,27.41645,41.71794,"311,000,922,400,003","3,350,154,841","431,110,079,101",2025-01-07,3,Credit,0,500.0000000,ACTIVE,Approved by Finance,Potential,Required,2026-06-20,2026-05-10,شارع,المطار,0,54236,0,HAIL,Zone,,
,,حائل,HAIL002,AG00301,ELTAHIR  HASSAN,CS015008,تموينات ابراهيم عبدالعزيز البشري للمواد الغذائية,"507,405,720",,,Traditional Trade,Medium Grocery,,1,THU,27.49532,41.68556,"310,743,580,600,003","3,350,149,710","41,032,606,631",2025-01-07,4,Credit,14,500.0000000,ACTIVE,Approved by Finance,Potential,Required,2025-08-16,2025-08-17,شارع,الجمعة,7717,55421,3929,HAIL,Zone,,
,,الغزالة,HAIL002,AG00301,ELTAHIR  HASSAN,CS015009,تموينات سلة الأمل,"505,488,369",,,Traditional Trade,Medium Grocery,,1,WED,26.78591,41.32039,"311,560,708,800,003","3,350,145,991","3,909,611,320",2025-01-07,5,,0,500.0000000,ACTIVE,Approved by Finance,Potential,Required,2025-10-06,2026-06-10,شارغ,المنتزه الغربي,2412,57631,6415,HAIL,Zone,,
,,الحائط,HAIL002,AG00301,ELTAHIR  HASSAN,CS015011,تموينات سما العدوة للمواد الغذائية,"506,532,760",,,Traditional Trade,Medium Grocery,,2,THU,26.08557,40.54545,"310,754,145,100,003","3,350,158,547","43,079,320,879",2025-01-07,4,Credit,17,500.0000000,ACTIVE,Approved by Finance,Potential,Required,2026-01-22,2026-01-01,شارع,الحائط,6967,57359,3757,HAIL,Zone,,
,,حائل,HAIL002,AG00301,ELTAHIR  HASSAN,CS015012,تموينات الجبال الشمالية للمواد الغذائية,"534,984,376",,,Traditional Trade,Medium Grocery,,1,SAT,27.54932,41.74318,"310,223,372,800,003","3,350,166,375","40,011,612,708",2025-01-07,10,Credit,0,500.0000000,ACTIVE,Approved by Finance,Potential,Required,2025-07-31,2025-06-20,شارع,الشميلي,0,55413,0,HAIL,Zone,,
,,حائل,HAIL002,AG00301,ELTAHIR  HASSAN,CS015014,تموينات اثمار المدائن للمواد الغذائية,"507,284,966",,,Traditional Trade,Medium Grocery,,2,MON,27.43209,41.72217,"311,677,975,800,003","3,350,165,622","441,112,427,893",2025-01-07,1,Credit,0,500.0000000,ACTIVE,Approved by Finance,Potential,Required,2025-06-07,2025-05-20,شارع,العزيزية,0,55241,0,HAIL,Zone,,
,,,HAIL002,AG00301,ELTAHIR  HASSAN,CS015016,مؤسسة فهد حمود العوض للتجارة,,,,,,,1,THU,27.47841,41.72865,,,,2025-01-07,0,,0,500.0000000,ACTIVE,Missing Documents,Potential,Required,,,,,,,,HAIL,Zone,,
,,,HAIL002,AG00301,ELTAHIR  HASSAN,CS015017,تموينات محمد سعد الرشيدي,,,,,,,2,SAT,27.40277,41.58764,,,,2025-01-07,0,,0,500.0000000,ACTIVE,Missing Documents,Potential,Required,,,,,,,,HAIL,Zone,,
,,,HAIL002,AG00301,ELTAHIR  HASSAN,CS015018,تموينات عمر حميد محمد الزبني للمواد الغذائية,,,,,,,2,MON,27.40194,41.71940,,,,2025-01-07,0,,0,500.0000000,ACTIVE,Missing Documents,Potential,Required,,,,,,,,HAIL,Zone,,
,,,HAIL002,AG00301,ELTAHIR  HASSAN,CS015019,تموينات حسن ناصر عبدالعزيز الجميل للمواد الغذائية,,,,,,,2,SUN,27.50818,41.70460,,,,2025-01-07,0,,0,500.0000000,ACTIVE,Missing Documents,Potential,Required,,,,,,,,HAIL,Zone,,
,,الروضة,HAIL002,AG00301,ELTAHIR  HASSAN,CS015023,تموينات سلة ارياف رمان للمواد الغذائية,"533,553,907",,,Traditional Trade,Medium Grocery,,1,WED,26.78945,41.67441,"311,111,111,111,113","3,350,153,482","42,115,909,109",2025-01-07,3,Credit,0,500.0000000,ACTIVE,Approved by Finance,Potential,Required,2025-04-15,2025-05-18,شارع,الورود,6187,57666,4401,HAIL,Zone,,
,,,HAIL002,AG00301,ELTAHIR  HASSAN,CS015024,مؤسسة فوزيه عوض بن عيد الشمري التجارية,"571,505,254",,,,,,1,SUN,27.19855,42.45105,,,,2025-01-07,0,,0,500.0000000,ACTIVE,Missing Documents,Potential,Required,,,,,,,,HAIL,Zone,,
,,,HAIL002,AG00301,ELTAHIR  HASSAN,CS015027,موسسه اطياف حايل التجاريه,,,,,,,1,MON,27.51924,41.69226,,,,2025-01-07,0,,0,500.0000000,ACTIVE,Missing Documents,Potential,Required,,,,,,,,HAIL,Zone,,
,,فيد,HAIL002,AG00301,ELTAHIR  HASSAN,CS015029,مؤسسة عمشاء طلاس الشمري للمواد الغذائية,"552,302,503",,,Traditional Trade,Medium Grocery,,1,SUN,27.11450,42.51674,"301,252,479,900,003","3,357,003,863","3,909,614,849",2025-01-07,4,Credit,0,500.0000000,ACTIVE,Approved by Finance,Potential,NOT Required,2025-02-18,2025-01-30,الملك عبد العزيز,شفا,2343,53442,7393,HAIL,Zone,,
,,حائل,HAIL002,AG00301,ELTAHIR  HASSAN,CS015031,تموينات غيض بلص للمواد الغذائية,"509,233,724",,,Traditional Trade,Large Grocery,,2,SAT,27.40478,41.58506,"302,038,498,900,003","3,350,104,164","3,909,261,537",2025-01-07,0,,0,500.0000000,ACTIVE,Approved by Finance,Potential,Required,2025-10-03,2026-07-07,شارع,قفار,4738,55232,7695,HAIL,Zone,,
,,,HAIL002,AG00301,ELTAHIR  HASSAN,CS015035,تموينات غانم هلال الغانم,,,,,,,1,MON,27.52062,41.68238,,,,2025-01-07,0,,0,500.0000000,ACTIVE,Missing Documents,Potential,Required,,,,,,,,HAIL,Zone,,
,,حائل,HAIL002,AG00301,ELTAHIR  HASSAN,CS015040,مؤسسة احمد صالح الردادي التجارية,"503,813,730",,,Traditional Trade,Medium Grocery,,1,MON,27.51935,41.69327,"301,164,267,500,003","3,350,005,259","40,011,605,733",2025-01-07,1,Credit,0,1682.1200000,ACTIVE,Approved by Finance,Potential,Required,2026-08-13,2025-11-30,شارع,الشميلي,5194,55424,7111,HAIL,Zone,,
,,الروضة,HAIL002,AG00301,ELTAHIR  HASSAN,CS015042,محل سله الفيحاء للمواد الغذائية,"540,426,517",,,Traditional Trade,Medium Grocery,,1,WED,26.79610,41.67725,"311,331,711,100,003","3,350,160,865","440,110,311,782",2025-01-07,1,Credit,0,500.0000000,ACTIVE,Approved by Finance,Potential,Required,2025-05-21,2025-07-18,شارع,الرقاب,6444,57666,4329,HAIL,Zone,,
,,,HAIL002,AG00301,ELTAHIR  HASSAN,CS015043,تموينات إيمان فلاح,,,,,,,1,THU,27.49831,41.70099,,,,2025-01-07,0,,0,500.0000000,ACTIVE,Missing Documents,Potential,Required,,,,,,,,HAIL,Zone,,
,,,HAIL002,AG00301,ELTAHIR  HASSAN,CS015044,بقاله ندوه عادي الرشيدي,,,,,,,2,THU,25.94491,40.79595,,,,2025-01-07,0,,0,500.0000000,ACTIVE,Missing Documents,Potential,Required,,,,,,,,HAIL,Zone,,
,,,HAIL002,AG00301,ELTAHIR  HASSAN,CS015045,أسواق ركن القربه,,,,,,,2,SAT,27.45340,41.64593,,,,2025-01-07,0,,0,500.0000000,ACTIVE,Missing Documents,Potential,Required,,,,,,,,HAIL,Zone,,
,,حائل,HAIL002,AG00301,ELTAHIR  HASSAN,CS015047,تموينات خميس عقيل بادح الشمري للمواد الغذائية,"508,166,249",,,Traditional Trade,Medium Grocery,,1,THU,27.49035,41.68971,"301,051,988,700,003","3,350,147,335","450,313,253,240",2025-01-07,9,Credit,0,500.0000000,ACTIVE,Approved by Finance,Potential,Required,2025-10-13,2026-08-19,شارع,الجمعة,7076,55421,4400,HAIL,Zone,,
,,حائل,HAIL002,AG00301,ELTAHIR  HASSAN,CS015051,مؤسسة الاوامير التجارية,"550,471,904",,,Traditional Trade,Medium Grocery,,2,SUN,27.49541,41.71486,"300,989,698,900,003","3,350,039,822","40,011,614,137",2025-01-07,3,Credit,0,500.0000000,ACTIVE,Approved by Finance,Potential,Required,2025-02-09,2026-09-19,شارع,الوسيطاء,4331,55422,9343,HAIL,Zone,,
,,حائل,HAIL002,AG00301,ELTAHIR  HASSAN,CS015053,تموينات الخليج المميزة للمواد الغذائية,"532,129,965",,,Traditional Trade,Medium Grocery,,2,SAT,27.43763,41.64898,"311,111,111,111,113","3,350,138,760","39,042,703",2025-01-07,4,Credit,17,500.0000000,ACTIVE,Approved by Finance,Potential,Required,2586-11-13,2024-10-13,غياض,مغيضة,8534,55215,3446,HAIL,Zone,,
,,,HAIL002,AG00301,ELTAHIR  HASSAN,CS015055,أسواق منيرة صالح,,,,,,,2,THU,25.99125,40.80942,,,,2025-01-07,0,,0,500.0000000,ACTIVE,Missing Documents,Potential,Required,,,,,,,,HAIL,Zone,,
,,,HAIL002,AG00301,ELTAHIR  HASSAN,CS015056,الركن الشمالي,,,,,,,1,WED,26.46732,41.10567,,,,2025-01-07,0,,0,500.0000000,ACTIVE,Missing Documents,Potential,Required,,,,,,,,HAIL,Zone,,
,,حائل,HAIL002,AG00301,ELTAHIR  HASSAN,CS015058,تموينات زاوية المكان للمواد الغذائية,"504,308,064",,,Traditional Trade,Medium Grocery,,1,SAT,27.54827,41.74293,"312,509,083,500,003","3,350,140,460","41,032,609,676",2025-01-07,6,Credit,0,500.0000000,ACTIVE,Approved by Finance,Potential,Required,2025-04-21,2025-09-12,شارع,الشميلي,9395,55483,4800,HAIL,Zone,,
,,,HAIL002,AG00301,ELTAHIR  HASSAN,CS015060,تموينات سحر عبد الله,,,,,,,1,WED,26.82388,41.31634,,,,2025-01-07,0,,0,500.0000000,ACTIVE,Missing Documents,Potential,Required,,,,,,,,HAIL,Zone,,
,,حائل,HAIL002,AG00301,ELTAHIR  HASSAN,CS015063,تموينات سور الجنوب للمواد الغذائية,"531,824,409",,,Traditional Trade,Medium Grocery,,2,SUN,27.50112,41.71753,"310,998,531,200,003","3,350,173,572","460,617,798,525",2025-01-07,4,Credit,21,570.0400000,ACTIVE,Approved by Finance,Potential,Required,2025-06-11,2025-11-21,سعيد الهمزاني,الوسيطاء,3985,55425,6849,HAIL,Zone,,
,,,HAIL002,AG00301,ELTAHIR  HASSAN,CS015067,تموينات هليل فهيد,,,,,,,1,SUN,26.88860,42.13537,,,,2025-01-07,0,,0,500.0000000,ACTIVE,Missing Documents,Potential,Required,,,,,,,,HAIL,Zone,,
,,حائل,HAIL002,AG00301,ELTAHIR  HASSAN,CS015070,تموينات نوا للمواد الغذائية,"570,148,850",,,Traditional Trade,Large Grocery,,1,THU,27.49918,41.70561,"311,210,525,400,003","3,350,166,197","450,212,996,954",2025-01-07,4,Credit,30,562.4600000,ACTIVE,Approved by Finance,Potential,Required,2025-07-19,2025-08-05,شارع,الزبارة,6932,55425,3042,HAIL,Zone,,
,,حائل,HAIL002,AG00301,ELTAHIR  HASSAN,CS015074,تموينات ركن جنئ للمواد الغذائية,"506,925,205",,,Traditional Trade,Medium Grocery,,1,SAT,27.54937,41.70238,"311,401,332,900,003","3,350,161,845","440,410,958,795",2025-01-07,2,Credit,24,500.0000000,ACTIVE,Approved by Finance,Potential,Required,2025-08-17,2025-10-13,شارع,صديان,8116,55428,4165,HAIL,Zone,,
,,,HAIL002,AG00301,ELTAHIR  HASSAN,CS015076,محل محمد علي عبد الله,,,,,,,1,WED,26.74992,41.49600,,,,2025-01-07,0,,0,500.0000000,ACTIVE,Missing Documents,Potential,Required,,,,,,,,HAIL,Zone,,
,,حائل,HAIL002,AG00301,ELTAHIR  HASSAN,CS015077,تموينات سلة غيث للمواد الغذائية,"593,443,573",,,Traditional Trade,Medium Grocery,,2,TUE,27.51138,41.75610,"312,612,864,600,003","3,350,177,907","460,618,003,481",2025-01-07,10,Credit,17,500.0000000,ACTIVE,Approved by Finance,Potential,Required,2025-10-22,2025-12-09,شارع,الشميلي,0,55429,0,HAIL,Zone,,
,,حائل,HAIL002,AG00301,ELTAHIR  HASSAN,CS015080,تموينات قوة الكيان للمواد الغذائية,"546,527,737",0546527737,,Traditional Trade,Medium Grocery,,2,SUN,27.50506,41.70445,"310,796,418,700,003","3,350,166,387","450,112,847,974",2025-01-07,4,Credit,14,500.0000000,ACTIVE,Approved by Finance,Potential,Required,2028-07-31,2026-04-06,الخليج العربي,الزبارة,0,55424,0,HAIL,Zone,,
,,,HAIL002,AG00301,ELTAHIR  HASSAN,CS015082,بقالة فارس العرب للمواد الغذائية,,,,,,,2,THU,25.99641,40.46944,,,,2025-01-07,0,,0,500.0000000,ACTIVE,Missing Documents,Potential,Required,,,,,,,,HAIL,Zone,,
,,حائل,HAIL002,AG00301,ELTAHIR  HASSAN,CS015083,تموينات شومه خلف الشمري للمواد الغذائية,"548,713,101",,,Traditional Trade,Medium Grocery,,1,TUE,27.54281,41.71063,"300,838,604,500,003","3,350,121,800","40,011,605,264",2025-01-07,5,Credit,0,500.0000000,ACTIVE,Approved by Finance,Potential,Required,2586-11-16,2026-01-06,صديان,الوسيطاء,4161,55428,8362,HAIL,Zone,,
,,,HAIL002,AG00301,ELTAHIR  HASSAN,CS015084,تموينات هلال هليل سعد الشمري للمواد الغذائية,,,,,,,2,SAT,27.37382,41.64446,,,,2025-01-07,0,,0,500.0000000,ACTIVE,Missing Documents,Potential,Required,,,,,,,,HAIL,Zone,,
,,حائل,HAIL002,AG00301,ELTAHIR  HASSAN,CS015085,محل سلمى فهد عبدالله العميم للمواد الغذائية,"509,266,383",,,Traditional Trade,Medium Grocery,,1,MON,27.51742,41.66732,"310,416,849,500,003","3,350,145,464","41,022,591,411",2025-01-07,4,Credit,0,500.0000000,ACTIVE,Approved by Finance,Potential,Required,2025-06-25,2025-08-18,شارع,الشميلي,3003,55424,7081,HAIL,Zone,,
,,حائل,HAIL002,AG00301,ELTAHIR  HASSAN,CS015088,تموينات معالي سويلم يحياء الحربي للمواد الغذائية,"555,019,352",,,Traditional Trade,Medium Grocery,,2,SUN,27.51157,41.70392,"311,111,111,111,113","3,350,149,279","450,915,197,069",2025-01-07,1,Credit,0,500.0000000,ACTIVE,Approved by Finance,Potential,Required,2025-07-10,2025-03-20,شارع,الزبارة,3013,55425,8258,HAIL,Zone,,
,,حائل,HAIL002,AG00301,ELTAHIR  HASSAN,CS015093,شركة زهرة امل التجارية,"572,819,496",,,Traditional Trade,Medium Grocery,,2,SUN,27.50474,41.71793,"310,790,855,600,003","3,350,150,953","450,814,867,876",2025-01-07,6,Credit,20,500.0000000,ACTIVE,Approved by Finance,Potential,Required,2025-10-07,2026-02-11,سالم الحطاب,السويفلة,8592,55424,5101,HAIL,Zone,,
,,حائل,HAIL002,AG00301,ELTAHIR  HASSAN,CS015095,تموينات اضواء حائل للمواد الغذائية,"559,980,076",,,Traditional Trade,Medium Grocery,,2,WED,27.50609,41.67463,"311,111,111,111,113","3,350,141,393","40,042,011,587",2025-01-07,5,Credit,0,500.0000000,ACTIVE,Approved by Finance,Potential,Required,2025-10-05,2024-10-27,شارع,الوسيطاء,8689,55421,2871,HAIL,Zone,,
,,,HAIL002,AG00301,ELTAHIR  HASSAN,CS015096,تموينات رواد فدك للمواد الغذائية,,,,,,,2,THU,25.98592,40.46361,,,,2025-01-07,0,,0,500.0000000,ACTIVE,Missing Documents,Potential,Required,,,,,,,,HAIL,Zone,,
,,الحليفة السفلى,HAIL002,AG00301,ELTAHIR  HASSAN,CS015097,بقالة خلود  للمواد الغذائية,"536,658,962",,,Traditional Trade,Medium Grocery,,2,THU,25.99360,40.81718,"302,160,048,400,003","3,356,355,452","440,310,763,655",2025-01-07,3,Credit,17,500.0000000,ACTIVE,Approved by Finance,Potential,Required,2026-04-14,2025-10-02,شارع,الخليفة السفلى,2983,57511,6524,HAIL,Zone,,
,,,HAIL002,AG00301,ELTAHIR  HASSAN,CS015098,بقاله دانه سلمي,,,,,,,1,SUN,27.17383,42.29117,,,,2025-01-07,0,,0,500.0000000,ACTIVE,Missing Documents,Potential,Required,,,,,,,,HAIL,Zone,,
,,,HAIL002,AG00301,ELTAHIR  HASSAN,CS015100,ازدهار الشمال,"548,895,934",,,,,,1,THU,27.49115,41.70510,,,,2025-01-07,0,,0,500.0000000,ACTIVE,Missing Documents,Potential,Required,,,,,,,,HAIL,Zone,,
,,,HAIL002,AG00301,ELTAHIR  HASSAN,CS015103,الجمعية التعاونية,,,,,,,1,WED,26.67090,41.53510,,,,2025-01-07,0,,0,500.0000000,ACTIVE,Missing Documents,Potential,Required,,,,,,,,HAIL,Zone,,
,,,HAIL002,AG00301,ELTAHIR  HASSAN,CS015106,تموينات موضي ركاد مطلق الركاد للمواد الغذائية,,,,,,,1,SUN,26.88799,42.12025,,,,2025-01-07,0,,0,500.0000000,ACTIVE,Missing Documents,Potential,Required,,,,,,,,HAIL,Zone,,
,,,HAIL002,AG00301,ELTAHIR  HASSAN,CS015107,تموينات وضحاء سعود سعد الشمري للمواد الغذائية,,,,,,,2,MON,27.41094,41.71813,,,,2025-01-07,0,,0,500.0000000,ACTIVE,Missing Documents,Potential,Required,,,,,,,,HAIL,Zone,,
,,,HAIL002,AG00301,ELTAHIR  HASSAN,CS015108,تموينات عيده غانم طريخم الشمري للمواد الغذائية,"506,580,337",,,,,,2,SUN,27.49789,41.70996,,,,2025-01-07,0,,0,500.0000000,ACTIVE,Missing Documents,Potential,Required,,,,,,,,HAIL,Zone,,
,,الحائط,HAIL002,AG00301,ELTAHIR  HASSAN,CS015110,بقالة سما الشق للمواد الغذائية,"507,184,496",,,Traditional Trade,Medium Grocery,,2,THU,26.05329,40.56376,"302,210,693,300,003","3,356,354,608","40,062,053,475",2025-01-07,10,Credit,17,500.0000000,ACTIVE,Approved by Finance,Potential,Required,2025-09-13,2025-06-25,شارع,الشق,3247,57359,6720,HAIL,Zone,,
,,,HAIL002,AG00301,ELTAHIR  HASSAN,CS015111,تموينات الواقف,,,,,,,2,SUN,27.47907,41.73109,,,,2025-01-07,0,,0,500.0000000,ACTIVE,Missing Documents,Potential,Required,,,,,,,,HAIL,Zone,,
,,,HAIL002,AG00301,ELTAHIR  HASSAN,CS015112,تموينات الأمل دريم للمواد الغذائية,"576,881,834",,,,,,2,THU,25.99642,40.46944,,,,2025-01-07,0,,0,500.0000000,ACTIVE,Missing Documents,Potential,Required,,,,,,,,HAIL,Zone,,
,,,HAIL002,AG00301,ELTAHIR  HASSAN,CS015114,حلويات اماسي 2,,,,,,,1,THU,27.49695,41.70891,,,,2025-01-07,0,,0,500.0000000,ACTIVE,Missing Documents,Potential,Required,,,,,,,,HAIL,Zone,,
,,,HAIL002,AG00301,ELTAHIR  HASSAN,CS015115,مرزوقة سعد الشمري,,,,,,,1,THU,27.49646,41.70199,,,,2025-01-07,0,,0,500.0000000,ACTIVE,Missing Documents,Potential,Required,,,,,,,,HAIL,Zone,,
,,,HAIL002,AG00301,ELTAHIR  HASSAN,CS015117,بقالة نافع صالح عواض الرشيدي للمواد الغذائية,,,,,,,2,THU,25.99664,40.46939,,,,2025-01-07,0,,0,500.0000000,ACTIVE,Missing Documents,Potential,Required,,,,,,,,HAIL,Zone,,
,,حائل,HAIL002,AG00301,ELTAHIR  HASSAN,CS015118,تموينات شمال النخيل للمواد الغذائية,"535,335,095",,,Traditional Trade,Medium Grocery,,1,MON,27.51831,41.65819,"311,664,338,100,003","3,350,163,897","460,216,620,853",2025-01-07,7,Credit,18,1070.8100000,ACTIVE,Approved by Finance,Potential,Required,2025-02-03,2025-08-11,شارع عام,الوسيطاء,2101,55424,7149,HAIL,Zone,,
,,حائل,HAIL002,AG00301,ELTAHIR  HASSAN,CS015119,تموينات دار طي,"502,420,203",,,Traditional Trade,Medium Grocery,,1,MON,27.51168,41.66555,"301,078,568,100,003","3,350,128,135","3,909,656,358",2025-01-07,1,Credit,0,500.0000000,ACTIVE,Approved by Finance,Potential,Required,2027-11-03,2026-10-19,ابو تيمية,الوسيطاء,7404,55436,3490,HAIL,Zone,,
,,الحائط,HAIL002,AG00301,ELTAHIR  HASSAN,CS015121,بقالة زهرة الوسعة,"552,160,247",,,Traditional Trade,Medium Grocery,,2,THU,26.13753,40.53414,"310,947,259,100,003","3,356,355,092","40,021,703,404",2025-01-07,2,Credit,0,500.0000000,ACTIVE,Approved by Finance,Potential,Required,2025-04-30,2025-09-09,شارع,الحائط,7144,57359,3394,HAIL,Zone,,
,,,HAIL002,AG00301,ELTAHIR  HASSAN,CS015122,شركه سما الاصيل  الحايط,,,,,,,2,THU,25.98743,40.47562,,,,2025-01-07,0,,0,500.0000000,ACTIVE,Missing Documents,Potential,Required,,,,,,,,HAIL,Zone,,
,,حائل,HAIL002,AG00301,ELTAHIR  HASSAN,CS015124,مؤسسة صالح سليم الحربي التجارية,"538,947,738",,,Traditional Trade,Medium Grocery,,1,MON,27.51932,41.69309,"301,021,615,500,003","3,350,005,640","40,011,614,380",2025-01-07,1,Credit,0,500.0000000,ACTIVE,Approved by Finance,Potential,Required,2587-03-01,2025-09-23,المرسلات,الوسيطاء,4861,55421,8045,HAIL,Zone,,
,,حائل,HAIL002,AG00301,ELTAHIR  HASSAN,CS015125,بقالة وفرة البيت للمواد الغذائية,"555,978,965",,,Traditional Trade,Medium Grocery,,2,MON,27.47376,41.69606,"302,172,583,500,003","3,350,148,385","41,113,597,009",2025-01-07,1,Credit,0,500.0000000,ACTIVE,Approved by Finance,Potential,Required,2025-04-25,2026-04-24,شارع,شنان,5275,55212,8618,HAIL,Zone,,
,,الروضة,HAIL002,AG00301,ELTAHIR  HASSAN,CS015128,تموينات الزهرة بالروضة,"530,366,902",,,Traditional Trade,Medium Grocery,,1,WED,26.79629,41.67744,"310,170,526,100,003","3,361,009,098","40,082,154,559",2025-01-07,10,Credit,0,500.0000000,ACTIVE,Approved by Finance,Potential,Required,2026-01-02,2026-02-15,شارع,الورود,4294,57663,8801,HAIL,Zone,,
,,,HAIL002,AG00301,ELTAHIR  HASSAN,CS015132,تموينات حجر بدر محمد العنزي,"507,764,753",,,,,,1,THU,27.47474,41.71291,,,,2025-01-07,0,,0,500.0000000,ACTIVE,,Potential,Required,,,,,,,,HAIL,Zone,,
,,بدائع مريفق,HAIL002,AG00301,ELTAHIR  HASSAN,CS015133,مؤسسة مهاء ظيف الله مناور الشمري للمواد الغذائية,"539,727,987",,,Traditional Trade,Medium Grocery,,2,SAT,27.35065,41.63104,"310,356,779,700,003","3,350,143,870","40,011,614,536",2025-01-07,4,Credit,0,500.0000000,ACTIVE,Approved by Finance,Potential,Required,2025-11-16,2025-09-17,شارع,المحطة,4794,55234,7859,HAIL,Zone,,
,,,HAIL002,AG00301,ELTAHIR  HASSAN,CS015134,تموينات عبدالمحسن حمود محيميد العوض للتجارة,,,,,,,1,THU,27.47842,41.72863,,,,2025-01-07,0,,0,500.0000000,ACTIVE,Missing Documents,Potential,Required,,,,,,,,HAIL,Zone,,
,,حائل,HAIL002,AG00301,ELTAHIR  HASSAN,CS015136,تموينات حارة عمار للمواد الغذائية,"510,346,166",,,Traditional Trade,Medium Grocery,,2,WED,27.50139,41.68124,"301,012,265,500,003","3,350,155,200","40,031,761,993",2025-01-07,6,Credit,11,619.9200000,ACTIVE,Approved by Finance,Potential,Required,2025-08-08,2026-08-14,شارع,الوسيطاء,3498,55421,8232,HAIL,Zone,,
,,,HAIL002,AG00301,ELTAHIR  HASSAN,CS015137,بقالة إبراهيم دواس عواد الرضيمان,,,,,,,1,SUN,27.15714,42.43662,,,,2025-01-07,0,,0,500.0000000,ACTIVE,Missing Documents,Potential,Required,,,,,,,,HAIL,Zone,,
,,حائل,HAIL002,AG00301,ELTAHIR  HASSAN,CS015140,مؤسسة ألف الجزيرة التجارية,"553,895,385",,,Traditional Trade,Medium Grocery,,2,SUN,27.50379,41.71783,"302,208,758,400,003","3,350,173,026","460,316,917,783",2025-01-07,3,Credit,23,578.5900000,ACTIVE,Approved by Finance,Potential,Required,2025-05-24,2025-09-07,شارع,الشميلي,4197,55425,7198,HAIL,Zone,,
,,,HAIL002,AG00301,ELTAHIR  HASSAN,CS015141,شباب خلف شباب,,,,,,,1,THU,27.49330,41.68472,,,,2025-01-07,0,,0,500.0000000,ACTIVE,Missing Documents,Potential,Required,,,,,,,,HAIL,Zone,,
,,,HAIL002,AG00301,ELTAHIR  HASSAN,CS015143,تموينات اليزيد توب,,,,,,,2,THU,26.03673,40.62339,,,,2025-01-07,0,,0,500.0000000,ACTIVE,Missing Documents,Potential,Required,,,,,,,,HAIL,Zone,,
,,حائل,HAIL002,AG00301,ELTAHIR  HASSAN,CS015146,شركة زهرة امل,"506,718,094",,,Traditional Trade,Large Grocery,,1,MON,27.52189,41.69221,"310,790,855,600,003","3,350,150,953","43,016,050,757",2025-01-07,1,Credit,21,5089.4800000,ACTIVE,Approved by Finance,Potential,Required,2025-10-07,2026-09-09,شارع,الوسيطاء,8592,55424,5101,HAIL,Zone,,
,,,HAIL002,AG00301,ELTAHIR  HASSAN,CS015147,تموينات رنا فايد عايد الشمري للمواد الغذائية,,,,,,,1,WED,27.02313,41.31895,,,,2025-01-07,0,,0,500.0000000,ACTIVE,Missing Documents,Potential,Required,,,,,,,,HAIL,Zone,,
,,,HAIL002,AG00301,ELTAHIR  HASSAN,CS015149,بقاله عكاظ واحد للمواد الغذائية,,,,,,,1,SUN,27.16824,42.42926,,,,2025-01-07,0,,0,500.0000000,ACTIVE,Missing Documents,Potential,Required,,,,,,,,HAIL,Zone,,
,,,HAIL002,AG00301,ELTAHIR  HASSAN,CS015153,موسسة عبد الله عليوي علي الشمري,,,,,,,1,SUN,26.88794,42.12030,,,,2025-01-07,0,,0,500.0000000,ACTIVE,Missing Documents,Potential,Required,,,,,,,,HAIL,Zone,,
,,حائل,HAIL002,AG00301,ELTAHIR  HASSAN,CS015154,محل ساره حمود عبدالعزيز بن حميد للمواد الغذائية,"500,706,504",,,Traditional Trade,Medium Grocery,,1,MON,27.51664,41.68248,"312,448,567,800,003","3,350,141,659","450,513,854,149",2025-01-07,3,Credit,0,500.0000000,ACTIVE,Approved by Finance,Potential,Required,2586-12-10,2026-10-19,المرسلات,الوسيطاء,7052,55424,4621,HAIL,Zone,,
,,حائل,HAIL002,AG00301,ELTAHIR  HASSAN,CS015157,أسواق الحميدي جارالله الشمري,"565,549,033",,,Traditional Trade,Medium Grocery,,2,SUN,27.50236,41.70527,"300,944,272,200,003","3,350,148,897","3,909,253,546",2025-01-07,2,Credit,0,500.0000000,ACTIVE,Approved by Finance,Potential,Required,2026-03-13,2026-06-14,الهفوف,الزبارة,6974,55424,4769,HAIL,Zone,,
,,حائل,HAIL002,AG00301,ELTAHIR  HASSAN,CS015158,مؤسسة نوف محمد المويسى للتجارة,"576,589,862",,,Traditional Trade,Medium Grocery,,2,WED,27.51085,41.69475,"311,199,282,600,003","3,350,041,837","3,909,285,635",2025-01-07,1,Credit,12,513.4100000,ACTIVE,Approved by Finance,Potential,Required,2025-06-05,2023-01-26,شارع,المحطة,9361,55421,4844,HAIL,Zone,,
,,,HAIL002,AG00301,ELTAHIR  HASSAN,CS015159,مؤسسة سالم عبدالله السبهان التجارية,,,,,,,1,THU,27.49423,41.68070,,,,2025-01-07,0,,0,500.0000000,ACTIVE,Missing Documents,Potential,Required,,,,,,,,HAIL,Zone,,
,,,HAIL002,AG00301,ELTAHIR  HASSAN,CS015162,اسواق عوض نوران رشيد المركزيه,,,,,,,2,THU,26.48977,40.59584,,,,2025-01-07,0,,0,500.0000000,ACTIVE,Missing Documents,Potential,Required,,,,,,,,HAIL,Zone,,
,,,HAIL002,AG00301,ELTAHIR  HASSAN,CS015163,بقالة صالح دهيس,,,,,,,2,THU,26.03954,40.62322,,,,2025-01-07,0,,0,500.0000000,ACTIVE,Missing Documents,Potential,Required,,,,,,,,HAIL,Zone,,
,,,HAIL002,AG00301,ELTAHIR  HASSAN,CS015164,تموينات نجد الشنان,,,,,,,1,SUN,27.17288,42.43820,,,,2025-01-07,0,,0,500.0000000,ACTIVE,Missing Documents,Potential,Required,,,,,,,,HAIL,Zone,,
,,,HAIL002,AG00301,ELTAHIR  HASSAN,CS015165,أسواق الزوادة المركزية,,,,,,,2,THU,25.98504,40.46781,,,,2025-01-07,0,,0,500.0000000,ACTIVE,Missing Documents,Potential,Required,,,,,,,,HAIL,Zone,,
,,,HAIL002,AG00301,ELTAHIR  HASSAN,CS015166,بقاله  ركن الحسام للمواد الغذائية,,,,,,,2,THU,26.01192,40.81342,,,,2025-01-07,0,,0,500.0000000,ACTIVE,Missing Documents,Potential,Required,,,,,,,,HAIL,Zone,,
,,,HAIL002,AG00301,ELTAHIR  HASSAN,CS015167,مؤسسة وفاء خليف حمود الشمري التجارية,,,,,,,1,SUN,27.17268,42.43859,,,,2025-01-07,0,,0,500.0000000,ACTIVE,Missing Documents,Potential,Required,,,,,,,,HAIL,Zone,,
,,حائل,HAIL002,AG00301,ELTAHIR  HASSAN,CS015169,تموينات فهد ضافي عبد الله الرشيدي,"566,350,021",,,Traditional Trade,Medium Grocery,,2,SUN,27.50343,41.71803,"311,643,575,700,003","3,350,165,097","450,112,714,549",2025-01-07,8,Credit,4,500.0000000,ACTIVE,Approved by Finance,Potential,Required,2586-08-07,2025-06-27,السمراء,الوسيطاء,0,55425,0,HAIL,Zone,,
,,حائل,HAIL002,AG00301,ELTAHIR  HASSAN,CS015170,تموينات هنيه للمواد الغذائية,"578,893,814",,,Traditional Trade,Medium Grocery,,1,TUE,27.52994,41.75994,"310,746,108,300,003","3,350,160,856","450,112,848,374",2025-01-07,2,Credit,0,500.0000000,ACTIVE,Approved by Finance,Potential,Required,2586-09-02,2025-07-04,قرطبة,الوسيطاء,6467,55225,5321,HAIL,Zone,,
,,حائل,HAIL002,AG00301,ELTAHIR  HASSAN,CS015171,سوبرماركت أملاك الجبل,"536,057,364",,,Traditional Trade,Medium Grocery,,1,WED,27.19968,41.31815,"310,819,468,500,003","3,350,144,488","40,112,492,803",2025-01-07,4,Credit,0,500.0000000,ACTIVE,Approved by Finance,Potential,Required,2025-08-03,2026-04-26,شارع,الشميلي,2240,55471,8724,HAIL,Zone,,
,,حائل,HAIL002,AG00301,ELTAHIR  HASSAN,CS015177,مؤسسة دهيره عسام الشمري التجارية,"556,545,846",,,Traditional Trade,Small Grocery,,2,SAT,27.34865,41.63075,"310,116,863,700,003","3,357,006,233","3,909,262,097",2025-01-07,3,Credit,12,500.0000000,ACTIVE,Approved by Finance,Potential,Required,2587-01-28,2025-05-12,المفرق,المحطة,4471,55212,8693,HAIL,Zone,,
,,,HAIL002,AG00301,ELTAHIR  HASSAN,CS015180,تموينات شموع حائل,,,,,,,2,SUN,27.51065,41.70053,,,,2025-01-07,0,,0,500.0000000,ACTIVE,Missing Documents,Potential,Required,,,,,,,,HAIL,Zone,,
,,,HAIL002,AG00301,ELTAHIR  HASSAN,CS015181,محل احلي مزاج للحلويات والمكسرات,,,,,,,2,THU,25.98407,40.47498,,,,2025-01-07,0,,0,500.0000000,ACTIVE,Missing Documents,Potential,Required,,,,,,,,HAIL,Zone,,
,,,HAIL002,AG00301,ELTAHIR  HASSAN,CS015183,موسسه عبيدان صخيبر الرشيدي,,,,,,,1,WED,26.46776,41.10637,,,,2025-01-07,0,,0,500.0000000,ACTIVE,Missing Documents,Potential,Required,,,,,,,,HAIL,Zone,,
,,,HAIL002,AG00301,ELTAHIR  HASSAN,CS015184,موسسه فهد سليم,,,,,,,1,THU,27.47338,41.71278,,,,2025-01-07,0,,0,500.0000000,ACTIVE,Missing Documents,Potential,Required,,,,,,,,HAIL,Zone,,
,,حائل,HAIL002,AG00301,ELTAHIR  HASSAN,CS015185,تموينات افراح سلتي للمواد الغذائية,"533,356,219",,,Traditional Trade,Medium Grocery,,1,SAT,27.54954,41.74287,"311,232,587,400,003","3,350,152,619","42,115,803,137",2025-01-07,5,Credit,19,785.3400000,ACTIVE,Approved by Finance,Potential,Required,2025-02-11,2024-05-13,شارع,الشميلي,3907,55429,9393,HAIL,Zone,,
,,حائل,HAIL002,AG00301,ELTAHIR  HASSAN,CS015186,تموينات للمواد الغذائية,"501,578,985",,,Traditional Trade,Medium Grocery,,1,SUN,27.26298,42.63234,"311,603,419,500,003","3,365,100,885","460,517,632,369",2025-01-07,19,Credit,0,1725.7300000,ACTIVE,Approved by Finance,Potential,Required,2025-11-03,2025-11-21,شارع,الشق,0,53613,0,HAIL,Zone,,
,,,HAIL002,AG00301,ELTAHIR  HASSAN,CS015187,اسواق بيركان,,,,,,,2,SUN,27.49941,41.71666,,,,2025-01-07,0,,0,500.0000000,ACTIVE,Missing Documents,Potential,Required,,,,,,,,HAIL,Zone,,
,,حائل,HAIL002,AG00301,ELTAHIR  HASSAN,CS015188,تموينات للمواد الغذائية,"576,497,989",,,Traditional Trade,Medium Grocery,,1,THU,27.49901,41.68612,"300,969,602,600,003","3,350,013,720","41,042,630,016",2025-01-07,6,Credit,0,500.0000000,ACTIVE,Approved by Finance,Potential,Required,2025-09-07,2024-10-17,شارع,المطار,4583,55424,6987,HAIL,Zone,,
,,,HAIL002,AG00301,ELTAHIR  HASSAN,CS015189,أسواق مركزية,,,,,,,2,MON,27.43589,41.72474,,,,2025-01-07,0,,0,500.0000000,ACTIVE,Missing Documents,Potential,Required,,,,,,,,HAIL,Zone,,
,,,HAIL002,AG00301,ELTAHIR  HASSAN,CS015190,بقاله دوام دحام مسهوج الشمري,"533,376,145",,,,,,1,SUN,27.27387,42.25076,,,,2025-01-07,0,,0,500.0000000,ACTIVE,Missing Documents,Potential,Required,,,,,,,,HAIL,Zone,,
,,,HAIL002,AG00301,ELTAHIR  HASSAN,CS015193,تموينات لطيفه جزاع مشعل الشمري للمواد الغذائية,,,,,,,2,WED,27.51461,41.68693,,,,2025-01-07,0,,0,500.0000000,ACTIVE,Missing Documents,Potential,Required,,,,,,,,HAIL,Zone,,
,,حائل,HAIL002,AG00301,ELTAHIR  HASSAN,CS015195,تموينات مرضي مشعان عايد العنزي للمواد الغذائية,"540,472,692",,,Traditional Trade,Medium Grocery,,2,SAT,27.44780,41.65580,"310,600,255,200,003","3,350,148,650","41,113,631,003",2025-01-07,6,Credit,12,500.0000000,ACTIVE,Approved by Finance,Potential,Required,2025-05-17,2025-05-30,شارع,الجمعة,4269,55215,8236,HAIL,Zone,,
,,,HAIL002,AG00301,ELTAHIR  HASSAN,CS015197,مؤسسة ثلاجة بركات التجارية,,,,,,,1,MON,27.52202,41.69089,,,,2025-01-07,0,,0,500.0000000,ACTIVE,Missing Documents,Potential,Required,,,,,,,,HAIL,Zone,,
,,,HAIL002,AG00301,ELTAHIR  HASSAN,CS015198,تموينات ماجد صالح عبدالله الردادي,,,,,,,2,WED,27.51375,41.68416,,,,2025-01-07,0,,0,500.0000000,ACTIVE,Missing Documents,Potential,Required,,,,,,,,HAIL,Zone,,
,,,HAIL002,AG00301,ELTAHIR  HASSAN,CS015203,اسواق الفرات,,,,,,,2,MON,27.46914,41.71192,,,,2025-01-07,0,,0,500.0000000,ACTIVE,Missing Documents,Potential,Required,,,,,,,,HAIL,Zone,,
,,,HAIL002,AG00301,ELTAHIR  HASSAN,CS015210,مؤسسة جود حائل التجارية,,,,,,,2,MON,27.46636,41.71440,,,,2025-01-07,0,,0,500.0000000,ACTIVE,Missing Documents,Potential,Required,,,,,,,,HAIL,Zone,,
,,حائل,HAIL002,AG00301,ELTAHIR  HASSAN,CS015212,بقالة بدر سعود العنزي للمواد الغذائية,"578,756,402",,,Traditional Trade,Medium Grocery,,1,THU,27.49240,41.68542,"311,236,933,600,003","3,350,159,470","43,119,972,815",2025-01-07,5,Credit,8,2164.0500000,ACTIVE,Approved by Finance,Potential,Required,2025-02-27,2025-05-05,عبد الرحمن المقدسي,الجمعة,3965,55421,7273,HAIL,Zone,,
,,حائل,HAIL002,AG00301,ELTAHIR  HASSAN,CS015213,مؤسسة فهد علي ناصر الحريص التجارية,"564,750,463",,,Traditional Trade,Medium Grocery,,1,THU,27.49074,41.68597,"300,477,555,900,003","3,350,164,115","440,210,458,890",2025-01-07,4,Credit,0,551.7000000,ACTIVE,Approved by Finance,Potential,Required,2025-02-18,2025-08-04,صالح السالم,الجمعة,7117,55421,4824,HAIL,Zone,,
,,,HAIL002,AG00301,ELTAHIR  HASSAN,CS015214,تموينات نايف سلامه الغباش,,,,,,,1,THU,27.50027,41.70515,,,,2025-01-07,0,,0,500.0000000,ACTIVE,Missing Documents,Potential,Required,,,,,,,,HAIL,Zone,,
,,,HAIL002,AG00301,ELTAHIR  HASSAN,CS015215,شركة اسطورة الشمال التجارية,,,,,,,1,MON,27.51917,41.69181,,,,2025-01-07,0,,0,500.0000000,ACTIVE,Missing Documents,Potential,Required,,,,,,,,HAIL,Zone,,
,,حائل,HAIL002,AG00301,ELTAHIR  HASSAN,CS015216,بقالة رجاء غازى سالم الشمرى للمواد الغذائية,"165,324,283",,,Traditional Trade,Small Grocery,,1,MON,27.51779,41.66377,"301,137,574,500,003","3,350,103,755","40,011,614,186",2025-01-07,6,Credit,0,500.0000000,ACTIVE,Approved by Finance,Potential,Required,2586-11-18,2025-07-17,الوسط,الوسيطاء,2659,55424,7075,HAIL,Zone,,
,,الشملي,HAIL002,AG00301,ELTAHIR  HASSAN,CS015217,تموينات ياسمين قفار,"557,207,834",,,Traditional Trade,Medium Grocery,,2,SAT,27.39926,41.58772,"311,111,111,111,113","3,360,606,601","460,417,164,677",2025-01-07,13,Credit,15,500.0000000,ACTIVE,Approved by Finance,Potential,Required,2025-12-09,2025-10-04,شارع,قفار,6518,55549,3896,HAIL,Zone,,
,,,HAIL002,AG00301,ELTAHIR  HASSAN,CS015223,تموينات محمد عياد الشمري,,,,,,,1,WED,26.49315,41.14351,,,,2025-01-07,0,,0,500.0000000,ACTIVE,Missing Documents,Potential,Required,,,,,,,,HAIL,Zone,,
,,,HAIL002,AG00301,ELTAHIR  HASSAN,CS015226,مؤسسة اضواء جوهره الوسم التجارية,,,,,,,1,SAT,27.55447,41.72406,,,,2025-01-07,0,,0,500.0000000,ACTIVE,Missing Documents,Potential,Required,,,,,,,,HAIL,Zone,,
,,حائل,HAIL002,AG00301,ELTAHIR  HASSAN,CS015227,تموينات ثمرات بلس للمواد الغذائية,"559,166,918",,,Traditional Trade,Medium Grocery,,1,MON,27.51773,41.68544,"311,028,001,400,003","3,350,153,678","40,011,625,701",2025-01-07,3,Credit,0,500.0000000,ACTIVE,Approved by Finance,Potential,Required,2025-04-28,2025-10-08,شارع,شنان,6987,55424,5276,HAIL,Zone,,
,,,HAIL002,AG00301,ELTAHIR  HASSAN,CS015229,سلمي صالح الحوبشان,,,,,,,2,THU,25.98347,40.47444,,,,2025-01-07,0,,0,500.0000000,ACTIVE,Missing Documents,Potential,Required,,,,,,,,HAIL,Zone,,
,,,HAIL002,AG00301,ELTAHIR  HASSAN,CS015231,تموينات ركن التوصيل,,,,,,,1,MON,27.52110,41.68843,,,,2025-01-07,0,,0,500.0000000,ACTIVE,Missing Documents,Potential,Required,,,,,,,,HAIL,Zone,,
,,حائل,HAIL002,AG00301,ELTAHIR  HASSAN,CS015234,مؤسسة سرور عبيد الهمزاني للتجارة,"538,281,111",,,Traditional Trade,Medium Grocery,,1,TUE,27.52386,41.69987,"300,927,928,800,003","3,350,042,539","40,011,606,945",2025-01-07,4,Credit,23,3214.3000000,ACTIVE,Approved by Finance,Potential,Required,2586-08-31,2024-07-18,برزان,الوسيطاء,6266,55428,2514,HAIL,Zone,,
,,,HAIL002,AG00301,ELTAHIR  HASSAN,CS015235,تموينات درة وطنى,"557,979,962",,,,,,1,WED,26.78625,41.31792,,,,2025-01-07,0,,0,500.0000000,ACTIVE,Missing Documents,Potential,Required,,,,,,,,HAIL,Zone,,
,,الضربة,HAIL002,AG00301,ELTAHIR  HASSAN,CS015236,بقالة شمول التجارية,"553,064,926",,,Traditional Trade,Medium Grocery,,1,WED,26.85413,41.74242,"302,127,739,700,003","3,350,155,713","3,909,675,441",2025-01-07,6,Credit,0,500.0000000,ACTIVE,Approved by Finance,Potential,Required,2025-09-04,2025-10-09,الضربه,العزيزية,8862,57684,3691,HAIL,Zone,,
,,,HAIL002,AG00301,ELTAHIR  HASSAN,CS015237,تموينات محمد بن فياض,,,,,,,1,SUN,27.11438,42.51685,,,,2025-01-07,0,,0,500.0000000,ACTIVE,Missing Documents,Potential,Required,,,,,,,,HAIL,Zone,,
,,,HAIL002,AG00301,ELTAHIR  HASSAN,CS015240,تموينات وقدان,"532,643,412",,,,,,2,THU,25.98320,40.47206,,,,2025-01-07,0,,0,500.0000000,ACTIVE,Missing Documents,Potential,Required,,,,,,,,HAIL,Zone,,
,,,HAIL002,AG00301,ELTAHIR  HASSAN,CS015243,تموينات نايف عبد الرحمن,,,,,,,1,SAT,27.55049,41.72580,,,,2025-01-07,0,,0,500.0000000,ACTIVE,Missing Documents,Potential,Required,,,,,,,,HAIL,Zone,,
,,,HAIL002,AG00301,ELTAHIR  HASSAN,CS015245,شركة أطياف دبي التجارية,,,,,,,1,TUE,27.52709,41.70270,,,,2025-01-07,0,,0,500.0000000,ACTIVE,Missing Documents,Potential,Required,,,,,,,,HAIL,Zone,,
,,حائل,HAIL002,AG00301,ELTAHIR  HASSAN,CS015246,تموينات هياء مبارك خلف الشمري للمواد الغذائية,"515,811,733",,,Traditional Trade,Medium Grocery,,2,SUN,27.51244,41.70234,"310,157,580,200,003","3,350,158,117","43,069,268,609",2025-01-07,1,Credit,0,500.0000000,ACTIVE,Approved by Finance,Potential,Required,2026-01-04,2025-12-19,الامير مقرن بن عبد العزيز,الزبارة,8238,55425,2613,HAIL,Zone,,
,,,HAIL002,AG00301,ELTAHIR  HASSAN,CS015247,موسسه صفيه عبد الله الشمري,"531,993,926",,,,,,1,SUN,27.17296,42.43857,,,,2025-01-07,0,,0,500.0000000,ACTIVE,Missing Documents,Potential,Required,,,,,,,,HAIL,Zone,,
,,حائل,HAIL002,AG00301,ELTAHIR  HASSAN,CS015248,بقالة عبد الرحمن الشمري,"572,210,711",,,Traditional Trade,Medium Grocery,,2,SUN,27.50336,41.70519,"301,118,577,400,003","3,350,042,311","3,909,266,997",2025-01-07,5,Credit,27,552.5300000,ACTIVE,Approved by Finance,Potential,Required,2025-07-26,2025-02-18,ابن الثلجي,الزبارة,3481,55425,6842,HAIL,Zone,,
,,,HAIL002,AG00301,ELTAHIR  HASSAN,CS015252,تموينات الحميدي,,,,,,,2,TUE,27.51607,41.70989,,,,2025-01-07,0,,0,500.0000000,ACTIVE,Missing Documents,Potential,Required,,,,,,,,HAIL,Zone,,
,,الحائط,HAIL002,AG00301,ELTAHIR  HASSAN,CS015253,أسواق سامي النسيم للمواد الغذائية,"535,842,600",,,Traditional Trade,Medium Grocery,,2,THU,25.98559,40.46537,"300,994,789,700,003","3,356,355,458","40,102,472,740",2025-01-07,3,Credit,9,814.3100000,ACTIVE,Approved by Finance,Potential,Required,2025-05-02,2025-02-28,شارع,الشميلي,2835,57359,6919,HAIL,Zone,,
,,,HAIL002,AG00301,ELTAHIR  HASSAN,CS015258,تموينات  خميس عقيل الشمري,,,,,,,2,TUE,27.50929,41.72256,,,,2025-01-07,0,,0,500.0000000,ACTIVE,Missing Documents,Potential,Required,,,,,,,,HAIL,Zone,,
,,حائل,HAIL002,AG00301,ELTAHIR  HASSAN,CS015261,تموينات اسوار الخليج للمواد الغذائية,"506,580,336",,,Traditional Trade,Medium Grocery,,2,SUN,27.49769,41.70992,"310,851,867,600,003","3,350,165,024","441,212,529,291",2025-01-07,2,Credit,0,500.0000000,ACTIVE,Approved by Finance,Potential,Required,2025-04-29,2025-05-30,سعيد المنذري,الوسيطاء,9665,55422,4518,HAIL,Zone,,
,,حائل,HAIL002,AG00301,ELTAHIR  HASSAN,CS015262,تموينات ركن المطار للمواد الغذائية,"550,337,476",,,Traditional Trade,Medium Grocery,,1,THU,27.50331,41.69206,"311,691,685,700,003","3,350,165,812","441,212,561,053",2025-01-07,9,Credit,0,500.0000000,ACTIVE,Approved by Finance,Potential,Required,2025-06-18,2025-06-04,شارع,المطار,0,55421,0,HAIL,Zone,,
,,الشنان,HAIL002,AG00301,ELTAHIR  HASSAN,CS015263,بقالة الشرق النموذجية,"572,028,763",,,Traditional Trade,Medium Grocery,,1,SUN,27.16672,42.44064,"311,828,501,500,003","3,350,167,385","3,909,615,000",2025-01-07,2,Credit,0,500.0000000,ACTIVE,Approved by Finance,Potential,Required,2025-09-27,2025-08-31,شارع,الشنان,8047,53521,5352,HAIL,Zone,,
,,,HAIL002,AG00301,ELTAHIR  HASSAN,CS015265,تموينات مرضي مشعان عايد العنزي للمواد الغذائية,,,,,,,2,SUN,27.50025,41.71172,,,,2025-01-07,0,,0,500.0000000,ACTIVE,Missing Documents,Potential,Required,,,,,,,,HAIL,Zone,,
,,,HAIL002,AG00301,ELTAHIR  HASSAN,CS015270,بقاله خالد مناور الشمري,,,,,,,2,SUN,27.51321,41.70202,,,,2025-01-07,0,,0,500.0000000,ACTIVE,Missing Documents,Potential,Required,,,,,,,,HAIL,Zone,,
,,,HAIL002,AG00301,ELTAHIR  HASSAN,CS015275,2000 للتسوق,,,,,,,1,SUN,27.03103,42.18312,,,,2025-01-07,0,,0,500.0000000,ACTIVE,Missing Documents,Potential,Required,,,,,,,,HAIL,Zone,,
,,,HAIL002,AG00301,ELTAHIR  HASSAN,CS015276,بقالة فاطمه حميد محمد الزبني للمواد الغذائية,,,,,,,2,THU,25.98985,40.81000,,,,2025-01-07,0,,0,500.0000000,ACTIVE,Missing Documents,Potential,Required,,,,,,,,HAIL,Zone,,
,,,HAIL002,AG00301,ELTAHIR  HASSAN,CS015281,تموينات سوبر ماركت,,,,,,,2,THU,25.98736,40.80646,,,,2025-01-07,0,,0,500.0000000,ACTIVE,Missing Documents,Potential,Required,,,,,,,,HAIL,Zone,,
,,,HAIL002,AG00301,ELTAHIR  HASSAN,CS015282,مؤسسة فوزية عوض بن عيد الشمري 3,,,,,,,1,SUN,27.25586,42.50498,,,,2025-01-07,0,,0,500.0000000,ACTIVE,Missing Documents,Potential,Required,,,,,,,,HAIL,Zone,,
,,حائل,HAIL002,AG00301,ELTAHIR  HASSAN,CS015284,تموينات بدريه فرحان نهار الشمري للمواد الغذائية,"576,997,621",,,Traditional Trade,Medium Grocery,,1,THU,27.49531,41.70733,"310,585,995,200,003","3,350,148,485","460,517,783,984",2025-01-07,0,,0,500.0000000,ACTIVE,Approved by Finance,Potential,Required,2025-04-23,2025-11-22,شارع,السامرا,6219,55471,3458,HAIL,Zone,,
,,,HAIL002,AG00301,ELTAHIR  HASSAN,CS015286,محل وليد معتق سبيل الرشيدي,,,,,,,1,THU,27.49008,41.70453,,,,2025-01-07,0,,0,500.0000000,ACTIVE,Missing Documents,Potential,Required,,,,,,,,HAIL,Zone,,
,,,HAIL002,AG00301,ELTAHIR  HASSAN,CS015291,تموينات ضاري أحمد صالح العامر للمواد الغذائية,,,,,,,1,TUE,27.54335,41.70663,,,,2025-01-07,0,,0,500.0000000,ACTIVE,Missing Documents,Potential,Required,,,,,,,,HAIL,Zone,,
,,,HAIL002,AG00301,ELTAHIR  HASSAN,CS015292,ركن الإختيار,,,,,,,1,SAT,27.54630,41.71710,,,,2025-01-07,0,,0,500.0000000,ACTIVE,Missing Documents,Potential,Required,,,,,,,,HAIL,Zone,,
,,الحائط,HAIL002,AG00301,ELTAHIR  HASSAN,CS015294,بقالة رضيه عوض النور الشويلعي الرشيدي للمواد الغذائية,"506,085,471",,,Traditional Trade,Medium Grocery,,2,THU,25.98168,40.45755,"300,804,551,400,003","3,356,354,727","42,054,991,382",2025-01-07,3,Credit,0,500.0000000,ACTIVE,Approved by Finance,Potential,Required,2588-02-20,2025-10-26,السلام,الحائط,7011,57946,2155,HAIL,Zone,,
,,حائل,HAIL002,AG00301,ELTAHIR  HASSAN,CS015295,تموينات سعود بن محمد بن المحيسن للمواد الغذائية,"558,402,473",,,Traditional Trade,Medium Grocery,,2,TUE,27.51720,41.70028,"311,642,034,200,003","3,350,165,070","41,012,544,695",2025-01-07,9,Credit,12,916.0000000,ACTIVE,Approved by Finance,Potential,Required,2025-04-30,2025-06-27,شارع,شنان,0,55425,0,HAIL,Zone,,
,,,HAIL002,AG00301,ELTAHIR  HASSAN,CS015299,تموينات متعبه عليان الشمري,,,,,,,1,WED,26.81817,41.49269,,,,2025-01-07,0,,0,500.0000000,ACTIVE,Missing Documents,Potential,Required,,,,,,,,HAIL,Zone,,
,,,HAIL002,AG00301,ELTAHIR  HASSAN,CS015301,بقاله ماشي بن صعفق الشمري,,,,,,,1,SAT,27.55063,41.74333,,,,2025-01-07,0,,0,500.0000000,ACTIVE,Missing Documents,Potential,Required,,,,,,,,HAIL,Zone,,
,,,HAIL002,AG00301,ELTAHIR  HASSAN,CS015304,تموينات سبيعة,,,,,,,1,SUN,27.27719,42.25287,,,,2025-01-07,0,,0,500.0000000,ACTIVE,Missing Documents,Potential,Required,,,,,,,,HAIL,Zone,,
,,,HAIL002,AG00301,ELTAHIR  HASSAN,CS015305,تموينات صالحه رومي مبارك,,,,,,,1,THU,27.48189,41.71738,,,,2025-01-07,0,,0,500.0000000,ACTIVE,Missing Documents,Potential,Required,,,,,,,,HAIL,Zone,,
,,النبوان,HAIL002,AG00301,ELTAHIR  HASSAN,CS015310,اسواق درر الشروق,"534,442,942",,,Traditional Trade,Large Grocery,,2,THU,26.41161,40.54718,"310,790,820,600,003","3,357,608,319","440,611,350,861",2025-01-07,10,Credit,11,1249.7700000,ACTIVE,Approved by Finance,Potential,Required,2025-12-19,2026-12-03,شارع,شنان,7134,57967,5200,HAIL,Zone,,
,,,HAIL002,AG00301,ELTAHIR  HASSAN,CS015313,بقاله رعد خضير فياض الشمري,,,,,,,1,SAT,27.54641,41.72046,,,,2025-01-07,0,,0,500.0000000,ACTIVE,Missing Documents,Potential,Required,,,,,,,,HAIL,Zone,,
,,,HAIL002,AG00301,ELTAHIR  HASSAN,CS015318,تموينات موسسه طعمتي,,,,,,,1,SAT,27.54691,41.71794,,,,2025-01-07,0,,0,500.0000000,ACTIVE,Missing Documents,Potential,Required,,,,,,,,HAIL,Zone,,
,,,HAIL002,AG00301,ELTAHIR  HASSAN,CS015320,تموينات هديل عيسى محمد الحميد للمواد الغذائية,,,,,,,2,WED,27.50881,41.69743,,,,2025-01-07,0,,0,500.0000000,ACTIVE,Missing Documents,Potential,Required,,,,,,,,HAIL,Zone,,
,,,HAIL002,AG00301,ELTAHIR  HASSAN,CS015321,شركة نخلة البراري التجارية,,,,,,,1,MON,27.52208,41.69185,,,,2025-01-07,0,,0,500.0000000,ACTIVE,Missing Documents,Potential,Required,,,,,,,,HAIL,Zone,,
,,حائل,HAIL002,AG00301,ELTAHIR  HASSAN,CS015324,تموينات ربيعه عطا  للمواد الغذائية,"509,262,411",,,Traditional Trade,Medium Grocery,,1,TUE,27.53128,41.70857,"300,960,661,100,003","3,350,103,681","40,011,620,587",2025-01-07,7,Credit,0,500.0000000,ACTIVE,Approved by Finance,Potential,Required,2025-06-05,2025-10-27,ابو ذرى الغفاري,المزعبر,2959,55423,7523,HAIL,Zone,,
,,الحائط,HAIL002,AG00301,ELTAHIR  HASSAN,CS015327,بقالة عائشه,"596,448,580",,,Traditional Trade,Medium Grocery,,2,THU,25.97992,40.45640,"311,210,173,200,003","3,356,355,392","43,089,559,395",2025-01-07,5,Credit,0,500.0000000,ACTIVE,Approved by Finance,Potential,Required,2586-05-17,2025-02-24,السلام,السلام,7222,57359,2599,HAIL,Zone,,
,,حائل,HAIL002,AG00301,ELTAHIR  HASSAN,CS015328,مخابز و متاجر شركة بروق الرشد الاقتصادية,"532,569,858",,,Traditional Trade,Large Grocery,,2,THU,25.99171,40.81389,"311,342,663,100,003","4,032,233,754","460,718,337,897",2025-01-07,2,Credit,30,1500.0000000,ACTIVE,Approved by Finance,Potential,Required,2025-05-21,2028-01-02,شارع,الخليفة السفلى,9277,55241,4901,HAIL,Zone,,
,,,HAIL002,AG00301,ELTAHIR  HASSAN,CS015329,محل كشتة الوسم للمواد الغذائية,"509,816,264",,,,,,1,THU,27.49115,41.70527,,,,2025-01-07,0,,0,500.0000000,ACTIVE,Missing Documents,Potential,Required,,,,,,,,HAIL,Zone,,
,,,HAIL002,AG00301,ELTAHIR  HASSAN,CS015330,بقالة  هنيه مريزيق رشيد,,,,,,,2,MON,27.37247,41.71488,,,,2025-01-07,0,,0,500.0000000,ACTIVE,Missing Documents,Potential,Required,,,,,,,,HAIL,Zone,,
,,,HAIL002,AG00301,ELTAHIR  HASSAN,CS015331,تموينات فهد لافي رشيد الرشيدي للمواد الغذائية,,,,,,,1,WED,26.17751,40.93331,,,,2025-01-07,0,,0,500.0000000,ACTIVE,Missing Documents,Potential,Required,,,,,,,,HAIL,Zone,,
,,,HAIL002,AG00301,ELTAHIR  HASSAN,CS015332,تموينات محمد مرضي العنزي,,,,,,,2,SAT,27.43521,41.64811,,,,2025-01-07,0,,0,500.0000000,ACTIVE,Missing Documents,Potential,Required,,,,,,,,HAIL,Zone,,
,,حائل,HAIL002,AG00301,ELTAHIR  HASSAN,CS015336,تموينات شوق عبدالله العفنان للمواد الغذائية,"545,788,291",,,Traditional Trade,Small Grocery,,2,TUE,27.51567,41.70089,"310,258,124,200,003","3,350,141,255","41,042,632,736",2025-01-07,6,Credit,0,500.0000000,ACTIVE,Approved by Finance,Potential,Required,2025-09-20,2025-10-11,شارع,الشميلي,3237,55425,6257,HAIL,Zone,,
,,حائل,HAIL002,AG00301,ELTAHIR  HASSAN,CS015338,بقالة ضوح الشمال للمواد الغذائية,"578,228,041",,,Traditional Trade,Medium Grocery,,1,THU,27.49663,41.68048,"312,200,669,400,003","3,350,141,257","3,910,736,071",2025-01-07,5,Credit,0,500.0000000,ACTIVE,Approved by Finance,Potential,Required,2025-09-03,2025-04-25,شارع,شنان,6423,55482,2952,HAIL,Zone,,
,,,HAIL002,AG00301,ELTAHIR  HASSAN,CS015340,بقالة نافع صالح عواض الرشيدي للمواد الغذائية,,,,,,,2,THU,26.13796,40.53419,,,,2025-01-07,0,,0,500.0000000,ACTIVE,Missing Documents,Potential,Required,,,,,,,,HAIL,Zone,,
,,حائل,HAIL002,AG00301,ELTAHIR  HASSAN,CS015341,تموينات نوره فهد للمواد الغذائية,"551,851,301",,,Traditional Trade,Medium Grocery,,1,TUE,27.54087,41.71379,"311,083,568,800,003","3,350,156,213","441,012,188,146",2025-01-07,7,Credit,16,500.0000000,ACTIVE,Approved by Finance,Potential,Required,2026-10-01,2025-04-24,شارع,صديان,3217,55424,8106,HAIL,Zone,,
,,حائل,HAIL002,AG00301,ELTAHIR  HASSAN,CS015345,تموينات صيديان الخير,"508,179,375",,,Traditional Trade,Medium Grocery,,1,TUE,27.53965,41.70608,"311,111,111,111,113","3,350,164,067","440,811,669,090",2025-01-07,6,Credit,10,500.0000000,In-Active,Approved by Finance,Potential,Required,2025-02-14,2025-02-03,معن بن اوس,صديان,0,55428,0,HAIL,Zone,,
,,,HAIL002,AG00301,ELTAHIR  HASSAN,CS015346,بقالة عايضة عليان الرشيدي,,,,,,,2,THU,26.04214,40.62420,,,,2025-01-07,0,,0,500.0000000,ACTIVE,Missing Documents,Potential,Required,,,,,,,,HAIL,Zone,,
,,,HAIL002,AG00301,ELTAHIR  HASSAN,CS015349,تموينات عبد الله بن مجاد,,,,,,,1,MON,27.51767,41.66287,,,,2025-01-07,0,,0,500.0000000,ACTIVE,Missing Documents,Potential,Required,,,,,,,,HAIL,Zone,,
,,حائل,HAIL002,AG00301,ELTAHIR  HASSAN,CS015353,تموينات حجر بدر للمواد الغذائية,"532,842,300",,,Traditional Trade,Medium Grocery,,1,TUE,27.52713,41.69808,"301,007,698,700,003","3,350,150,919","450,413,591,126",2025-01-07,6,Credit,13,500.0000000,ACTIVE,Approved by Finance,Potential,Required,2025-10-27,2024-10-11,شارع,العزيزية,8836,55421,4302,HAIL,Zone,,
,,,HAIL002,AG00301,ELTAHIR  HASSAN,CS015355,اسواق نهار المركزيه,,,,,,,2,SUN,27.50106,41.71788,,,,2025-01-07,0,,0,500.0000000,ACTIVE,Missing Documents,Potential,Required,,,,,,,,HAIL,Zone,,
,,حائل,HAIL002,AG00301,ELTAHIR  HASSAN,CS015356,تموينات قيلة أجا للمواد الغذائية,"558,463,595",,,Traditional Trade,Medium Grocery,,1,SAT,27.55087,41.72606,"302,081,828,300,003","3,350,127,344","440,811,652,792",2025-01-07,3,Credit,0,500.0000000,ACTIVE,Approved by Finance,Potential,Required,2586-07-02,2026-01-19,المملكة,الوسيطاء,6288,55475,2784,HAIL,Zone,,
,,,HAIL002,AG00301,ELTAHIR  HASSAN,CS015360,بقالة هياء بنت نزال بن خضر الشمري,,,,,,,2,TUE,27.51386,41.75726,,,,2025-01-07,0,,0,500.0000000,ACTIVE,Missing Documents,Potential,Required,,,,,,,,HAIL,Zone,,
,,,HAIL002,AG00301,ELTAHIR  HASSAN,CS015362,تموينات  علياء علي سمحيان,,,,,,,2,THU,25.98333,40.47450,,,,2025-01-07,0,,0,500.0000000,ACTIVE,Missing Documents,Potential,Required,,,,,,,,HAIL,Zone,,
,,,HAIL002,AG00301,ELTAHIR  HASSAN,CS015365,مؤسسة جنان الرمان,"536,743,617",,,,,,2,TUE,27.51966,41.70065,,,,2025-01-07,0,,0,500.0000000,ACTIVE,Missing Documents,Potential,Required,,,,,,,,HAIL,Zone,,
,,,HAIL002,AG00301,ELTAHIR  HASSAN,CS015367,مؤسسة عبدالله مقيم الشمري,,,,,,,1,SAT,27.54661,41.71984,,,,2025-01-07,0,,0,500.0000000,ACTIVE,Missing Documents,Potential,Required,,,,,,,,HAIL,Zone,,
,,حائل,HAIL002,AG00301,ELTAHIR  HASSAN,CS015370,روعة فرحة التجارية,"539,628,390",,,Traditional Trade,Medium Grocery,,1,TUE,27.53959,41.69967,"311,249,365,900,003","3,350,148,955","3,909,282,968",2025-01-07,5,Credit,21,767.9300000,ACTIVE,Approved by Finance,Potential,Required,2025-02-27,2025-06-21,حمود العقلاء,صديان,3570,55421,8417,HAIL,Zone,,
,,حائل,HAIL002,AG00301,ELTAHIR  HASSAN,CS015374,تموينات عكاظ حائل للمواد الغذائية,"534,216,279",,,Traditional Trade,Medium Grocery,,1,TUE,27.52733,41.70774,"311,322,188,300,003","3,350,037,733","451,015,490,522",2025-01-07,5,Credit,0,500.0000000,ACTIVE,Approved by Finance,Potential,Required,2025-06-06,2025-04-24,شارع,الشميلي,8360,55425,2955,HAIL,Zone,,
,,,HAIL002,AG00301,ELTAHIR  HASSAN,CS015376,بقاله مها عبدالله,,,,,,,1,WED,26.17734,40.93106,,,,2025-01-07,0,,0,500.0000000,ACTIVE,Missing Documents,Potential,Required,,,,,,,,HAIL,Zone,,
,,,HAIL002,AG00301,ELTAHIR  HASSAN,CS015382,تموينات مشاري الرشيدي,,,,,,,2,WED,27.50385,41.67046,,,,2025-01-07,0,,0,500.0000000,ACTIVE,Missing Documents,Potential,Required,,,,,,,,HAIL,Zone,,
,,,HAIL002,AG00301,ELTAHIR  HASSAN,CS015384,تموينات الحميدي  جار  الله,"567,805,562",,,,,,1,THU,27.49060,41.71076,,,,2025-01-07,0,,0,500.0000000,ACTIVE,Missing Documents,Potential,Required,,,,,,,,HAIL,Zone,,
,,,HAIL002,AG00301,ELTAHIR  HASSAN,CS015391,محامص ركن الكيف للمكسرات,,,,,,,2,THU,25.98312,40.47444,,,,2025-01-07,0,,0,500.0000000,ACTIVE,Missing Documents,Potential,Required,,,,,,,,HAIL,Zone,,
,,حائل,HAIL002,AG00301,ELTAHIR  HASSAN,CS015393,تموينات ركن سعود للمواد الغذائية,"506,983,677",,,Traditional Trade,Medium Grocery,,1,TUE,27.53285,41.70508,"310,620,098,300,003","3,350,147,887","41,093,544,486",2025-01-07,3,Credit,0,500.0000000,ACTIVE,Approved by Finance,Potential,Required,2026-01-20,2025-03-25,شارع,العزيزية,7279,55428,3086,HAIL,Zone,,
,,حائل,HAIL002,AG00301,ELTAHIR  HASSAN,CS015394,تموينات جارالله عيسى عبدالكريم الموكاء للتجارة,"559,138,042",,,Traditional Trade,Medium Grocery,,2,TUE,27.51611,41.70865,"310,352,401,900,003","3,350,143,769","41,012,555,435",2025-01-07,1,Credit,0,500.0000000,ACTIVE,Approved by Finance,Potential,Required,2586-08-06,2025-06-29,لبدة,الوسيطاء,7070,55425,3476,HAIL,Zone,,
,,,HAIL002,AG00301,ELTAHIR  HASSAN,CS015395,تموينات بتلاء سويلم الرشيدي,,,,,,,2,THU,26.46095,40.65995,,,,2025-01-07,0,,0,500.0000000,ACTIVE,Missing Documents,Potential,Required,,,,,,,,HAIL,Zone,,
,,حائل,HAIL002,AG00301,ELTAHIR  HASSAN,CS015396,تموينات الحميدي جارالله الحميدي الشمري للمواد الغذائية,"538,354,062",,,Traditional Trade,Medium Grocery,,1,MON,27.51851,41.68936,"300,944,272,200,003","3,350,040,658","3,909,283,634",2025-01-07,0,,0,500.0000000,ACTIVE,Approved by Finance,Potential,Required,2588-06-13,2025-12-01,المرسلات,الوسيطاء,8153,55424,5214,HAIL,Zone,,
,,,HAIL002,AG00301,ELTAHIR  HASSAN,CS015397,تموينات رقيه راشد,,,,,,,2,TUE,27.51463,41.70460,,,,2025-01-07,0,,0,500.0000000,ACTIVE,Missing Documents,Potential,Required,,,,,,,,HAIL,Zone,,
,,النبوان,HAIL002,AG00301,ELTAHIR  HASSAN,CS015398,أسواق عاصر الرموز المركزية,"539,423,460",,,Traditional Trade,Medium Grocery,,2,THU,26.41187,40.54810,"311,180,009,200,003","3,357,607,720","460,517,766,262",2025-01-07,7,Credit,8,858.6200000,ACTIVE,Approved by Finance,Potential,Required,2026-01-28,2025-11-19,شارع,الشميلي,7357,57967,4563,HAIL,Zone,,
,,,HAIL002,AG00301,ELTAHIR  HASSAN,CS015399,تموينات سلمي مرزوق دوش,,,,,,,2,TUE,27.52261,41.71693,,,,2025-01-07,0,,0,500.0000000,ACTIVE,Missing Documents,Potential,Required,,,,,,,,HAIL,Zone,,
,,حائل,HAIL002,AG00301,ELTAHIR  HASSAN,CS015401,تموينات شموع فرح للمواد الغذائية,"507,128,253",,,Traditional Trade,Medium Grocery,,1,SAT,27.54848,41.70429,"311,111,111,111,113","3,350,163,471","460,316,815,367",2025-01-07,5,Credit,9,758.7600000,ACTIVE,Approved by Finance,Potential,Required,2026-01-07,2025-09-02,شارع,شنان,0,55428,0,HAIL,Zone,,
,,,HAIL002,AG00301,ELTAHIR  HASSAN,CS015402,تموينات ألفت محمود حافظ أحمد للمواد الغذائية,,,,,,,1,TUE,27.54436,41.69791,,,,2025-01-07,0,,0,500.0000000,ACTIVE,Missing Documents,Potential,Required,,,,,,,,HAIL,Zone,,
,,ضرغط,HAIL002,AG00301,ELTAHIR  HASSAN,CS015405,تموينات روابي الحزم للمواد الغذائية,"538,576,234",,,Traditional Trade,Medium Grocery,,2,THU,26.49013,40.59432,"311,928,834,700,003","3,354,200,117","43,099,610,098",2025-01-07,3,Credit,0,500.0000000,ACTIVE,Approved by Finance,Potential,Required,2025-11-11,2026-03-27,شارع,الشميلي,2743,57888,6642,HAIL,Zone,,
,,حائل,HAIL002,AG00301,ELTAHIR  HASSAN,CS015406,بقالة ربيعه عطا المهيرات للمواد الغذائية,"501,036,813",,,Traditional Trade,Medium Grocery,,1,TUE,27.53118,41.70891,"300,960,661,100,003","3,350,103,681","40,011,606,315",2025-01-07,5,Credit,0,500.0000000,ACTIVE,Approved by Finance,Potential,Required,2586-09-08,2025-04-05,الوسط,المزعبر,2959,55423,7523,HAIL,Zone,,
,,حائل,HAIL002,AG00301,ELTAHIR  HASSAN,CS015408,تموينات ركن صديان للمواد الغذائية,"598,139,630",,,Traditional Trade,Medium Grocery,,1,SAT,27.54637,41.71403,"302,170,714,400,003","3,350,165,843","441,212,645,178",2025-01-07,3,Credit,0,500.0000000,ACTIVE,Approved by Finance,Potential,Required,2586-09-21,2024-06-29,صديان,الوسيطاء,2,55424,1,HAIL,Zone,,
,,حائل,HAIL002,AG00301,ELTAHIR  HASSAN,CS015411,بقالة جوهره صديان,"533,761,926",,,Traditional Trade,Medium Grocery,,1,SAT,27.55271,41.71069,"311,459,439,500,003","3,350,147,767","41,073,467,555",2025-01-07,5,Credit,25,500.0000000,ACTIVE,Approved by Finance,Potential,Required,2026-01-12,2025-12-29,عياش بن الربيعة,صديان,3532,55428,9423,HAIL,Zone,,
,,حائل,HAIL002,AG00301,ELTAHIR  HASSAN,CS015412,شركة مرايا حائل,"549,058,873",,,Traditional Trade,Medium Grocery,,2,WED,27.51365,41.68996,"311,029,403,700,003","3,350,154,846","450,413,522,587",2025-01-07,1,Credit,4,500.0000000,ACTIVE,Approved by Finance,Potential,Required,2025-07-01,2024-10-06,حجاج بن ارطاة,المطار,9654,55421,4499,HAIL,Zone,,
,,حائل,HAIL002,AG00301,ELTAHIR  HASSAN,CS015413,تموينات تاضي عوض حسن الشمري للمواد الغذائية,"165,318,144",,,Traditional Trade,Large Grocery,,1,TUE,27.54051,41.72374,"311,138,015,800,003","3,350,157,558","43,059,045,402",2025-01-07,3,Credit,9,500.0000000,ACTIVE,Approved by Finance,Potential,Required,2025-12-08,2025-11-22,شارع,صديان,8142,55428,4880,HAIL,Zone,,
,,الحايط,HAIL002,AG00301,ELTAHIR  HASSAN,CS015426,محل أحلى مزاج للحلويات و المكسرات,"531,678,173",,,Traditional Trade,Medium Grocery,,2,THU,25.98372,40.47517,"311,475,479,800,003","3,356,354,542","40,021,701,262",2025-01-07,3,Credit,7,500.0000000,ACTIVE,Approved by Finance,Potential,Required,2027-09-16,2025-12-07,شارع,الوسيطاء,7091,42341,4133,HAIL,Zone,,
,,,HAIL002,AG00301,ELTAHIR  HASSAN,CS015427,مؤسسة سيار جويعد مفلح الرشيدي للمواد الغذائية,,,,,,,2,THU,26.49064,40.59294,,,,2025-01-07,0,,0,500.0000000,ACTIVE,Missing Documents,Potential,Required,,,,,,,,HAIL,Zone,,
,,حائل,HAIL002,AG00301,ELTAHIR  HASSAN,CS015430,بقالة اركان صديان للمواد الغذائية,"505,706,897",,,Traditional Trade,Medium Grocery,,1,TUE,27.54307,41.71964,"301,354,857,800,003","3,350,147,982","390,842,608",2025-01-07,7,Credit,18,797.4700000,ACTIVE,Approved by Finance,Potential,Required,2025-01-27,2026-02-01,سلمان الفارسي,صديان,8440,55428,4490,HAIL,Zone,,
,,حائل,HAIL002,AG00301,ELTAHIR  HASSAN,CS015431,تموينات غيوم السحاب للمواد الغذائية,"537,037,502",,,Traditional Trade,Large Grocery,,1,THU,27.47582,41.71052,"311,336,210,800,003","3,350,167,980","450,413,728,341",2025-01-07,4,Credit,0,500.0000000,ACTIVE,Approved by Finance,Potential,Required,2025-10-28,2026-10-06,شارع,مطار حايل الإقليمي,0,55422,0,HAIL,Zone,,
,,,HAIL002,AG00301,ELTAHIR  HASSAN,CS015433,تموينات لولوه العلي الشدوخي للمواد الغذائيةئيه,,,,,,,1,THU,27.50339,41.69031,,,,2025-01-07,0,,0,500.0000000,ACTIVE,Missing Documents,Potential,Required,,,,,,,,HAIL,Zone,,
,,,HAIL002,AG00301,ELTAHIR  HASSAN,CS015434,تموينات روابي الحزم للمواد الغذائية,,,,,,,2,THU,26.48973,40.59529,,,,2025-01-07,0,,0,500.0000000,ACTIVE,Missing Documents,Potential,Required,,,,,,,,HAIL,Zone,,
,,,HAIL002,AG00301,ELTAHIR  HASSAN,CS015435,محامص فراحانة للقهوة,,,,,,,2,THU,25.98298,40.47193,,,,2025-01-07,0,,0,500.0000000,ACTIVE,Missing Documents,Potential,Required,,,,,,,,HAIL,Zone,,
,,,HAIL002,AG00301,ELTAHIR  HASSAN,CS015436,بقالة فهد براهيم جعيثن الشمري للمواد الغذائية,"551,190,795",,,,,,2,THU,26.52736,40.54801,,,,2025-01-07,0,,0,500.0000000,ACTIVE,Missing Documents,Potential,Required,,,,,,,,HAIL,Zone,,
,,,HAIL002,AG00301,ELTAHIR  HASSAN,CS015437,مؤسسه خلف فالح مطير الشمري 2,,,,,,,1,THU,27.50146,41.69471,,,,2025-01-07,0,,0,500.0000000,ACTIVE,Missing Documents,Potential,Required,,,,,,,,HAIL,Zone,,
,,,HAIL002,AG00301,ELTAHIR  HASSAN,CS015439,شركة زهور المدينة سيتي فلور,,,,,,,1,MON,27.52085,41.69358,,,,2025-01-07,0,,0,500.0000000,ACTIVE,Missing Documents,Potential,Required,,,,,,,,HAIL,Zone,,
,,,HAIL002,AG00301,ELTAHIR  HASSAN,CS015441,تموينات هديبةعوض الرشيدي,,,,,,,1,WED,26.25150,40.97180,,,,2025-01-07,0,,0,500.0000000,ACTIVE,Missing Documents,Potential,Required,,,,,,,,HAIL,Zone,,
,,حائل,HAIL002,AG00301,ELTAHIR  HASSAN,CS015442,تموينات سلة ريمان للمواد الغذائية,"551,107,140",,,Traditional Trade,Medium Grocery,,2,TUE,27.51863,41.76333,"311,321,566,600,003","3,350,160,684","431,210,221,460",2025-01-07,1,Credit,0,500.0000000,ACTIVE,Approved by Finance,Potential,Required,2587-08-16,2025-06-18,غرناطة,الوسيطاء,7119,55426,5061,HAIL,Zone,,
,,حائل,HAIL002,AG00301,ELTAHIR  HASSAN,CS015444,تموينات سلمى مرزوق دوش الشمري,"552,634,421",,,Traditional Trade,Medium Grocery,,1,SAT,27.54718,41.71296,"301,274,167,900,003","3,350,043,093","460,517,628,630",2025-01-07,2,Credit,0,500.0000000,ACTIVE,Approved by Finance,Potential,Required,2025-03-21,2025-11-06,الامير نايف بن عبد العزيز,صديان,8364,55428,4502,HAIL,Zone,,
,,,HAIL002,AG00301,ELTAHIR  HASSAN,CS015445,موسسه مطيره فريح ساير,,,,,,,2,SUN,27.50243,41.72792,,,,2025-01-07,0,,0,500.0000000,ACTIVE,Missing Documents,Potential,Required,,,,,,,,HAIL,Zone,,
,,حائل,HAIL002,AG00301,ELTAHIR  HASSAN,CS015448,روعة للمكسرات,"506,119,409",,,Traditional Trade,Medium Grocery,,2,WED,27.50509,41.68198,"300,054,606,100,003","3,350,012,191","3,909,279,858",2025-01-07,1,,0,500.0000000,ACTIVE,Approved by Finance,Potential,Required,2025-08-30,2027-02-12,شارع,شنان,3592,55421,8629,HAIL,Zone,,
,,,HAIL002,AG00301,ELTAHIR  HASSAN,CS015452,تموينات منيفه نايف منوخ الشمري للمواد الغذائية,,,,,,,2,WED,27.51383,41.69252,,,,2025-01-07,0,,0,500.0000000,ACTIVE,Missing Documents,Potential,Required,,,,,,,,HAIL,Zone,,
,,,HAIL002,AG00301,ELTAHIR  HASSAN,CS015455,حلويات ومكسرات سلاسل,,,,,,,1,MON,27.52106,41.69508,,,,2025-01-07,0,,0,500.0000000,ACTIVE,Missing Documents,Potential,Required,,,,,,,,HAIL,Zone,,
,,,HAIL002,AG00301,ELTAHIR  HASSAN,CS015456,نواف مرزوق الشمري,,,,,,,1,SAT,27.55075,41.72569,,,,2025-01-07,0,,0,500.0000000,ACTIVE,Missing Documents,Potential,Required,,,,,,,,HAIL,Zone,,
,,حائل,HAIL002,AG00301,ELTAHIR  HASSAN,CS015457,تموينات نبع المصيف,"532,501,174",,,Traditional Trade,Medium Grocery,,1,TUE,27.54383,41.70663,"311,211,664,900,003","3,350,159,030","40,011,607,793",2025-01-07,7,Credit,0,527.1300000,ACTIVE,Approved by Finance,Potential,Required,2025-01-28,2025-04-15,شارع,شنان,3170,55428,8383,HAIL,Zone,,
,,عقلة الصقور,HAIL002,AG00301,ELTAHIR  HASSAN,CS015459,أسواق شركة ركن,"557,407,088",,,Traditional Trade,Medium Grocery,,2,THU,25.98870,40.47515,"311,315,576,600,003","1,140,101,453","440,511,171,708",2025-01-07,4,Credit,14,500.0000000,ACTIVE,Approved by Finance,Potential,Required,2025-02-27,2025-02-08,شارع,الشميلي,8392,54719,5157,HAIL,Zone,,
,,حائل,HAIL002,AG00301,ELTAHIR  HASSAN,CS015460,بقالة الإقبال المميز للمواد الغذائية,"576,814,706",,,Traditional Trade,Medium Grocery,,1,TUE,27.52518,41.69744,"311,111,111,111,113","3,350,153,021","3,909,663,062",2025-01-07,4,Credit,0,500.0000000,In-Active,Approved by Finance,Potential,Required,2025-03-05,2025-11-16,شارع,الشميلي,2521,55428,6483,HAIL,Zone,,
,,,HAIL002,AG00301,ELTAHIR  HASSAN,CS015461,اسواق ميراد حائل,,,,,,,1,SAT,27.54765,41.71068,,,,2025-01-07,0,,0,500.0000000,ACTIVE,Missing Documents,Potential,Required,,,,,,,,HAIL,Zone,,
,,,HAIL002,AG00301,ELTAHIR  HASSAN,CS015469,تموينات سلطان خميس طريخم,,,,,,,2,TUE,27.52377,41.70316,,,,2025-01-07,0,,0,500.0000000,ACTIVE,Missing Documents,Potential,Required,,,,,,,,HAIL,Zone,,
,,,HAIL002,AG00301,ELTAHIR  HASSAN,CS015470,تموينات رغد صادر لبيخان الشمري,,,,,,,1,MON,27.52062,41.69442,,,,2025-01-07,0,,0,500.0000000,ACTIVE,Missing Documents,Potential,Required,,,,,,,,HAIL,Zone,,
,,,HAIL002,AG00301,ELTAHIR  HASSAN,CS015474,شركة هاني عبدالعزيز العواد التجارية,,,,,,,1,TUE,27.54080,41.71846,,,,2025-01-07,0,,0,500.0000000,ACTIVE,Missing Documents,Potential,Required,,,,,,,,HAIL,Zone,,
,,حائل,HAIL002,AG00301,ELTAHIR  HASSAN,CS015475,تموينات افاق اجا التجارية,"550,294,615",,,Traditional Trade,Medium Grocery,,1,SAT,27.54797,41.69979,"310,219,672,700,003","3,350,027,334","3,909,289,625",2025-01-07,3,Credit,0,500.0000000,ACTIVE,Approved by Finance,Potential,Required,2025-10-27,2025-02-21,شارع,الشميلي,5260,55424,8518,HAIL,Zone,,
,,,HAIL002,AG00301,ELTAHIR  HASSAN,CS015479,تموينات محامص سويلم,,,,,,,1,TUE,27.52570,41.70413,,,,2025-01-07,0,,0,500.0000000,ACTIVE,Missing Documents,Potential,Required,,,,,,,,HAIL,Zone,,
,,,HAIL002,AG00301,ELTAHIR  HASSAN,CS015482,تموينات جواهرفرحان سبيتان الرشيدي للمواد الغذائية,,,,,,,2,WED,27.50705,41.67172,,,,2025-01-07,0,,0,500.0000000,ACTIVE,Missing Documents,Potential,Required,,,,,,,,HAIL,Zone,,
,,,HAIL002,AG00301,ELTAHIR  HASSAN,CS015483,اسواق عوافي,,,,,,,1,SAT,27.54809,41.70660,,,,2025-01-07,0,,0,500.0000000,ACTIVE,Missing Documents,Potential,Required,,,,,,,,HAIL,Zone,,
,,,HAIL002,AG00301,ELTAHIR  HASSAN,CS015486,فهد عبيد صالح العبيد,,,,,,,1,MON,27.52058,41.69435,,,,2025-01-07,0,,0,500.0000000,ACTIVE,Missing Documents,Potential,Required,,,,,,,,HAIL,Zone,,
,,,HAIL002,AG00301,ELTAHIR  HASSAN,CS015487,تموينات متعب عبيد جارالله,,,,,,,2,SUN,27.51451,41.70116,,,,2025-01-07,0,,0,500.0000000,ACTIVE,Missing Documents,Potential,Required,,,,,,,,HAIL,Zone,,
,,,HAIL002,AG00301,ELTAHIR  HASSAN,CS015488,تموينات محل سماوي,,,,,,,1,MON,27.52087,41.69395,,,,2025-01-07,0,,0,500.0000000,ACTIVE,Missing Documents,Potential,Required,,,,,,,,HAIL,Zone,,
,,حائل,HAIL002,AG00301,ELTAHIR  HASSAN,CS015489,تموينات شباب خلف شباب الشمري للمواد الغذائية,"531,513,130",,,Traditional Trade,Medium Grocery,,2,WED,27.50744,41.68524,"301,242,468,900,003","3,350,148,210","40,011,634,071",2025-01-07,3,Credit,0,500.0000000,ACTIVE,Approved by Finance,Potential,Required,2025-03-20,2025-11-28,ابو حنيفة,المطار,3932,55421,7426,HAIL,Zone,,
,,,HAIL002,AG00301,ELTAHIR  HASSAN,CS015493,موسسه نايف بن لافي خليفه الشمري,,,,,,,2,SUN,27.48954,41.72751,,,,2025-01-07,0,,0,500.0000000,ACTIVE,Missing Documents,Potential,Required,,,,,,,,HAIL,Zone,,
,,,HAIL002,AG00301,ELTAHIR  HASSAN,CS015495,تموينات إبراهيم ناصر,,,,,,,1,THU,27.49854,41.68595,,,,2025-01-07,0,,0,500.0000000,ACTIVE,Missing Documents,Potential,Required,,,,,,,,HAIL,Zone,,
,,,HAIL002,AG00301,ELTAHIR  HASSAN,CS015496,بقالة سلطان محمد نواف الشمري للمواد الغذائية,,,,,,,1,SAT,27.54640,41.71390,,,,2025-01-07,0,,0,500.0000000,ACTIVE,Missing Documents,Potential,Required,,,,,,,,HAIL,Zone,,
,,,HAIL002,AG00301,ELTAHIR  HASSAN,CS015497,تموينات خالد سليم الحربي,,,,,,,1,MON,27.51796,41.69333,,,,2025-01-07,0,,0,500.0000000,ACTIVE,Missing Documents,Potential,Required,,,,,,,,HAIL,Zone,,
,,,HAIL002,AG00301,ELTAHIR  HASSAN,CS015498,تموينات شهد ممدوح رمال,,,,,,,2,SUN,27.50114,41.72745,,,,2025-01-07,0,,0,500.0000000,ACTIVE,Missing Documents,Potential,Required,,,,,,,,HAIL,Zone,,
,,,HAIL002,AG00301,ELTAHIR  HASSAN,CS015499,تموينات صالح القودمي,,,,,,,2,WED,27.51415,41.69012,,,,2025-01-07,0,,0,500.0000000,ACTIVE,Missing Documents,Potential,Required,,,,,,,,HAIL,Zone,,
,,حائل,HAIL002,AG00301,ELTAHIR  HASSAN,CS015501,تسوق الخير,"530,989,100",,,Traditional Trade,Medium Grocery,,1,THU,27.48770,41.69453,"310,666,111,500,003","3,350,168,253","450,814,844,910",2025-01-07,5,Credit,14,612.5300000,ACTIVE,Approved by Finance,Potential,Required,2028-11-12,2025-02-07,شارع,الجمعة,4854,55421,6762,HAIL,Zone,,
,,حائل,HAIL002,AG00301,ELTAHIR  HASSAN,CS015503,تموينان جوهره صيديان,"552,941,087",,,Traditional Trade,Medium Grocery,,1,TUE,27.54323,41.71913,"311,377,030,800,003","3,350,161,469","460,617,949,989",2025-01-07,10,Credit,16,500.0000000,ACTIVE,Approved by Finance,Potential,Required,2025-07-12,2025-12-07,شارع,الشميلي,8379,55428,4441,HAIL,Zone,,
,,,HAIL002,AG00301,ELTAHIR  HASSAN,CS015504,تموينات المدينة,,,,,,,1,MON,27.52082,41.69438,,,,2025-01-07,0,,0,500.0000000,ACTIVE,Missing Documents,Potential,Required,,,,,,,,HAIL,Zone,,
,,حائل,HAIL002,AG00301,ELTAHIR  HASSAN,CS015506,تموينات حميد الشمري للمواد الغذائية,"506,899,836",,,Traditional Trade,Medium Grocery,,2,WED,27.51084,41.68466,"310,328,266,400,003","3,350,146,565","440,711,541,528",2025-01-07,3,Credit,0,500.0000000,ACTIVE,Approved by Finance,Potential,Required,2025-10-17,2024-01-28,شارع,الشميلي,9349,55421,4176,HAIL,Zone,,
,,,HAIL002,AG00301,ELTAHIR  HASSAN,CS015510,بقالة سلطان محمد نواف الشمري للمواد الغذائية,,,,,,,1,TUE,27.54297,41.72184,,,,2025-01-07,0,,0,500.0000000,ACTIVE,Missing Documents,Potential,Required,,,,,,,,HAIL,Zone,,
,,,HAIL002,AG00301,ELTAHIR  HASSAN,CS015511,بقالة بشاير سليمان عبد العزيز,,,,,,,1,MON,27.52330,41.69364,,,,2025-01-07,0,,0,500.0000000,ACTIVE,Missing Documents,Potential,Required,,,,,,,,HAIL,Zone,,
,,,HAIL002,AG00301,ELTAHIR  HASSAN,CS015512,مؤسسة مراسي التوفير التجارية,,,,,,,1,SAT,27.55229,41.72627,,,,2025-01-07,0,,0,500.0000000,ACTIVE,Missing Documents,Potential,Required,,,,,,,,HAIL,Zone,,
,,,HAIL002,AG00301,ELTAHIR  HASSAN,CS015513,أسواق بلقيس عدوان منور السحيمي التجارية,,,,,,,2,THU,25.98574,40.46709,,,,2025-01-07,0,,0,500.0000000,ACTIVE,Missing Documents,Potential,Required,,,,,,,,HAIL,Zone,,
,,حائل,HAIL002,AG00301,ELTAHIR  HASSAN,CS017297,غروب الاسعار,"549,413,860",,,Traditional Trade,Medium Grocery,,2,TUE,27.50683,41.72766,"311,616,416,200,003","3,350,175,861","460,517,768,531",2025-01-15,6,Credit,20,3792.8800000,ACTIVE,Approved by Finance,Agent Registration,Required,2025-08-27,2025-12-18,شارع,الشميلي,0,14243,0,HAIL,Zone,,
,,جدة,HAIL002,AG00301,ELTAHIR  HASSAN,CS017345,شركة نجم ابيض للمواد الغذائية,"551,968,186",,,Traditional Trade,Medium Grocery,,1,MON,27.51722,41.68927,"311,597,563,500,003","4,030,504,321","460,718,349,738",2025-01-18,0,,0,500.0000000,ACTIVE,Approved by Finance,Agent Registration,Required,2025-02-14,2026-01-06,شارع,شنان,7857,23533,3910,HAIL,Zone,,
,,حائل,HAIL002,AG00301,ELTAHIR  HASSAN,CS017363,مؤسسة سلطان فهد سليم الحجيلي التجارية,"539,891,707",,,Traditional Trade,Medium Grocery,,1,MON,27.51950,41.69294,"311,111,111,111,113","3,350,005,816","40,011,605,608",2025-01-19,1,Credit,15,500.0000000,ACTIVE,Approved by Finance,Agent Registration,Required,2025-08-16,2027-02-07,شارع,شنان,7572,55424,5542,HAIL,Zone,,
,,حائل,HAIL002,AG00301,ELTAHIR  HASSAN,CS017369,تموينات بروق اجا للمواد الغذائية,"537,024,306",,,Traditional Trade,Medium Grocery,,2,SUN,27.51222,41.70252,"311,993,450,900,003","3,350,157,126","451,115,742,282",2025-01-20,7,Credit,10,500.0000000,ACTIVE,Approved by Finance,Agent Registration,Required,2587-02-15,2025-05-05,الزيارة,الوسطية,2626,55425,8185,HAIL,Zone,,
,,حائل,HAIL002,AG00301,ELTAHIR  HASSAN,CS017370,ركن امال للمواد الغذائية,"536,933,710",,,Traditional Trade,Medium Grocery,,2,SUN,27.51231,41.70220,"311,358,714,500,003","3,350,164,199","441,012,035,974",2025-01-20,1,Credit,0,500.0000000,ACTIVE,Approved by Finance,Agent Registration,Required,2586-06-02,2025-04-04,الزبارة,الوسيطاء,8832,55433,4697,HAIL,Zone,,
,,حائل,HAIL002,AG00301,ELTAHIR  HASSAN,CS017373,أسواق طلعة غضور,"507,408,321",,,Traditional Trade,Medium Grocery,,2,MON,27.43267,41.71543,"311,776,353,800,003","3,350,175,319","460,316,819,189",2025-01-20,3,Credit,0,500.0000000,ACTIVE,Approved by Finance,Agent Registration,Required,2025-08-08,2025-09-07,شارع,شنان,9529,55225,5341,HAIL,Zone,,
,,حائل,HAIL002,AG00301,ELTAHIR  HASSAN,CS017378,شركة بيت الأناناس التجارية,"505,138,137",,,Traditional Trade,Medium Grocery,,2,MON,27.40201,41.71499,"311,296,518,900,003","3,350,168,122","450,413,722,242",2025-01-20,6,Credit,24,500.0000000,ACTIVE,Approved by Finance,Agent Registration,Required,2025-10-14,2025-10-29,محمد بن قاسم,المحطة,5071,55225,6605,HAIL,Zone,,
,,حائل,HAIL002,AG00301,ELTAHIR  HASSAN,CS017379,تموينات هنيه  للمواد الغذائية,"572,931,495",,,Traditional Trade,Medium Grocery,,2,MON,27.40142,41.71484,"310,746,108,300,003","3,350,160,856","441,212,546,829",2025-01-20,3,Credit,0,500.0000000,ACTIVE,Approved by Finance,Agent Registration,Required,2025-05-29,2025-06-02,شارع,المطار,6467,55225,5321,HAIL,Zone,,
,,حائل,HAIL002,AG00301,ELTAHIR  HASSAN,CS017383,تموينات هنيه للمواد الغذائية,"559,032,082",,,Traditional Trade,Medium Grocery,,2,MON,27.37256,41.72339,"310,746,108,300,003","3,350,160,856","450,614,180,829",2025-01-20,2,Credit,0,500.0000000,ACTIVE,Approved by Finance,Agent Registration,Required,2025-05-29,2024-12-14,شارع,المطار,6467,55225,5321,HAIL,Zone,,
,,حائل,HAIL002,AG00301,ELTAHIR  HASSAN,CS017395,سلة السعادة,"536,996,785",,,Traditional Trade,Medium Grocery,,2,SAT,27.35196,41.63143,"310,276,230,100,003","3,350,141,729","450,112,857,976",2025-01-21,5,Credit,14,500.0000000,ACTIVE,Approved by Finance,Agent Registration,Required,2025-10-21,2025-08-15,شارع,السامرا,7392,55232,3606,HAIL,Zone,,
,,حائل,HAIL002,AG00301,ELTAHIR  HASSAN,CS017403,تموينات واحة النسيم للمواد الغذائية,"504,341,711",,,Traditional Trade,Medium Grocery,,2,SAT,27.40140,41.58999,"311,743,623,200,003","3,350,166,347","450,213,197,079",2025-01-21,9,Credit,15,763.3000000,ACTIVE,Approved by Finance,Agent Registration,Required,2025-07-29,2025-08-21,شارع,الشميلي,0,55232,0,HAIL,Zone,,
,,حائل,HAIL002,AG00301,ELTAHIR  HASSAN,CS017412,لمسات المنزل التجارية,"598,027,087",,,Traditional Trade,Medium Grocery,,2,WED,27.50347,41.68177,"310,098,774,700,003","3,350,105,422","40,011,618,626",2025-01-22,3,Credit,23,500.0000000,ACTIVE,Approved by Finance,Agent Registration,Required,2025-10-27,2025-09-20,شارع,شنان,4759,55421,7626,HAIL,Zone,,
,,حائل,HAIL002,AG00301,ELTAHIR  HASSAN,CS017421,تموينات هياء دخيل فهيد للمواد الغذائية,"560,394,253",,,Traditional Trade,Medium Grocery,,2,WED,27.50742,41.68387,"311,566,742,800,003","3,350,164,741","441,112,285,676",2025-01-22,1,Credit,5,500.0000000,ACTIVE,Approved by Finance,Agent Registration,Required,2586-07-08,2026-04-25,الوسط,المطار,8894,55421,4047,HAIL,Zone,,
,,حائل,HAIL002,AG00301,ELTAHIR  HASSAN,CS017423,تموينات شام الغروب للمواد الغذائية,"536,725,272",,,Traditional Trade,Medium Grocery,,2,WED,27.50354,41.68871,"311,933,684,800,003","3,350,168,580","450,714,527,981",2025-01-22,9,Credit,0,500.0000000,ACTIVE,Approved by Finance,Agent Registration,Required,2587-02-26,2025-12-30,الوسط,المطار,8533,55421,4254,HAIL,Zone,,
,,الشنان,HAIL002,AG00301,ELTAHIR  HASSAN,CS017431,مؤسسة ربيع الشنان التجارية,"508,780,497",,,Traditional Trade,Medium Grocery,,1,SUN,27.17297,42.43863,"302,023,152,800,003","3,357,006,573","3,909,615,516",2025-01-23,1,Credit,0,500.0000000,ACTIVE,Approved by Finance,Agent Registration,Required,2025-10-08,2026-11-11,طريق الملك عبدالله,الشنان,8145,53431,2829,HAIL,Zone,,
,,الشنان,HAIL002,AG00301,ELTAHIR  HASSAN,CS017433,تموينات الشنان للمواد الغذائية,"550,927,580",,,Traditional Trade,Medium Grocery,,1,SUN,27.17286,42.43872,"311,111,111,111,113","3,365,100,260","3,909,615,236",2025-01-23,4,Credit,15,676.0200000,ACTIVE,Approved by Finance,Agent Registration,Required,2025-06-19,2026-04-08,طريق الملك عبد الله,الشنان,27816,53521,3930,HAIL,Zone,,
,,حائل,HAIL002,AG00301,ELTAHIR  HASSAN,CS017453,صيدلية دواء الفتح للأدوية,"544,295,806",,,Horca,Pharmacy,,1,SAT,27.54754,41.69882,"302,055,266,700,003","3,350,164,111","440,811,845,885",2025-01-25,2,Credit,8,500.0000000,ACTIVE,Approved by Finance,Agent Registration,Required,2587-05-16,2026-02-15,الوسط,السلام,4,55427,5,HAIL,Zone,,
,,حائل,HAIL002,AG00301,ELTAHIR  HASSAN,CS017454,مؤسسة رواق البن التجارية,"506,126,431",,,Traditional Trade,Medium Grocery,,1,SAT,27.55077,41.72593,"310,413,889,100,003","3,350,145,379","42,075,282,685",2025-01-26,5,Credit,15,601.1400000,ACTIVE,Approved by Finance,Agent Registration,Required,2028-01-14,2025-12-29,شارع,شنان,3462,55428,7171,HAIL,Zone,,
,,حائل,HAIL002,AG00301,ELTAHIR  HASSAN,CS017458,تموينات شوارع المدينة للمواد الغذائية,"558,461,238",,,Traditional Trade,Medium Grocery,,2,TUE,27.52130,41.71125,"310,099,575,300,003","3,350,175,681","460,417,131,154",2025-01-26,5,Credit,12,534.7300000,ACTIVE,Approved by Finance,Agent Registration,Required,2025-08-20,2025-10-02,الهنداوية,لبدة,0,55425,0,HAIL,Zone,,
,,حائل,HAIL002,AG00301,ELTAHIR  HASSAN,CS017460,أسواق شموخ الوافي التجارية,"510,706,885",,,Traditional Trade,Medium Grocery,,2,MON,27.37202,41.72447,"302,199,847,300,003","33,500,033,181","451,215,961,324",2025-01-27,1,,0,500.0000000,ACTIVE,Approved by Finance,Agent Registration,Required,2026-01-10,2025-06-22,شارع,الشميلي,7130,55428,3147,HAIL,Zone,,
,,حائل,HAIL002,AG00301,ELTAHIR  HASSAN,CS017461,تموينات شهد مشعل رمال للمواد الغذائية,"508,186,975",,,Traditional Trade,Medium Grocery,,2,SUN,27.50002,41.72730,"310,220,864,500,003","3,350,140,216","639,678",2025-01-27,8,Credit,0,500.0000000,ACTIVE,Approved by Finance,Agent Registration,Required,2025-08-11,2025-05-07,ابي علي بن الصيرفي,السامرا,9050,55421,4658,HAIL,Zone,,
,,الحائط,HAIL002,AG00301,ELTAHIR  HASSAN,CS017463,تموينات فخر العرب للمواد الغذائية,"532,067,406",,,Traditional Trade,Medium Grocery,,1,WED,26.79626,41.67891,"311,232,382,700,003","3,356,355,510","460,316,892,154",2025-01-27,1,Credit,0,500.0000000,ACTIVE,Approved by Finance,Agent Registration,Required,2025-07-20,2025-09-13,شارع,الرقاب,7455,57359,3325,HAIL,Zone,,
,,الروضة,HAIL002,AG00301,ELTAHIR  HASSAN,CS017466,تموينات خيرات الجوهرة للمواد الغذائية,"507,095,795",,,Traditional Trade,Medium Grocery,,1,WED,26.79592,41.67717,"301,166,937,300,003","3,350,146,725","40,041,974,638",2025-01-27,3,Credit,0,536.9300000,ACTIVE,Approved by Finance,Agent Registration,Required,2025-10-29,2025-10-10,شارع,شنان,4564,57666,6589,HAIL,Zone,,
,,حائل,HAIL002,AG00301,ELTAHIR  HASSAN,CS017479,تموينات شاهين بلس,"541,540,488",,,Traditional Trade,Medium Grocery,,2,WED,27.51458,41.68745,"311,111,111,111,113","3,350,177,569","460,517,485,258",2025-01-28,7,Credit,18,943.0100000,ACTIVE,Approved by Finance,Agent Registration,Required,2025-10-14,2025-10-25,شارع,المحطة,9726,55421,4098,HAIL,Zone,,
,,حائل,HAIL002,AG00301,ELTAHIR  HASSAN,CS017485,بقالة شباب خلف شباب الشمري للمواد الغذائية,"534,208,841",,,Traditional Trade,Medium Grocery,,1,THU,27.49372,41.68529,"301,242,468,900,003","3,350,148,210","41,052,649,916",2025-01-29,3,Credit,23,500.0000000,ACTIVE,Approved by Finance,Agent Registration,Required,2025-03-20,2025-11-06,شارع,الجمعة,3932,55421,7426,HAIL,Zone,,
,,الشنان,HAIL002,AG00301,ELTAHIR  HASSAN,CS017489,تموينات الرضيمان,"530,118,088",,,Traditional Trade,Medium Grocery,,1,SUN,27.15600,42.43672,"301,012,985,600,003","3,365,100,335","3,909,615,318",2025-01-30,2,Credit,0,500.0000000,ACTIVE,Approved by Finance,Agent Registration,Required,2025-09-22,2026-05-19,شارع,الشنان,4265,53521,7985,HAIL,Zone,,
