Area,Region,City,Zone,AgentId,AgentName,CusId,CusName,BuyerPhone,ReceiverPhone,FinancePhone,CH,SubChannel,F,StartWeeks,Days,Latitude,Longitude,VAT,CR,BL,createdDate,TotalDeliveredOrders,PaymentType,CreditDays,CreditLimit,Status,Validation,CreationType,CheckIn,CRExpiryDate,BLExpiryDate,StreetName,DistrictName,AdditionalNum,ZipCode,BuildingNumber,DC,AssignmentType,Geocode Quality,Full Corrected Address
Makkah,West,مكة المكرمة,MAK002,AG00292,Rashid  Hussein,CS000503,اسواق قمة الرمال الذهبية,"546,334,856",,,Traditional Trade,Medium Grocery,,1,MON,21.31798,39.68289,"310,166,910,500,003","4,031,245,803","42,065,167,541",2024-09-15,15,Credit,0,500.0000000,ACTIVE,Approved by Finance,Agent Registration,Required,2026-11-05,2029-11-02,شارع,الشامية الجديد,0,24567,0,JEDDAH,Zone,,
Makkah,West,مكة المكرمة,MAK002,AG00292,Rashid  Hussein,CS000507,اسواق البرج,"570,027,732",,,Traditional Trade,Medium Grocery,,2,SUN,21.36540,39.79696,"311,305,211,300,003","4,030,386,353","44,000,000,000,072",2023-08-05,1,,0,0.0000000,In-Active,Approved by Finance,Agent Registration,Required,2025-02-20,2024-07-28,السلامة,السلامة,21,3124,13,JEDDAH,Zone,,
Makkah,West,مكة المكرمة,MAK002,AG00292,Rashid  Hussein,CS000551,تموينات حلوم 2,"531,032,031",,,Traditional Trade,Medium Grocery,,1,THU,21.38950,39.84746,"311,408,237,800,003","4,031,245,883","42,055,100,062",2024-09-15,15,Credit,0,500.0000000,ACTIVE,Approved by Finance,Agent Registration,Required,2025-05-16,2025-12-31,الهجره,البحيرات,9693,24241,4087,JEDDAH,Zone,,
Makkah,West,مكة المكرمة,MAK002,AG00055,Abdullah Masoud,CS000559,مركز بلادي للتسويق,"538,528,913",,,Traditional Trade,Medium Grocery,,2,TUE,21.36170,39.89772,"311,416,102,800,003","4,031,097,729",37,2024-12-19,6,Credit,0,500.0000000,ACTIVE,Approved by Finance,Agent Registration,Required,2025-05-17,2026-09-16,طريق الامير سلطان بن عبد العزيز,العوالي,7343,24376,4479,JEDDAH,Assignment,,
Makkah,West,مكة المكرمة,MAK002,AG00275,Legal  Case,CS000566,اسواق و مخابز العربية,"560,874,438",,,Traditional Trade,Medium Grocery,,2,TUE,21.35945,39.90787,"310,158,593,400,003","4,031,057,081","3,909,564,372",2024-12-19,4,,0,500.0000000,ACTIVE,Approved by Finance,Agent Registration,Required,2025-03-17,2025-07-28,طريق الامير سلطان بن عبد العزيز,العوالي,0,24372,0,JEDDAH,Assignment,,
Makkah,West,مكة المكرمة,MAK002,AG00292,Rashid  Hussein,CS000576,مركز ومخبز لارين,"533,120,280",,,Traditional Trade,Medium Grocery,,1,SAT,21.44705,39.76360,"302,011,062,200,003","4,031,219,270","40,082,138,357",2024-09-15,0,,0,0.0000000,In-Active,Approved by Finance,Agent Registration,Required,2024-10-18,2026-02-09,شارع ام المؤمنين خديجة بنت خويلد,السلامة,3185,24226,6899,JEDDAH,Zone,,
Makkah,West,مكة المكرمة,MAK002,AG00292,Rashid  Hussein,CS000582,شركه مرتفعات الصفا,"545,982,878",,,Traditional Trade,Medium Grocery,,1,SAT,21.45136,39.76182,"311,274,309,400,003","3,909,523,930","3,909,523,930",2024-09-15,3,Credit,0,500.0000000,ACTIVE,Approved by Finance,Agent Registration,Required,2025-03-30,2025-04-05,شارع ام المؤمنين خديجة بنت خويلد,السلامة,3536,24233,8747,JEDDAH,Zone,,
Makkah,West,مكة المكرمة,MAK002,AG00292,Rashid  Hussein,CS000585,تموينات سدرة 3,"544,114,632",,,Traditional Trade,Medium Grocery,,1,SAT,21.45284,39.76141,"310,801,155,200,003","4,031,244,837","3,909,534,265",2024-09-15,1,,0,0.0000000,In-Active,Approved by Finance,Agent Registration,Required,2025-11-10,2025-09-09,عز النساء بنت احمد,السلامة,2967,24226,7507,JEDDAH,Zone,,
Makkah,West,مكة المكرمة,MAK002,AG00292,Rashid  Hussein,CS000612,بقاله قوت,"556,980,761",,,Traditional Trade,Small Grocery,,2,WED,21.40453,39.87199,"310,239,578,800,003","4,031,242,848","44,000,000,000,061",2023-08-07,2,,0,0.0000000,In-Active,Approved by Finance,Agent Registration,Required,2024-09-19,2025-09-25,شارع الصحافة,الجامعة,000,24235,1,JEDDAH,Zone,,
Makkah,West,مكة المكرمة,MAK002,AG00292,Rashid  Hussein,CS000614,بقالة قوت,"509,964,830",,,Traditional Trade,Small Grocery,,2,WED,21.40334,39.87113,"310,239,578,800,003","4,031,217,434","41,052,688,210",2023-08-07,3,Credit,0,500.0000000,ACTIVE,Approved by Finance,Agent Registration,Required,2024-09-19,2024-11-26,شارع الدعوة,الجامعة,00,24235,1,JEDDAH,Zone,,
Makkah,West,مكة المكرمة,MAK002,AG00292,Rashid  Hussein,CS000619,مركز ومخبز السعيد,"553,017,451",,,Traditional Trade,Medium Grocery,,2,WED,21.39446,39.87975,"300,405,762,800,003","4,031,232,638","41,032,613,588",2024-09-15,8,Credit,30,814.2700000,ACTIVE,Approved by Finance,Agent Registration,Required,2025-10-09,2025-09-18,شارع,الجامعة,0,24242,0,JEDDAH,Zone,,
Makkah,West,مكة المكرمة,MAK002,AG00055,Abdullah Masoud,CS000621,أسواق و مخابز التوفيق المركزية,"571,595,465",,,Traditional Trade,Medium Grocery,,2,WED,21.39243,39.87495,"300,244,266,900,003","4,031,213,236","41,042,636,109",2023-08-07,7,Credit,0,500.0000000,ACTIVE,Approved by Finance,Agent Registration,Required,2026-01-07,2026-10-06,الشيخ عبدالله بن حميد,الجامعة,00,00000,1,JEDDAH,Assignment,,
Makkah,West,مكة المكرمة,MAK002,AG00055,Abdullah Masoud,CS000783,مركز ماروت المخفض للتجاره,"545,693,681",,,Traditional Trade,Medium Grocery,,2,SUN,21.37370,39.80209,"302,253,897,500,003","4,031,275,905","440,711,520,875",2023-08-10,6,Credit,0,500.0000000,ACTIVE,Approved by Finance,Agent Registration,Required,2024-12-09,2024-12-09,وهيب بن الضبع,الكعكية,00,12634,1,JEDDAH,Assignment,,
Makkah,West,مكة المكرمة,MAK002,AG00292,Rashid  Hussein,CS000809,شركة بسمة دبي التجارية,"507,458,346",,,,,,1,WED,21.38573,39.79011,"311,003,046,500,003","4,031,194,232","44,000,000,000,009",2023-08-10,2,,0,0.0000000,In-Active,Approved by Finance,Agent Registration,Required,2025-05-28,2026-02-19,طريق المدينة المنورة,العمرة,00,12345,00,JEDDAH,Zone,,
Makkah,West,مكة المكرمة,MAK002,AG00292,Rashid  Hussein,CS000813,تموينات ريف الفرسان للمواد الغذائية,"509,804,644",,,Traditional Trade,Medium Grocery,,1,WED,21.38596,39.78881,"300,837,688,900,003","4,031,070,425","3,909,537,210",2024-09-15,10,Credit,21,500.0000000,ACTIVE,Approved by Finance,Agent Registration,Required,2025-02-07,2025-07-01,شارع,البحيرات,7675,24351,2681,JEDDAH,Zone,,
Makkah,West,مكة المكرمة,MAK002,AG00292,Rashid  Hussein,CS000859,تموينات بدور الزبيدي,"537,034,524",,,Traditional Trade,Small Grocery,,1,WED,21.37933,39.79006,"311,307,729,200,003","4,031,090,969","3,909,588,020",2023-08-12,1,,0,0.0000000,In-Active,Approved by Finance,Agent Registration,Required,2024-12-23,2023-12-17,ام المؤمنين زينب الهلاليه,الشوقية,00,12345,00,JEDDAH,Zone,,
Makkah,West,مكة المكرمة,MAK002,AG00250,Mohamed Keshawi,CS000866,بقاله المالكي,"572,221,460",,,Traditional Trade,Medium Grocery,,1,WED,21.39197,39.78904,"310,393,483,200,003","4,031,235,583","42,065,182,998",2024-09-15,9,Credit,30,920.5900000,ACTIVE,Approved by Finance,Agent Registration,Required,2025-12-14,2024-12-19,الشوقية,الشوقية,2550,24351,8352,JEDDAH,Assignment,,
Makkah,West,مكة المكرمة,MAK002,AG00292,Rashid  Hussein,CS000885,تموينات المستقبل,"501,482,945",,,Traditional Trade,Medium Grocery,,1,WED,21.38205,39.77350,"311,313,596,800,003","4,031,266,417","3,909,558,181",2024-09-15,5,Credit,0,0.0000000,ACTIVE,Approved by Finance,Agent Registration,Required,2026-05-15,2025-10-02,الامير ناصر بن عبدالعزيز,الملك فهد,6176,24342,3202,JEDDAH,Zone,,
Makkah,West,مكة المكرمة,MAK002,AG00292,Rashid  Hussein,CS000893,مركز زياد للتموينات,"565,658,723",,,,,,1,SAT,21.44336,39.80393,"310,828,408,500,003","4,031,223,480","44,000,000,000,011",2023-08-12,1,,0,0.0000000,In-Active,Approved by Finance,Agent Registration,Required,1979-11-20,1979-11-20,الإمام مسلم,الزاهر,00,00,00,JEDDAH,Zone,,
Makkah,West,مكة المكرمة,MAK002,AG00292,Rashid  Hussein,CS000909,مركز العربي للتموينات,"546,287,959",,,Traditional Trade,Medium Grocery,,1,SUN,21.42479,39.79402,"300,514,035,900,003","4,031,077,605","3,909,508,682",2025-01-02,5,Credit,15,500.0000000,ACTIVE,Approved by Finance,Agent Registration,Required,2025-01-01,2026-09-25,شارع,الزهراء,9194,24231,2803,JEDDAH,Zone,,
Makkah,West,مكة المكرمة,MAK002,AG00055,Abdullah Masoud,CS000915,بقالة الإخوة للتسويق,"504,109,045",,,Traditional Trade,Medium Grocery,,1,SUN,21.43431,39.80585,"300,307,788,300,003","4,031,197,961","3,909,493,855",2023-08-13,2,Credit,0,500.0000000,ACTIVE,Approved by Finance,Agent Registration,Required,2024-10-10,2025-07-29,المنصور,البيبان,0504109045,00,00,JEDDAH,Assignment,,
Makkah,West,مكة المكرمة,MAK002,AG00292,Rashid  Hussein,CS000927,تموينات معوض سويعد الصبحى للمواد الغذائية,"500,855,796",,,Traditional Trade,Medium Grocery,,1,SAT,21.44218,39.79103,"300,220,697,800,003","7,037,242,778","3,909,514,661",2024-09-15,4,Credit,0,500.0000000,ACTIVE,Approved by Finance,Agent Registration,Required,2025-07-10,2025-11-02,عبد الجبيل,الزاهر,0,00000,0,JEDDAH,Zone,,
Makkah,West,مكة المكرمة,MAK002,AG00292,Rashid  Hussein,CS000943,ارزاق للتموينات الغذائية,"502,601,127",,,,,,1,SAT,21.44069,39.78764,"302,014,408,600,003","4,031,087,122","3,909,508,436",2023-08-13,1,,0,0.0000000,In-Active,Approved by Finance,Agent Registration,Required,,,حرملة بن يحيى,الزاهر,0502601127,00,00,JEDDAH,Zone,,
Makkah,West,مكة المكرمة,MAK002,AG00292,Rashid  Hussein,CS000952,بقالة جود,"501,077,620",,,,,,1,SAT,21.44699,39.80319,"311,111,111,111,113",0,"11,111,111,111,111,110,000",2023-08-13,1,,0,0.0000000,In-Active,Approved by Finance,Agent Registration,Required,,,الأمير عبدالله بن سعود,الزاهر,0501077620,00,00,JEDDAH,Zone,,
Makkah,West,مكة المكرمة,MAK002,AG00292,Rashid  Hussein,CS000965,مركز ومخبز الريان للتسويق,"507,137,147",,,Traditional Trade,Medium Grocery,,1,SUN,21.42641,39.80634,"311,465,341,900,003","4,031,273,541","3,909,486,692",2024-09-15,2,Credit,0,500.0000000,ACTIVE,Approved by Finance,Agent Registration,Required,2025-10-29,2026-08-04,شارع,الزهراء,6390,24221,3780,JEDDAH,Zone,,
Makkah,West,مكة المكرمة,MAK002,AG00292,Rashid  Hussein,CS000982,سوبر ماركت ومخبز بيوت الاولي,"570,029,132",,,,,,1,TUE,21.39543,39.79835,"310,713,985,800,003","4,030,391,041","431,110,134,738",2023-08-14,1,,0,0.0000000,In-Active,Approved by Finance,Agent Registration,Required,,,اوثال,الملك فهد,00,00,00,JEDDAH,Zone,,
Makkah,West,مكة المكرمة,MAK002,AG00292,Rashid  Hussein,CS000985,بقالة احمد,"509,715,730",,,,,,1,SUN,21.42400,39.80689,"311,111,111,111,113","4,031,270,071","440,410,845,240",2023-08-14,1,,0,0.0000000,In-Active,Approved by Finance,Agent Registration,Required,2024-08-20,2024-10-07,شارع الزهراء 46 الوسطى,الزهراء,00,00,00,JEDDAH,Zone,,
Makkah,West,مكة المكرمة,MAK002,AG00292,Rashid  Hussein,CS000987,مركز السعادة,"591,225,189",,,Traditional Trade,Medium Grocery,,2,MON,21.35881,39.82303,"311,408,237,800,003","7,009,685,228","3,909,557,229",2024-09-15,4,Credit,0,500.0000000,ACTIVE,Approved by Finance,Agent Registration,Required,2025-05-12,2025-01-10,شارع عتاب بن أـسيد,بطحاء قريش,9693,24241,4087,JEDDAH,Zone,,
Makkah,West,مكة المكرمة,MAK002,AG00292,Rashid  Hussein,CS000988,بقالة عرفان,"558,815,571",,,,,,1,SUN,21.42444,39.79764,"310,358,206,600,003","7,008,916,103","3,909,487,582",2023-08-14,1,,0,0.0000000,In-Active,Approved by Finance,Agent Registration,Required,,,عبد الملك بن ابى رافع رضى الله,الزهراء,00,00,00,JEDDAH,Zone,,
Makkah,West,مكة المكرمة,MAK002,AG00292,Rashid  Hussein,CS000989,تموينات البركه,"508,653,439",,,,,,2,MON,21.35910,39.83347,"311,198,634,500,003","4,031,272,280","390,958,800",2023-08-14,0,,0,0.0000000,In-Active,Approved by Finance,Agent Registration,Required,,,شارع عتاب إبن أسيد,بطحاء قريش,00,00,00,JEDDAH,Zone,,
Makkah,West,مكة المكرمة,MAK002,AG00292,Rashid  Hussein,CS000991,بقالة كناز العائلة,"580,124,405",,,,,,2,MON,21.35039,39.82476,"311,111,111,111,113","4,031,262,082","43,089,498,296",2023-08-15,0,,0,0.0000000,In-Active,Approved by Finance,Agent Registration,Required,,,شارع الفضل إبن عباس,السوق الصغير الجديد,00,00,00,JEDDAH,Zone,,
Makkah,West,مكة,MAK002,AG00292,Rashid  Hussein,CS000992,خيرات الصفوة,"506,729,806",,,Traditional Trade,Medium Grocery,,2,MON,21.35389,39.82752,"310,472,524,800,003","4,031,233,976","440,410,858,420",2024-09-15,4,Credit,30,500.0000000,ACTIVE,Approved by Finance,Agent Registration,Required,2025-10-21,2025-10-02,شارع,بطحاء قريش,3700,24354,7170,JEDDAH,Zone,,
Makkah,West,مكة المكرمة,MAK002,AG00292,Rashid  Hussein,CS000995,تموينات هيفاء صالح بن محمد الريشي للمواد الغذائية,"563,951,718",,,Traditional Trade,Medium Grocery,,2,MON,21.36081,39.83503,"311,407,606,900,003","4,031,270,834","440,410,878,738",2024-09-15,2,Credit,0,500.0000000,ACTIVE,Approved by Finance,Agent Registration,Required,2025-08-21,2025-10-01,شارع,بطحاء قريش,8555,24361,3326,JEDDAH,Zone,,
Makkah,West,مكة المكرمة,MAK002,AG00292,Rashid  Hussein,CS000996,بقالة دانة,"547,477,326",,,,,,1,SUN,21.43157,39.79187,"310,721,490,600,003","4,031,254,003","3,909,493,441",2023-08-15,1,,0,0.0000000,In-Active,Approved by Finance,Agent Registration,Required,,,الرضوى,النزهة,00,00,00,JEDDAH,Zone,,
Makkah,West,مكة المكرمة,MAK002,AG00292,Rashid  Hussein,CS001018,تموينات البركة,"565,383,735",,,,,,1,SUN,21.42630,39.79122,"310,790,445,600,003","40,311,242,917","42,044,461,850",2023-08-15,1,,0,0.0000000,In-Active,Approved by Finance,Agent Registration,Required,,,شارع,الزهراء,00,00,00,JEDDAH,Zone,,
Makkah,West,مكة المكرمة,MAK002,AG00292,Rashid  Hussein,CS001021,بقالة عامر,"572,840,625",,,,,,1,SUN,21.42721,39.78822,"300,314,402,200,003",0,"555,555,555,555,555",2023-08-15,1,,0,0.0000000,In-Active,Approved by Finance,Agent Registration,Required,,,الستين,النزهة,00,00,00,JEDDAH,Zone,,
Makkah,West,مكة المكرمة,MAK002,AG00292,Rashid  Hussein,CS001023,بقالة الوفاء,"596,070,036",,,,,,1,TUE,21.41064,39.78989,"310,337,973,800,003","4,031,225,016","44,000,000,000,064",2023-08-15,4,,0,0.0000000,In-Active,Approved by Finance,Agent Registration,Required,1979-11-20,1979-11-20,شارع الامير فواز بن سعودبن فرح,الرصيفة,00,00,00,JEDDAH,Zone,,
Makkah,West,مكة المكرمة,MAK002,AG00292,Rashid  Hussein,CS001024,مركز دانيه,"507,382,809",,,Traditional Trade,Medium Grocery,,1,SUN,21.42637,39.78133,"300,308,957,100,003","4,031,091,244","3,909,509,745",2024-09-15,1,,0,0.0000000,In-Active,Approved by Finance,Agent Registration,Required,2025-05-26,2025-01-04,dummy,النزهة,00,24225,dummy,JEDDAH,Zone,,
Makkah,West,مكة المكرمة,MAK002,AG00292,Rashid  Hussein,CS001032,بقاله الخالدية,"508,470,734",,,Traditional Trade,Medium Grocery,,1,TUE,21.39988,39.80005,"311,212,483,900,003","4,031,262,299","3,909,590,576",2024-09-15,7,Credit,20,500.0000000,ACTIVE,Approved by Finance,Agent Registration,Required,2025-02-09,2025-07-24,الشيخ حسن المشاط,الخالدية,0,24232,0,JEDDAH,Zone,,
Makkah,West,مكة المكرمة,MAK002,AG00292,Rashid  Hussein,CS001034,مؤسسة الزمرد للمواد الغذائية,"555,866,210",,,Traditional Trade,Medium Grocery,,1,TUE,21.40343,39.79573,"300,261,766,500,003","4,031,017,993","40,011,635,222",2024-09-15,1,,0,0.0000000,In-Active,Approved by Finance,Agent Registration,Required,2025-08-10,2025-07-08,شارع الشيخ حسن,الخالدية,0,24232,0,JEDDAH,Zone,,
Makkah,West,مكة المكرمة,MAK002,AG00292,Rashid  Hussein,CS001036,بقالة فياضة,"544,258,023",,,,,,1,SUN,21.43350,39.78795,"311,120,129,100,003","7,026,949,268","3,909,514,362",2023-08-16,1,,0,0.0000000,In-Active,Approved by Finance,Agent Registration,Required,,,عبد الله الخليفى,النزهة,00,00,00,JEDDAH,Zone,,
Makkah,West,مكة المكرمة,MAK002,AG00292,Rashid  Hussein,CS001037,تموينات الروشن,"547,920,112",,,,,,1,TUE,21.40381,39.79913,"300,302,562,300,003","4,031,053,428","3,909,557,973",2023-08-16,1,,0,0.0000000,In-Active,Approved by Finance,Agent Registration,Required,,,شارع الشيخ حسن المشاط,الخالدية,00,00,00,JEDDAH,Zone,,
Makkah,West,مكة المكرمة,MAK002,AG00292,Rashid  Hussein,CS001041,بقالة ابو تركى,"558,193,106",,,,,,1,SAT,21.44179,39.78767,"311,306,347,700,003","4,031,263,522","3,909,538,000",2023-08-16,1,,0,0.0000000,In-Active,Approved by Finance,Agent Registration,Required,,,عاتكة بنت عوف رضى الله عنها,الزاهر,00,00,00,JEDDAH,Zone,,
Makkah,West,مكة المكرمة,MAK002,AG00292,Rashid  Hussein,CS001044,تموينات ومخبز الواحه,"555,505,780",,,,,,1,TUE,21.41011,39.78933,"300,250,673,700,003","4,031,274,431","440,711,507,343",2023-08-16,0,,0,0.0000000,In-Active,Approved by Finance,Agent Registration,Required,,,الرصيفة,الرصيفة,0,0,1,JEDDAH,Zone,,
Makkah,West,مكة المكرمة,MAK002,AG00292,Rashid  Hussein,CS001085,تموينات زهراء,"547,201,341",,,Traditional Trade,Medium Grocery,,2,THU,21.39420,39.71835,"311,040,055,700,003","4,031,245,153","440,811,845,920",2024-09-15,3,Credit,0,500.0000000,ACTIVE,Approved by Finance,Agent Registration,Required,2024-11-21,2025-02-26,شارع,البساتين,8491,24346,4245,JEDDAH,Zone,,
Makkah,West,مكة المكرمة,MAK002,AG00292,Rashid  Hussein,CS001133,تموينات رياض,"582,081,237",,,,,,1,SAT,21.44146,39.80454,"300,090,735,700,003","4,031,019,373","39,121,529,106",2023-08-20,1,,0,0.0000000,In-Active,Approved by Finance,Agent Registration,Required,,,2 الزاهر,الزاهر,00,00,00,JEDDAH,Zone,,
Makkah,West,مكة المكرمة,MAK002,AG00292,Rashid  Hussein,CS001134,تموينات ومخبز اسامه,"548,285,633",,,Traditional Trade,Medium Grocery,,1,SAT,21.44764,39.80437,"311,372,212,900,003","4,031,281,087","3,909,527,301",2024-09-15,6,Credit,0,0.0000000,ACTIVE,Approved by Finance,Agent Registration,Required,2025-05-04,2024-11-10,شارع,الزاهر,4215,24222,6951,JEDDAH,Zone,,
Makkah,West,مكة المكرمة,MAK002,AG00292,Rashid  Hussein,CS001150,مركز النور للتسويق,"559,596,594",,,,,,1,WED,21.37843,39.79500,"302,130,241,600,003","4,031,198,119","3,909,518,514",2023-08-21,2,,0,0.0000000,In-Active,Approved by Finance,Agent Registration,Required,,,مالك بن عمرو بن راشد,الشوقية,00,00,00,JEDDAH,Zone,,
Makkah,West,مكة المكرمة,MAK002,AG00292,Rashid  Hussein,CS001153,مركز ومخبز غزلان,"503,392,970",,,Traditional Trade,Medium Grocery,,1,WED,21.37057,39.78014,"310,972,240,100,003","4,031,251,706","3,909,547,674",2023-08-21,3,Credit,0,500.0000000,ACTIVE,Approved by Finance,Agent Registration,Required,2024-06-02,2024-11-01,سعيد بن زيد العدوى,المحمدية,00,00,00,JEDDAH,Zone,,
Makkah,West,مكة المكرمة,MAK002,AG00292,Rashid  Hussein,CS001156,تموينات المالكي,"534,582,434",,,Traditional Trade,Medium Grocery,,2,SUN,21.36771,39.78002,"302,052,186,700,003","7,011,587,941","3,909,588,788",2024-09-15,5,Credit,15,517.2100000,ACTIVE,Approved by Finance,Agent Registration,Required,2025-01-20,2025-07-26,شارع,العمرة,4576,24353,8946,JEDDAH,Zone,,
Makkah,West,مكة المكرمة,MAK002,AG00292,Rashid  Hussein,CS001171,مركز شذا,"598,005,104",,,,,,1,WED,21.37981,39.79038,"311,089,229,400,003","4,031,257,114","44,000,000,000,074",2023-08-21,4,,0,0.0000000,In-Active,Approved by Finance,Agent Registration,Required,1979-11-20,1979-11-20,ام المؤمنين زينب الهلالية,الشوقية,00,00,00,JEDDAH,Zone,,
Makkah,West,مكة المكرمة,MAK002,AG00250,Mohamed Keshawi,CS001179,تموينات الزعاقى,"545,466,998",,,Traditional Trade,Medium Grocery,,1,WED,21.37386,39.78832,"310,266,382,800,003","4,031,219,684","3,909,590,515",2024-09-15,16,Credit,30,1000.0000000,ACTIVE,Approved by Finance,Agent Registration,NOT Required,2025-09-20,2025-03-10,شارع,المحمدية,4468,24353,9031,JEDDAH,Assignment,,
Makkah,West,مكة المكرمة,MAK002,AG00292,Rashid  Hussein,CS001183,مركز ومخبز زاد الشوقية,"507,817,195",,,,,,2,SUN,21.36744,39.78991,"300,100,644,700,003","4,030,143,315","44,000,000,000,052",2023-08-22,3,,0,0.0000000,In-Active,Approved by Finance,Agent Registration,Required,1979-11-20,1980-11-08,العاير,المحمدية,00,00,00,JEDDAH,Zone,,
Makkah,West,مكة المكرمة,MAK002,AG00292,Rashid  Hussein,CS001189,مركز الشافعى,"596,327,396",,,,,,1,WED,21.36967,39.78036,"311,496,684,200,003","4,031,275,075","3,909,590,527",2023-08-22,1,,0,0.0000000,In-Active,Approved by Finance,Agent Registration,Required,,,سعيد بن زيد العدوى,المحمدية,00,00,00,JEDDAH,Zone,,
Makkah,West,مكة المكرمة,MAK002,AG00055,Abdullah Masoud,CS001192,تموينات حماده,"508,353,545",,,Traditional Trade,Small Grocery,,2,MON,21.35290,39.78436,"302,130,188,400,003","4,031,225,831","441,212,622,586",2023-08-22,3,Credit,0,500.0000000,ACTIVE,Approved by Finance,Agent Registration,Required,2023-11-23,2023-11-23,يحيى بن قزعة القرشة,المحمدية,00,00,00,JEDDAH,Assignment,,
Makkah,West,مكة المكرمة,MAK002,AG00292,Rashid  Hussein,CS001199,تموينات الجازى,"550,685,425",,,,,,1,WED,21.38307,39.78328,"302,042,439,700,003","4,031,238,693","40,021,711,074",2023-08-23,2,,0,0.0000000,In-Active,Approved by Finance,Agent Registration,Required,,,الرابط بين ام الكتاد والاسكان,الملك فهد,00,00,00,JEDDAH,Zone,,
Makkah,West,مكة المكرمة,MAK002,AG00292,Rashid  Hussein,CS001205,تموينات السبهانى,"505,593,177",,,,,,2,MON,21.35267,39.78586,"310,306,829,500,003","4,031,216,160","3,909,559,904",2023-08-23,1,,0,0.0000000,In-Active,Approved by Finance,Agent Registration,Required,,,طريق الليث,العكيشية,00,00,00,JEDDAH,Zone,,
Makkah,West,مكة المكرمة,MAK002,AG00250,Mohamed Keshawi,CS001215,دكان خليفه,"541,646,571",,,Traditional Trade,Medium Grocery,,1,WED,21.37358,39.78813,"300,252,125,200,003","4,031,071,410","42,044,361,469",2024-09-15,13,Credit,15,2493.4200000,ACTIVE,Approved by Finance,Agent Registration,NOT Required,2024-12-17,2024-10-20,شارع عبدالرحمن عبدالقادر فقيه,المحمدية,0,24238,0,JEDDAH,Assignment,,
Makkah,West,مكة المكرمة,MAK002,AG00046,Akram Gamar,CS001219,بقالة فاطمة,"508,413,892",,,,,,2,SUN,21.36553,39.80532,"302,012,640,900,003","7,011,737,801","43,037,574,547",2023-08-23,1,,0,0.0000000,In-Active,Approved by Finance,Agent Registration,Required,,,العكيشية 1,العكيشية,00,00,00,JEDDAH,Assignment,,
Makkah,West,مكة المكرمة,MAK002,AG00292,Rashid  Hussein,CS001220,تموينات سلة المكارم,"561,307,805",,,Traditional Trade,Medium Grocery,,1,WED,21.38127,39.77841,"300,321,658,600,003","4,031,215,676","41,042,635,839",2023-08-23,2,,0,0.0000000,In-Active,Approved by Finance,Agent Registration,Required,,,اوثال,الملك فهد,00,00,00,JEDDAH,Zone,,
Makkah,West,مكة المكرمة,MAK002,AG00292,Rashid  Hussein,CS001231,مركز ايلاف,"551,125,205",,,,,,1,THU,21.36824,39.83685,"310,290,427,100,003","4,031,235,858","44,000,000,000,035",2023-08-24,2,,0,0.0000000,In-Active,Approved by Finance,Agent Registration,Required,2024-12-21,2025-06-13,المبارك بن عز,بطحاء قريش,00,00,00,JEDDAH,Zone,,
Makkah,West,مكة المكرمة,MAK002,AG00292,Rashid  Hussein,CS001243,بقالة الوفاء,"568,175,238",,,Traditional Trade,Medium Grocery,,2,MON,21.35608,39.82166,"311,002,359,900,003","4,031,253,110","3,909,560,478",2024-09-15,0,,0,0.0000000,In-Active,Approved by Finance,Agent Registration,Required,2025-07-24,2025-10-27,شارع,الشوقية,3996,24362,8209,JEDDAH,Zone,,
Makkah,West,مكة المكرمة,MAK002,AG00292,Rashid  Hussein,CS001246,محل النعمة,"565,801,394",,,,,,2,TUE,21.35011,39.90575,"300,247,457,300,003","4,031,098,863","40,062,045,820",2023-08-24,1,,0,0.0000000,In-Active,Approved by Finance,Agent Registration,Required,,,شارع,العابدية,00,00,00,JEDDAH,Zone,,
Makkah,West,مكة المكرمة,MAK002,AG00292,Rashid  Hussein,CS001258,اسواق ومخابز الكعكي,"565,761,595",,,Traditional Trade,Medium Grocery,,2,SUN,21.36670,39.79363,"311,520,643,600,003","4,031,276,004","3,909,591,593",2024-09-15,5,Credit,30,1108.0400000,ACTIVE,Approved by Finance,Agent Registration,Required,2024-12-27,2025-10-05,شارع معالي إبراهيم بن عبدالله العنقري,المحمدية,0,24213,0,JEDDAH,Zone,,
Makkah,West,مكة المكرمة,MAK002,AG00292,Rashid  Hussein,CS001259,تموينات مداري,"581,914,102",,,Traditional Trade,Medium Grocery,,2,SUN,21.36396,39.80345,"302,182,034,800,003","4,031,214,899","3,909,558,991",2024-11-26,2,Credit,0,500.0000000,ACTIVE,Approved by Finance,Agent Registration,Required,2025-06-08,2025-05-13,شارع,العكيشية,7177,24238,4281,JEDDAH,Zone,,
Makkah,West,مكة المكرمة,MAK002,AG00292,Rashid  Hussein,CS001261,الثلاجة الذهبية,"544,060,572",,,,,,2,SUN,21.36849,39.80338,"311,238,370,600,003","4,031,075,062","7,014,271,659",2023-08-26,1,,0,0.0000000,In-Active,Approved by Finance,Agent Registration,Required,,,ابراهيم الخليل,الكعكية,00,00,00,JEDDAH,Zone,,
Makkah,West,مكة المكرمة,MAK002,AG00292,Rashid  Hussein,CS001267,بقالة الخير,"530,809,722",,,,,,1,WED,21.38604,39.78984,"300,827,718,800,003","4,031,258,508","3,909,590,915",2023-08-26,1,,0,0.0000000,In-Active,Approved by Finance,Agent Registration,Required,,,اروى بنت المقوم,الشوقية,00,00,00,JEDDAH,Zone,,
Makkah,West,مكة المكرمة,MAK002,AG00292,Rashid  Hussein,CS001271,مركز حماده للتسويق,"583,188,934",,,Traditional Trade,Medium Grocery,,1,WED,21.39090,39.78908,"310,005,498,500,003","4,031,086,784","3,909,587,452",2024-09-15,8,Credit,27,662.9400000,ACTIVE,Approved by Finance,Agent Registration,Required,2025-04-17,2024-12-08,شارع,الشوقية,2561,24351,8244,JEDDAH,Zone,,
Makkah,West,مكة المكرمة,MAK002,AG00292,Rashid  Hussein,CS001275,بقاله محمد احمد بن محمد الزعاقي 2,"542,152,564",,,Traditional Trade,Medium Grocery,,1,WED,21.37641,39.79061,"310,266,382,800,003","4,031,219,612","440,811,840,915",2024-09-15,8,Credit,9,500.0000000,ACTIVE,Approved by Finance,Agent Registration,Required,2025-09-06,2025-02-27,شارع,المحمدية,9130,24353,4573,JEDDAH,Zone,,
Makkah,West,مكة المكرمة,MAK002,AG00292,Rashid  Hussein,CS001295,تموينات الصفوة,"559,627,440",,,,,,1,TUE,21.40666,39.79630,"310,227,250,900,003","7,007,747,723","440,310,791,536",2023-08-28,1,,0,0.0000000,In-Active,Approved by Finance,Agent Registration,Required,,,حكيم بن حزن بن ابى وهب,الرصيفة,00,00,00,JEDDAH,Zone,,
Makkah,West,مكة المكرمة,MAK002,AG00292,Rashid  Hussein,CS001299,مركز ومخبز لولو,"558,804,538",,,Traditional Trade,Medium Grocery,,2,SUN,21.35828,39.78029,"300,375,057,500,003","4,031,203,457","42,115,894,245",2023-08-28,1,,0,0.0000000,In-Active,Approved by Finance,Agent Registration,Required,,,معالى ابراهيم العنقرى,المحمدية,00,00,00,JEDDAH,Zone,,
Makkah,West,مكة المكرمة,MAK002,AG00292,Rashid  Hussein,CS001308,تموينات الخالدية,"533,312,145",,,,,,1,TUE,21.39965,39.79993,"300,314,076,900,003","7,012,272,238","441,212,704,474",2023-08-28,0,,0,0.0000000,In-Active,Approved by Finance,Agent Registration,Required,,,سعيد بن ابى بكر,الخالدية,00,00,00,JEDDAH,Zone,,
Makkah,West,مكة المكرمة,MAK002,AG00292,Rashid  Hussein,CS001320,تموينات سهيل الاولى للمواد الغذائية,"535,984,312",,,Traditional Trade,Medium Grocery,,2,SUN,21.37422,39.79408,"310,350,780,800,003","4,031,279,945","440,110,297,641",2024-11-05,16,Credit,14,1008.8200000,ACTIVE,Approved by Finance,Agent Registration,Required,2025-03-28,2025-07-01,شارع,المحمدية,8620,24351,2917,JEDDAH,Zone,,
Makkah,West,جدة,MAK002,AG00292,Rashid  Hussein,CS001321,أسواق البشية,"572,267,160",,,,,,2,SAT,21.40227,39.45031,"302,167,254,800,003","4,031,213,590","41,032,602,550",2023-08-29,5,,0,0.0000000,In-Active,Approved by Finance,Agent Registration,Required,,,شارع مكة القديم,بحرة,00,00,00,JEDDAH,Zone,,
Makkah,West,مكة المكرمة,MAK002,AG00292,Rashid  Hussein,CS001322,مركز الجنوب,"558,563,167",,,Traditional Trade,Medium Grocery,,2,MON,21.27273,39.82598,"300,249,705,400,003","4,031,238,490","41,113,609,992",2024-11-21,5,Credit,0,500.0000000,ACTIVE,Approved by Finance,Agent Registration,Required,2026-05-20,2026-05-08,المسيال الجديد,العمرة,3649,24423,6557,JEDDAH,Zone,,
Makkah,West,مكة المكرمة,MAK002,AG00292,Rashid  Hussein,CS001323,بقالة المعارض,"551,262,186",,,Traditional Trade,Medium Grocery,,2,MON,21.27230,39.82563,"311,254,756,400,003","4,031,264,130","43,099,612,599",2024-11-21,4,Credit,0,500.0000000,ACTIVE,Approved by Finance,Agent Registration,Required,2025-03-15,2025-03-08,المسيال ىالجديد,الشرائع,2727,24569,6420,JEDDAH,Zone,,
Makkah,West,مكة المكرمة,MAK002,AG00292,Rashid  Hussein,CS001324,تموينات السهم الذهبي,"561,388,858",,,,,,2,MON,21.28904,39.82204,"310,783,975,600,003","4,031,256,073","3,909,548,760",2023-08-29,1,,0,0.0000000,In-Active,Approved by Finance,Agent Registration,Required,,,ابراهيم الخليل,الهجلة الجديد,00,00,00,JEDDAH,Zone,,
Makkah,West,مكة المكرمة,MAK002,AG00292,Rashid  Hussein,CS001325,تموينات بئرالمروى للمواد الغذائية,"554,034,255",,,Traditional Trade,Medium Grocery,,2,MON,21.35380,39.82082,"311,273,502,700,003","4,031,216,649","40,021,701,289",2024-11-26,19,Credit,0,544.1100000,ACTIVE,Approved by Finance,Agent Registration,Required,2025-04-01,2025-08-05,شارع,السوق الصغير الجديد,7911,24362,3895,JEDDAH,Zone,,
Makkah,West,مكة المكرمة,MAK002,AG00292,Rashid  Hussein,CS001341,اسواق البرج,"501,054,148",,,,,,2,SUN,21.36531,39.79684,"311,305,211,300,003","7,017,588,497","44,000,000,000,073",2023-08-30,1,,0,0.0000000,In-Active,Approved by Finance,Agent Registration,Required,1979-11-20,1979-11-20,طريق الليث,المحمدية,00,00,00,JEDDAH,Zone,,
Makkah,West,مكة المكرمة,MAK002,AG00292,Rashid  Hussein,CS001343,تموينات نهر الوسام للمواد الغذائية,"540,118,689",,,Traditional Trade,Medium Grocery,,2,THU,21.39150,39.72230,"311,054,150,200,003","4,031,085,888","3,909,540,026",2024-11-12,17,Credit,0,0.0000000,ACTIVE,Approved by Finance,Agent Registration,Required,2025-05-18,2025-09-06,شارع,البساتين,7311,24341,3245,JEDDAH,Zone,,
Makkah,West,مكة المكرمة,MAK002,AG00292,Rashid  Hussein,CS001380,تموينات نعم العوالي للمواد الغذائية,"555,993,108",,,Traditional Trade,Medium Grocery,,2,TUE,21.35559,39.89065,"302,224,777,800,003","4,031,232,233","41,083,513,033",2024-09-15,18,Credit,27,1039.9300000,ACTIVE,Approved by Finance,Agent Registration,NOT Required,2025-10-09,2025-02-25,شارع,العوالي,0,24372,0,JEDDAH,Assignment,,
Makkah,West,جدة,MAK002,AG00292,Rashid  Hussein,CS001382,مركز ومخبز زهره العوالي,"565,881,648",,,Traditional Trade,Medium Grocery,,2,TUE,21.35194,39.89825,"310,488,213,600,003","4,030,373,381","3,909,568,207",2023-09-02,9,Credit,18,941.5300000,ACTIVE,Approved by Finance,Agent Registration,Required,2027-10-03,2024-09-23,ابراهيم الجفالي,العوالي,7180,23455,4750,JEDDAH,Zone,,
Makkah,West,مكة المكرمة,MAK002,AG00292,Rashid  Hussein,CS001383,أسواق ومخابز العربية,"501,511,694",,,Traditional Trade,Medium Grocery,,2,TUE,21.27274,39.93904,"310,158,593,400,003","4,031,057,081","41,103,587,380",2024-09-15,11,Credit,30,1000.0000000,ACTIVE,Approved by Finance,Agent Registration,NOT Required,2025-02-28,2025-06-02,شارع,خارج حدود الاحياء,0,00000,0,JEDDAH,Assignment,,
Makkah,West,مكة المكرمة,MAK002,AG00292,Rashid  Hussein,CS001404,ارخص الاسعار,"509,743,188",,,Traditional Trade,Medium Grocery,,1,WED,21.37975,39.78837,"300,848,368,100,003","4,031,220,649","450,212,995,715",2024-09-15,9,Credit,30,796.3700000,ACTIVE,Approved by Finance,Agent Registration,Required,2027-10-16,2025-08-15,شارع,الشوقية,0,24222,0,JEDDAH,Zone,,
Makkah,West,مكة المكرمة,MAK002,AG00292,Rashid  Hussein,CS001426,تموينات ابو عبدالرحمن للمواد الغذائية,"580,787,430",,,Traditional Trade,Small Grocery,,1,WED,21.39052,39.79258,"300,842,575,100,003","4,031,194,190","3,909,557,702",2023-09-05,1,,0,0.0000000,In-Active,Approved by Finance,Agent Registration,Required,,,ابرهه بن شرحبيل,الشوقية,00,00,00,JEDDAH,Zone,,
Makkah,West,مكة المكرمة,MAK002,AG00292,Rashid  Hussein,CS001427,مركز المالكي,"569,935,369",,,Traditional Trade,Small Grocery,,1,WED,21.39187,39.78893,"310,393,483,200,003","4,031,229,083","7,016,737,350",2023-09-05,0,,0,0.0000000,In-Active,Approved by Finance,Agent Registration,Required,,,شارع اروي بنت المقوم,الشوقية,00,24432,00,JEDDAH,Zone,,
Makkah,West,مكة المكرمة,MAK002,AG00275,Legal  Case,CS001428,مؤسسه سله سلمان للتجاره,"500,863,113",,,Traditional Trade,Large Grocery,,2,SUN,21.37656,39.81045,"310,433,421,800,003","4,031,262,283","43,089,482,064",2023-09-05,5,,0,500.0000000,ACTIVE,Approved by Finance,Agent Registration,Required,,,ام المؤمنين ام سلمه,الكعكية,00,00,00,JEDDAH,Assignment,,
Makkah,West,مكة المكرمة,MAK002,AG00250,Mohamed Keshawi,CS001430,تموينات سنابل التلال للمواد الغذائية,"502,849,677",,,Traditional Trade,Medium Grocery,,1,WED,21.38738,39.79446,"311,544,597,200,003","4,031,246,776","42,075,290,804",2024-12-15,4,Credit,23,500.0000000,ACTIVE,Approved by Finance,Agent Registration,Required,2025-12-31,2026-02-04,شارع,الشوقية,3146,24351,7811,JEDDAH,Assignment,,
Makkah,West,مكة المكرمة,MAK002,AG00292,Rashid  Hussein,CS001432,تموينات العميري,"564,827,238",,,Traditional Trade,Medium Grocery,,1,WED,21.38658,39.79816,"310,634,268,600,003","4,031,218,983","3,909,540,295",2024-09-15,1,Credit,0,500.0000000,ACTIVE,Approved by Finance,Agent Registration,Required,2025-08-22,2025-07-22,شارع,الشوقية,3325,24351,8084,JEDDAH,Zone,,
Makkah,West,مكة المكرمة,MAK002,AG00292,Rashid  Hussein,CS001433,تموينات بركه الشوقية للمواد الغذائية,"558,273,373",,,Traditional Trade,Medium Grocery,,1,WED,21.38625,39.79779,"311,404,554,600,003","4,031,272,573","42,105,632,133",2024-09-15,9,Credit,20,750.8400000,ACTIVE,Approved by Finance,Agent Registration,Required,2026-10-01,2026-04-25,شارع,الشوقية,7722,24351,3515,JEDDAH,Zone,,
Makkah,West,مكة المكرمة,MAK002,AG00292,Rashid  Hussein,CS001440,مركز القمه لتسويق,"558,970,806",,,Traditional Trade,Medium Grocery,,1,SUN,21.42741,39.78581,"310,434,012,200,003","4,031,256,429","43,059,034,683",2023-09-06,1,,0,0.0000000,In-Active,Approved by Finance,Agent Registration,Required,,,17 النزهه,النزهة,00,00,00,JEDDAH,Zone,,
Makkah,West,مكة المكرمة,MAK002,AG00292,Rashid  Hussein,CS001442,مركز بلادي للتسوق,"505,990,124",,,Traditional Trade,Medium Grocery,,1,WED,21.37861,39.79928,"311,397,856,800,003","7,030,683,044","4,031,270,307",2023-09-06,0,,0,0.0000000,In-Active,Approved by Finance,Agent Registration,Required,,,ابو حرب بن خويلد,الشوقية,00,00,00,JEDDAH,Zone,,
Makkah,West,مكة المكرمة,MAK002,AG00292,Rashid  Hussein,CS001460,تموينات الهجرة,"502,592,318",,,Traditional Trade,Small Grocery,,1,THU,21.38863,39.84678,"311,372,160,400,003","4,031,268,988","440,611,224,909",2023-09-07,1,,0,0.0000000,In-Active,Approved by Finance,Agent Registration,Required,,,كدي,المسفلة,00,00,00,JEDDAH,Zone,,
Makkah,West,مكة المكرمة,MAK002,AG00292,Rashid  Hussein,CS001461,تموينات الامل,"562,949,208",,,Traditional Trade,Small Grocery,,1,WED,21.38006,39.78634,"310,164,972,500,003","4,031,233,261","41,052,666,576",2023-09-07,0,,0,0.0000000,In-Active,Approved by Finance,Agent Registration,Required,2024-09-22,2024-11-25,00,الشوقية,00,24372,00,JEDDAH,Zone,,
Makkah,West,مكة المكرمة,MAK002,AG00292,Rashid  Hussein,CS001464,تموينات سلة المكارم,"556,712,861",,,Traditional Trade,Small Grocery,,1,WED,21.38111,39.77822,"300,321,658,600,003","1,006,634,495","4,031,215,676",2023-09-07,0,,0,0.0000000,In-Active,Approved by Finance,Agent Registration,Required,,,شارع الامير ناصر بن عبدالعزيز,الملك فهد,00,24342,00,JEDDAH,Zone,,
Makkah,West,مكة المكرمة,MAK002,AG00292,Rashid  Hussein,CS001473,تموينات ومخبز بساتين النزهه,"557,496,934",,,Traditional Trade,Large Grocery,,1,SUN,21.43454,39.80593,"305,003,207,300,003","1,080,214,966","42,065,169,648",2023-09-07,0,,0,0.0000000,In-Active,Approved by Finance,Agent Registration,Required,,,شارع عام,الضيافة,00,00,00,JEDDAH,Zone,,
Makkah,West,مكة المكرمة,MAK002,AG00292,Rashid  Hussein,CS001474,مركز الصاوي,"548,570,059",,,Traditional Trade,Small Grocery,,1,TUE,21.41232,39.78253,"300,728,858,600,003","4,031,208,183","4,031,208,183",2023-09-07,1,,0,0.0000000,In-Active,Approved by Finance,Agent Registration,Required,2024-12-12,2024-10-04,عثمان بن عفان الدايري الثالث,الرصيفة,00,00,00,JEDDAH,Zone,,
Makkah,West,مكة المكرمة,MAK002,AG00292,Rashid  Hussein,CS001476,تموينات عبدالوهاب,"539,788,424",,,Traditional Trade,Medium Grocery,,1,SUN,21.43581,39.79782,"311,001,542,800,003","4,031,253,064","3,909,511,552",2024-09-15,9,Credit,0,500.0000000,ACTIVE,Approved by Finance,Agent Registration,Required,2027-06-29,2025-08-15,شارع,العمرة,7742,24225,3501,JEDDAH,Zone,,
Makkah,West,مكة المكرمة,MAK002,AG00292,Rashid  Hussein,CS001485,بقالة الوفاء,"547,938,120",,,Traditional Trade,Small Grocery,,1,WED,21.39173,39.78933,"310,337,973,800,003","4,031,225,016","44,000,000,000,065",2023-09-09,1,,0,0.0000000,In-Active,Approved by Finance,Agent Registration,Required,1979-11-20,1979-11-20,الامير فواز,الرصيفة,00,24232,00,JEDDAH,Zone,,
Makkah,West,جدة,MAK002,AG00195,Abdulkareem Saqer,CS001487,ثلاجة ومحلات البقمي,"507,529,368",,,Traditional Trade,Large Grocery,,2,SAT,21.39994,39.44375,"300,261,981,100,003","4,031,085,095","3,909,504,738",2023-09-09,6,Credit,0,220.0000000,ACTIVE,Approved by Finance,Agent Registration,Required,2025-05-27,2025-08-07,طريق مكة القديم,بحرة,4816,22826,6462,JEDDAH,Assignment,,
Makkah,West,جدة,MAK002,AG00055,Abdullah Masoud,CS001490,مركز مرحبا للتسوق,"578,742,414",,,Traditional Trade,Medium Grocery,,2,SAT,21.40122,39.44882,"302,181,327,400,003","4,031,209,926","3,909,571,823",2023-09-09,2,Credit,0,500.0000000,ACTIVE,Approved by Finance,Agent Registration,Required,2025-06-06,2025-07-24,طريق مكة القديم,بحرة,00,00,00,JEDDAH,Assignment,,
Makkah,West,مكة المكرمة,MAK002,AG00292,Rashid  Hussein,CS001496,مركز الصفوة,"544,824,420",,,Traditional Trade,Medium Grocery,,1,THU,21.38329,39.82843,"310,992,227,600,003","1,006,904,633","390,910,030,223",2023-09-09,3,,0,0.0000000,In-Active,Approved by Finance,Agent Registration,Required,,,ذات النطاقين,بطحاء قريش,00,24352,00,JEDDAH,Zone,,
Makkah,West,مكة المكرمة,MAK002,AG00292,Rashid  Hussein,CS001497,تموينات الجاوي,"535,782,578",,,Traditional Trade,Medium Grocery,,1,SUN,21.43435,39.80625,"300,728,858,600,003","4,031,208,183","42,105,633,828",2024-09-15,1,,0,0.0000000,In-Active,Approved by Finance,Agent Registration,Required,2026-12-13,2026-05-23,شارع,الضيافة,4347,24225,7475,JEDDAH,Zone,,
Makkah,West,جدة,MAK002,AG00292,Rashid  Hussein,CS001520,aswaq al shahri,"540,381,613",,,Traditional Trade,Medium Grocery,,2,SAT,21.41468,39.41362,"300,837,388,100,003","7,005,713,172","22,222",2023-09-10,0,,0,0.0000000,In-Active,Approved by Finance,Agent Registration,Required,,,al fazal old Makkah road,الحرازات,00,00,00,JEDDAH,Zone,,
Makkah,West,مكة المكرمة,MAK002,AG00292,Rashid  Hussein,CS001544,الثلاثين,0,,,Traditional Trade,Medium Grocery,,2,SUN,21.37101,39.79499,"305,001,301,900,003","5,904,617,026","39,094,549,323",2023-09-10,0,,0,0.0000000,In-Active,Missing Documents,Agent Registration,Required,,,محمد الطيب,العمرة,0,0,0,JEDDAH,Zone,,
Makkah,West,مكة المكرمة,MAK002,AG00292,Rashid  Hussein,CS001548,بقاله ساره,"535,800,759",,,Traditional Trade,Small Grocery,,1,SUN,21.42782,39.80196,"310,950,072,300,003","4,031,263,722","42,013,680,464",2023-09-10,0,,0,0.0000000,In-Active,Approved by Finance,Agent Registration,Required,,,مسجد بن حسن,الزهراء,0,0,0,JEDDAH,Zone,,
Makkah,West,مكة المكرمة,MAK002,AG00292,Rashid  Hussein,CS001563,تموينات ابو ثامر,"581,786,743",,,Traditional Trade,Small Grocery,,2,TUE,21.29523,39.90808,"311,268,500,200,003","7,028,737,232","40,092,192,326",2023-09-11,1,,0,0.0000000,In-Active,Approved by Finance,Agent Registration,Required,2025-03-27,1979-11-20,شارع ام المؤمنين مارية القبطي,الحسينية,00,00,00,JEDDAH,Zone,,
Makkah,West,مكة المكرمة,MAK002,AG00055,Abdullah Masoud,CS001605,القافله,"561,751,456",,,Traditional Trade,Small Grocery,,2,SUN,21.37455,39.80022,"302,125,346,300,003","4,031,241,445","39,095,449,700",2023-09-12,8,Credit,0,500.0000000,ACTIVE,Approved by Finance,Agent Registration,Required,2025-08-25,2024-12-05,عمر بن محمد البخاري,الشوقية,0,0,0,JEDDAH,Assignment,,
Makkah,West,مكة المكرمة,MAK002,AG00275,Legal  Case,CS001607,مخابز و سوبر ماركت الخفاجي,"508,761,705",,,Traditional Trade,Medium Grocery,,2,WED,21.39618,39.89126,"301,098,273,800,003","4,031,084,721","3,909,597,689",2024-09-15,3,,0,500.0000000,ACTIVE,Approved by Finance,Agent Registration,Required,2025-12-31,2024-05-19,شارع,المرسلات,0,24247,0,JEDDAH,Assignment,,
Makkah,West,مكة المكرمة,MAK002,AG00292,Rashid  Hussein,CS001617,تموينات الرمال,"558,036,719",,,Traditional Trade,Small Grocery,,2,SUN,21.37108,39.79488,"300,321,658,600,003","4,031,273,997","42,095,590,782",2023-09-12,1,,0,0.0000000,In-Active,Approved by Finance,Agent Registration,Required,,,الشارع العام,السنابل,0,0,0,JEDDAH,Zone,,
Makkah,West,مكة المكرمة,MAK002,AG00250,Mohamed Keshawi,CS001633,بقالة مريم علي اليماني,"503,713,107",,,Traditional Trade,Small Grocery,,1,TUE,21.41018,39.82254,"311,521,416,500,003","5,800,109,356","440,711,540,930",2023-09-13,4,Credit,0,,ACTIVE,Approved by Finance,Agent Registration,Required,2025-01-08,2025-01-16,شارع الهجرة,المسفلة,17225,65522,4210,JEDDAH,Assignment,,
Makkah,West,مكة المكرمة,MAK002,AG00292,Rashid  Hussein,CS001644,بقالة السلام,"502,725,832",,,Traditional Trade,Small Grocery,,1,TUE,21.41012,39.78342,"302,041,126,800,003","1,014,628,950","3,909,520,184",2023-09-13,1,,0,0.0000000,In-Active,Approved by Finance,Agent Registration,Required,2025-05-16,2025-04-04,شارع الشجاعة,الرصيفة,2373,24232,7722,JEDDAH,Zone,,
Makkah,West,مكة المكرمة,MAK002,AG00292,Rashid  Hussein,CS001650,تموينات النصر,"554,462,138",,,Traditional Trade,Small Grocery,,1,SUN,21.42790,39.77276,"302,045,567,100,003","4,031,276,453","3,909,508,126",2023-09-13,1,,0,0.0000000,In-Active,Approved by Finance,Agent Registration,Required,2025-01-13,2024-10-28,شارع اياس بن اوس,الحمراء,6764,24321,4885,JEDDAH,Zone,,
Makkah,West,مكة المكرمة,MAK002,AG00292,Rashid  Hussein,CS001673,مركز الخيرات للمواد الغذائية,"596,320,364",,,Traditional Trade,Small Grocery,,1,TUE,21.40749,39.83004,"302,127,567,600,003","4,031,098,826","3,909,551,622",2023-09-14,1,,0,0.0000000,In-Active,Approved by Finance,Agent Registration,Required,,,شارع اجياد,الروابي,00,000,00,JEDDAH,Zone,,
Makkah,West,مكة المكرمة,MAK002,AG00292,Rashid  Hussein,CS001682,مركز ومخبز الجهني,"507,747,335",,,Traditional Trade,Large Grocery,,1,TUE,21.41869,39.77221,"302,011,956,800,003","4,031,204,761","4,031,212,171",2023-09-16,1,,0,0.0000000,In-Active,Approved by Finance,Agent Registration,Required,2024-12-25,2021-04-08,شارع الحمراء,الحمراء,00,00,00,JEDDAH,Zone,,
Makkah,West,مكة المكرمة,MAK002,AG00292,Rashid  Hussein,CS001704,شركة واحة التخفيضات,"500,276,739",,,Traditional Trade,Medium Grocery,,1,THU,21.37123,39.83587,"311,656,795,500,003","7,031,109,304","28,838,883,482",2023-09-16,0,,0,0.0000000,In-Active,Approved by Finance,Agent Registration,Required,,,شارع ثوبان النبوي,بطحاء قريش,00,00,00,JEDDAH,Zone,,
Makkah,West,مكة المكرمة,MAK002,AG00292,Rashid  Hussein,CS001710,تموينات جوم التميز للتجاره,"506,579,458",,,Traditional Trade,Medium Grocery,,2,SUN,21.36194,39.77954,"311,537,000,500,003","4,031,258,067","440,310,719,631",2024-09-15,5,Credit,30,919.9000000,ACTIVE,Approved by Finance,Agent Registration,Required,2025-11-09,2025-10-13,شارع,العمرة,3587,24353,7571,JEDDAH,Zone,,
Makkah,West,مكة المكرمة,MAK002,AG00292,Rashid  Hussein,CS001721,اسواق عادل,"531,603,600",,,Traditional Trade,Medium Grocery,,1,MON,21.33451,39.69252,"300,115,402,900,003","4,030,507,077","42,044,288,281",2024-11-25,9,Credit,20,500.0000000,ACTIVE,Approved by Finance,Agent Registration,Required,2025-04-01,2025-10-26,شارع,الشامية الجديد,6337,24567,2456,JEDDAH,Zone,,
Makkah,West,مكة المكرمة,MAK002,AG00292,Rashid  Hussein,CS001730,تموينات مركز الخير 2,"503,901,306",,,Traditional Trade,Medium Grocery,,1,MON,21.33959,39.68650,"311,054,150,200,003","4,031,085,888","3,909,590,919",2024-09-15,2,Credit,23,500.0000000,ACTIVE,Approved by Finance,Agent Registration,Required,2025-05-18,2025-05-28,طريق الليث,الشامية الجديد,7311,24341,3245,JEDDAH,Zone,,
Makkah,West,مكة المكرمة,MAK002,AG00292,Rashid  Hussein,CS001732,اسواق ومخابز الكعكي,"566,726,256",,,Traditional Trade,Medium Grocery,,2,SUN,21.36669,39.79404,"310,798,572,200,003","1,088,657,703","4,031,278,460",2023-09-17,1,,0,0.0000000,In-Active,Approved by Finance,Agent Registration,Required,,,شارع معالي ابىاهيم,المحمدية,00,00,00,JEDDAH,Zone,,
Makkah,West,مكة المكرمة,MAK002,AG00292,Rashid  Hussein,CS001735,اسواق و مخابز العملاق,"558,049,144",,,Traditional Trade,Large Grocery,,1,MON,21.34507,39.75362,"310,165,740,500,003","4,021,229,760","41,022,585,578",2023-09-17,4,,0,0.0000000,In-Active,Approved by Finance,Agent Registration,Required,,,طريق الليث,الملك فهد,00,00,00,JEDDAH,Zone,,
Makkah,West,مكة المكرمة,MAK002,AG00055,Abdullah Masoud,CS001748,بقالة روان عبدالعزيز بن محمد صلواتى للمواد الغذائي,"572,207,358",,,Traditional Trade,Medium Grocery,,2,MON,21.35544,39.78894,"311,123,536,400,003","7,026,993,290","3,909,517,237",2024-09-15,2,Credit,0,500.0000000,ACTIVE,Approved by Finance,Agent Registration,Required,2025-11-24,2026-07-27,طريق الليث,العكيشية,0,24353,0,JEDDAH,Assignment,,
Makkah,West,مكة المكرمة,MAK002,AG00250,Mohamed Keshawi,CS001768,اسواق خيرات بلادى,"533,754,973",,,Traditional Trade,Medium Grocery,,1,THU,21.37290,39.82915,"310,155,914,500,003","4,031,102,250","3,909,541,317",2024-09-15,6,Credit,0,0.0000000,ACTIVE,Approved by Finance,Agent Registration,Required,2025-09-28,2025-02-05,شارع,العمرة,7349,24352,4756,JEDDAH,Assignment,,
Makkah,West,مكة المكرمة,MAK002,AG00292,Rashid  Hussein,CS001857,تموينات غزلان الحمراء,"555,549,160",,,Traditional Trade,Medium Grocery,,1,TUE,21.41591,39.77141,"310,647,474,300,003","4,030,244,700","44,000,000,000,015",2023-09-23,3,,0,0.0000000,In-Active,Approved by Finance,Agent Registration,Required,1979-11-20,1979-11-20,امنه بنت وهب,الحمراء,00,00,00,JEDDAH,Zone,,
Makkah,West,مكة المكرمة,MAK002,AG00292,Rashid  Hussein,CS001868,سدره,"551,009,327",,,Traditional Trade,Small Grocery,,2,WED,21.39666,39.87832,"310,801,155,200,003","4,031,244,837","3,909,534,266",2023-09-23,0,,0,0.0000000,In-Active,Approved by Finance,Agent Registration,Required,,,عز النساء بنت احمد,السلامة,0,0,0,JEDDAH,Zone,,
Makkah,West,مكة المكرمة,MAK002,AG00292,Rashid  Hussein,CS001882,مركز ياسر المخفض,"544,732,355",,,Traditional Trade,Medium Grocery,,1,SUN,21.42631,39.78659,"300,236,859,600,003","4,031,239,846","42,013,682,302",2023-09-25,7,,0,0.0000000,In-Active,Approved by Finance,Agent Registration,Required,,,دار الحديث,النزهة,124,2231,12,JEDDAH,Zone,,
Makkah,West,مكة المكرمة,MAK002,AG00292,Rashid  Hussein,CS001892,أجواد الكرم التجارية,"503,343,293",,,Traditional Trade,Medium Grocery,,2,THU,21.40045,39.70216,"310,659,857,800,003","4,031,304,490","42,023,985,711",2024-10-07,8,Credit,10,500.0000000,ACTIVE,Approved by Finance,Agent Registration,Required,2026-06-13,2025-09-10,شارع,ام الجود,8828,24414,2445,JEDDAH,Zone,,
Makkah,West,مكة المكرمة,MAK002,AG00292,Rashid  Hussein,CS001919,ارض الجنتين,0,,,Traditional Trade,Small Grocery,,2,SUN,21.37094,39.79492,"310,200,762,300,003","4,031,236,010","41,063,419,938",2023-09-26,0,,0,0.0000000,In-Active,Approved by Finance,Agent Registration,Required,,,عام,البرات,0,0,0,JEDDAH,Zone,,
Makkah,West,مكة المكرمة,MAK002,AG00055,Abdullah Masoud,CS001960,صاله روبي الاقتصاديه,"545,549,996",,,Traditional Trade,Large Grocery,,1,WED,21.38179,39.78373,"311,665,231,200,003","4,031,203,487","3,909,540,358",2023-09-28,2,Credit,0,500.0000000,ACTIVE,Approved by Finance,Agent Registration,Required,2024-03-11,2024-03-11,شارع الدوكتور عبد القادر,الشوقية,000,34353,000,JEDDAH,Assignment,,
Makkah,West,مكة المكرمة,MAK002,AG00292,Rashid  Hussein,CS002004,تموينات أمان الزهرة,"501,213,492",,,Traditional Trade,Small Grocery,,1,THU,21.38057,39.81716,"310,178,176,500,003","4,031,214,999","3,909,590,315",2023-10-01,1,,0,0.0000000,In-Active,Approved by Finance,Agent Registration,Required,,,العام,الكعكية,00,00,00,JEDDAH,Zone,,
Makkah,West,مكة المكرمة,MAK002,AG00292,Rashid  Hussein,CS002011,تموينات خيرات المنزل للموادالغذئية,"580,379,109",,,Traditional Trade,Small Grocery,,2,MON,21.36301,39.82202,"305,002,637,300,003","4,031,286,201","44,000,000,000,109",2023-10-01,1,,0,0.0000000,In-Active,Approved by Finance,Agent Registration,Required,1979-11-20,1979-11-20,العام,الشوقية,00,00,00,JEDDAH,Zone,,
Makkah,West,مكة المكرمة,MAK002,AG00292,Rashid  Hussein,CS002013,مخبز وتموينات ابو زايد,"559,074,458",,,Traditional Trade,Small Grocery,,2,SUN,21.37099,39.79497,"311,252,237,800,003","4,031,190,257","44,000,000,000,126",2023-10-01,1,,0,0.0000000,In-Active,Approved by Finance,Agent Registration,Required,2025-03-03,2024-12-28,عام,النوارية,0,0,0,JEDDAH,Zone,,
Makkah,West,مكة المكرمة,MAK002,AG00292,Rashid  Hussein,CS002019,تموينات ارزاق رحمت للمواد الغذائيه,"534,528,281",,,Traditional Trade,Large Grocery,,1,MON,21.32746,39.70176,"311,009,562,700,003","4,031,253,442","43,037,631,171",2023-10-01,8,Credit,0,500.0000000,ACTIVE,Approved by Finance,Agent Registration,Required,2025-07-19,2023-10-12,الامير مقرن بن عبدالعزيز,الشامية الجديد,0000,0000,0000,JEDDAH,Zone,,
Makkah,West,مكة المكرمة,MAK002,AG00250,Mohamed Keshawi,CS002043,اسواق شبرا المخفضة,"565,007,267",,,Traditional Trade,Medium Grocery,,2,SUN,21.35857,39.78338,"311,788,114,700,003","4,031,293,594","440,711,643,972",2024-09-15,9,Credit,0,0.0000000,ACTIVE,Approved by Finance,Agent Registration,Required,2024-12-27,2026-02-16,شارع,المحمدية,7863,24232,3386,JEDDAH,Assignment,,
Makkah,West,مكة المكرمة,MAK002,AG00292,Rashid  Hussein,CS002066,اسواق ومخابز الكعكي,"560,008,157",,,Traditional Trade,Large Grocery,,2,SUN,21.36645,39.79376,"311,111,111,111,113","4,031,276,004","44,000,000,000,020",2023-10-04,4,,0,0.0000000,In-Active,Approved by Finance,Agent Registration,Required,1979-11-20,1979-11-20,طريق مكة المدينة المنورة,النوارية,000,24213,7832,JEDDAH,Zone,,
Makkah,West,مكة المكرمة,MAK002,AG00292,Rashid  Hussein,CS002126,مركز عائض للمواد الغذائية المخفضة,"570,400,799",,,Traditional Trade,Large Grocery,,2,WED,21.39573,39.87651,"310,402,785,800,003","4,031,248,287","44,000,000,000,071",2023-10-09,5,,0,0.0000000,In-Active,Approved by Finance,Agent Registration,Required,2025-02-14,2025-07-02,الوليد بن خالد,وادي جليل,0,0,0,JEDDAH,Zone,,
Makkah,West,مكة المكرمة,MAK002,AG00292,Rashid  Hussein,CS002133,مركز زياد للتموينات,"534,501,974",,,Traditional Trade,Medium Grocery,,1,SAT,21.44344,39.80380,"310,828,408,500,003","4,031,223,480","3,909,493,148",2023-10-10,1,,0,0.0000000,In-Active,Approved by Finance,Agent Registration,Required,,,الامير عبدالعزيز,الزاهر,0000,24333,4349,JEDDAH,Zone,,
Makkah,West,مكة المكرمة,MAK002,AG00292,Rashid  Hussein,CS002135,مركز الايمان للتسويق,"504,965,135",,,Traditional Trade,Medium Grocery,,1,SAT,21.44231,39.79155,"300,253,138,400,003","4,031,198,135","3,909,513,570",2024-09-15,6,Credit,22,500.0000000,ACTIVE,Approved by Finance,Agent Registration,Required,2025-08-13,2025-11-17,عبد الرحيم القيسي,الزاهر,2944,24222,6251,JEDDAH,Zone,,
Makkah,West,مكة المكرمة,MAK002,AG00292,Rashid  Hussein,CS002138,تموينات المستقبل للتسوق,"530,257,621",,,Traditional Trade,Medium Grocery,,1,WED,21.38169,39.77328,"311,313,596,800,003","4,031,266,417","44,000,000,000,017",2023-10-11,2,,0,0.0000000,In-Active,Approved by Finance,Agent Registration,Required,2026-05-14,2024-10-13,ام الكداد,الشوقية,000,000,000,JEDDAH,Zone,,
Makkah,West,مكة المكرمة,MAK002,AG00292,Rashid  Hussein,CS002153,مركز ومخبز العائلة للتسوق,"507,733,663",,,Traditional Trade,Medium Grocery,,1,WED,21.37884,39.79808,"310,262,883,400,003","4,031,280,523","440,811,746,474",2024-09-15,8,Credit,0,1000.0000000,ACTIVE,Approved by Finance,Agent Registration,Required,2025-04-12,2025-02-14,شارع,الشوقية,4076,24351,7788,JEDDAH,Zone,,
Makkah,West,مكة المكرمة,MAK002,AG00292,Rashid  Hussein,CS002172,بقالة الخير للمواد الغذائية,"544,100,823",,,Traditional Trade,Small Grocery,,1,SAT,21.44720,39.79955,"311,111,111,111,113","3,909,515,564","3,909,515,564",2023-10-14,1,,0,0.0000000,In-Active,Approved by Finance,Agent Registration,Required,,,00,الزاهر,00,24222,00,JEDDAH,Zone,,
Makkah,West,مكة المكرمة,MAK002,AG00055,Abdullah Masoud,CS002186,ثلاجه مرحبا,"503,559,120",,,Traditional Trade,Medium Grocery,,2,SUN,21.37791,39.81054,"311,473,734,600,003","4,031,200,421","3,909,588,646",2023-10-16,3,Credit,0,500.0000000,ACTIVE,Approved by Finance,Agent Registration,Required,2024-06-01,2024-06-01,عام,الكعكية,0,0,0,JEDDAH,Assignment,,
Makkah,West,مكة المكرمة,MAK002,AG00292,Rashid  Hussein,CS002199,مركز شدا للمواد الغذاية,"594,659,857",,,Traditional Trade,Small Grocery,,1,WED,21.37992,39.79052,"311,089,229,400,003","4,031,257,114","43,016,088,209",2023-10-18,1,,0,0.0000000,In-Active,Approved by Finance,Agent Registration,Required,2024-10-10,2025-07-22,شارع أم المؤمنين,الشوقية,00,٢٤٣٥١,00,JEDDAH,Zone,,
Makkah,West,مكة المكرمة,MAK002,AG00292,Rashid  Hussein,CS002223,مركز سلطان للتسويق,"568,123,558",,,Traditional Trade,Medium Grocery,,2,WED,21.39079,39.88265,"310,992,053,100,003","4,031,252,625","41,123,677,431",2024-09-15,0,,0,0.0000000,In-Active,Approved by Finance,Agent Registration,Required,2026-06-11,2026-06-19,شارع,الجامعة,2248,24352,7131,JEDDAH,Zone,,
Makkah,West,مكة المكرمة,MAK002,AG00292,Rashid  Hussein,CS002225,مركز ايمن,"502,917,096",,,Traditional Trade,Medium Grocery,,1,SAT,21.44367,39.79780,"310,738,976,900,003","4,031,242,176","3,909,516,404",2024-09-15,5,Credit,19,500.0000000,ACTIVE,Approved by Finance,Agent Registration,Required,2025-08-17,2024-09-02,شارع,الزهراء,0,24239,0,JEDDAH,Zone,,
Makkah,West,مكة المكرمة,MAK002,AG00292,Rashid  Hussein,CS002230,بقاله سمو الشطاره,"507,931,096",,,Traditional Trade,Small Grocery,,2,WED,21.39599,39.87644,"300,291,358,200,003","4,031,241,463","42,044,286,432",2023-10-22,6,,0,0.0000000,In-Active,Approved by Finance,Agent Registration,Required,,,عام,الرصيفة,0,0,0,JEDDAH,Zone,,
Makkah,West,مكة المكرمة,MAK002,AG00292,Rashid  Hussein,CS002233,مركز ايلاف للتسويق,"551,125,202",,,Traditional Trade,Small Grocery,,1,THU,21.36835,39.83639,"310,290,427,100,003","4,031,235,858","44,000,000,000,036",2023-10-23,1,,0,0.0000000,In-Active,Approved by Finance,Agent Registration,Required,2024-12-21,2025-06-13,عام,بطحاء قريش,0,0,0,JEDDAH,Zone,,
Makkah,West,مكة المكرمة,MAK002,AG00292,Rashid  Hussein,CS002234,تموينات ومخبز السعاده,"559,446,825",,,Traditional Trade,Small Grocery,,2,MON,21.36851,39.82375,"302,124,918,800,003","4,031,234,577","43,069,054,005",2023-10-23,8,Credit,30,500.0000000,ACTIVE,Approved by Finance,Agent Registration,Required,2025-09-22,2024-12-14,عام,بطحاء قريش,7653,24434,2929,JEDDAH,Zone,,
Makkah,West,مكة المكرمة,MAK002,AG00292,Rashid  Hussein,CS002235,مركز ومخبز خيرات بلادي للتويق,0,,,Traditional Trade,Medium Grocery,,2,WED,21.39599,39.87644,"310,155,914,500,003","4,031,102,250","44,000,000,000,016",2023-10-23,2,,0,0.0000000,In-Active,Approved by Finance,Agent Registration,Required,1979-11-20,1979-11-20,عام,بطحاء قريش,0,0,0,JEDDAH,Zone,,
Makkah,West,مكة المكرمة,MAK002,AG00292,Rashid  Hussein,CS002237,تموينات خيرات المنزل,0,,,Traditional Trade,Small Grocery,,2,WED,21.39599,39.87644,"305,002,637,300,003","4,031,286,201","44,000,000,000,110",2023-10-23,0,,0,0.0000000,In-Active,Approved by Finance,Agent Registration,Required,1979-11-20,1979-11-20,عام,بطحاء قريش,0,0,0,JEDDAH,Zone,,
Makkah,West,مكة المكرمة,MAK002,AG00046,Akram Gamar,CS002249,وفر اكثر,"530,084,030",,,Traditional Trade,Large Grocery,,2,WED,21.39634,39.87585,"310,506,401,300,003","4,030,369,889","42,055,003,111",2023-10-24,7,,0,0.0000000,In-Active,Approved by Finance,Agent Registration,Required,,,شارع الجزائر,العتيبية,0,0,0,JEDDAH,Assignment,,
Makkah,West,مكة المكرمة,MAK002,AG00292,Rashid  Hussein,CS002253,شركه المهره المميزه التجاريه,"506,066,093",,,Traditional Trade,Large Grocery,,2,WED,21.39480,39.87671,"310,057,350,500,003","4,031,238,712","4,030,419,981",2023-10-24,6,,0,0.0000000,In-Active,Approved by Finance,Agent Registration,Required,,,طريق الملك عبدلله,الشرائع,000,000,000,JEDDAH,Zone,,
Makkah,West,مكة المكرمة,MAK002,AG00055,Abdullah Masoud,CS002266,ثلاجه التوفير المثالي,"580,901,496",,,Traditional Trade,Medium Grocery,,2,SUN,21.36650,39.79394,"311,552,739,100,003","4,031,277,659","441,112,446,397",2023-10-28,3,Credit,0,500.0000000,ACTIVE,Approved by Finance,Agent Registration,Required,2024-06-02,2024-05-31,عام,جعرانة,0,0,0,JEDDAH,Assignment,,
Makkah,West,مكة المكرمة,MAK002,AG00292,Rashid  Hussein,CS002268,خيراتي الكعكيه,"539,426,049",,,Traditional Trade,Medium Grocery,,2,SUN,21.37851,39.80845,"310,403,269,500,003","4,031,098,053","3,909,518,901",2023-10-28,3,,0,0.0000000,In-Active,Approved by Finance,Agent Registration,Required,,,عبد الله كعكي,الكعكية,0,0,0,JEDDAH,Zone,,
Makkah,West,مكة المكرمة,MAK002,AG00292,Rashid  Hussein,CS002297,مخابز ومتاجر كيان للتسوق,"556,690,231",,,Traditional Trade,Medium Grocery,,2,SUN,21.37098,39.79084,"311,377,676,800,003","4,030,381,318","44,000,000,000,152",2023-11-04,0,,0,0.0000000,In-Active,Approved by Finance,Agent Registration,Required,1980-09-20,1980-09-10,عبدالله بن العباس,الشوقية,0,0,0,JEDDAH,Zone,,
Makkah,West,مكة المكرمة,MAK002,AG00292,Rashid  Hussein,CS002298,أسواق وخابز كريم,"540,702,258",,,Traditional Trade,Medium Grocery,,2,SUN,21.36975,39.79614,"311,527,421,600,003","4,031,241,084","3,909,559,423",2024-09-15,12,Credit,30,3000.0000000,ACTIVE,Approved by Finance,Agent Registration,Required,2024-10-10,2024-12-23,شارع معالي إبراهيم بن عبدالله العنقري,المحمدية,3744,25351,7388,JEDDAH,Zone,,
Makkah,West,مكة المكرمة,MAK002,AG00292,Rashid  Hussein,CS002299,تموينات و مخبز المهاجرين,"568,110,419",,,Traditional Trade,Medium Grocery,,1,WED,21.39045,39.79265,"302,132,427,300,003","4,031,215,332","41,123,666,270",2024-09-15,4,Credit,30,655.6700000,ACTIVE,Approved by Finance,Agent Registration,Required,2025-03-25,2024-09-04,ابره بن شراحيل رضي الله عنه,الشوقية,0,24222,0,JEDDAH,Zone,,
Makkah,West,مكة المكرمة,MAK002,AG00292,Rashid  Hussein,CS002300,تموينات محمد احمد الزعاقي,"536,717,332",,,Traditional Trade,Medium Grocery,,1,WED,21.37643,39.79076,"310,266,382,800,003","4,031,219,612","6,440,811,840,915",2023-11-04,1,,0,0.0000000,In-Active,Approved by Finance,Agent Registration,Required,,,الدكتور عبدالقادر كوشك,الشوقية,00,82405,58255,JEDDAH,Zone,,
Makkah,West,مكة المكرمة,MAK002,AG00292,Rashid  Hussein,CS002303,مركز ام القري للتسويق,"548,654,873",,,Traditional Trade,Medium Grocery,,1,SUN,21.42758,39.77460,"310,766,208,100,003","4,031,207,733","3,909,531,001",2023-11-05,1,,0,0.0000000,In-Active,Approved by Finance,Agent Registration,Required,,,امنه بنت وهب,الحمراء,00,24268,8564,JEDDAH,Zone,,
Makkah,West,مكة المكرمة,MAK002,AG00055,Abdullah Masoud,CS002310,تموينات  ومخبز العائلة,"596,097,196",,,Traditional Trade,Medium Grocery,,1,MON,21.30732,39.68288,"310,447,680,100,003","1,128,190,084","450,313,272,838",2023-11-06,4,Credit,0,500.0000000,ACTIVE,Approved by Finance,Agent Registration,Required,1979-11-20,1979-11-20,الامير بدر بن سلطان بن عبدالعزيز,الشامية الجديد,00,00,00,JEDDAH,Assignment,,
Makkah,West,مكة المكرمة,MAK002,AG00055,Abdullah Masoud,CS002311,مركز الخير للتسويق,"503,901,306",,,Traditional Trade,Medium Grocery,,1,MON,21.33970,39.68643,"311,054,150,200,003","4,031,085,888","3,909,590,918",2023-11-06,2,Credit,0,500.0000000,ACTIVE,Approved by Finance,Agent Registration,Required,2025-05-06,2025-05-28,الطريق الليث,الشامية الجديد,00,00,00,JEDDAH,Assignment,,
Makkah,West,مكة المكرمة,MAK002,AG00292,Rashid  Hussein,CS002322,تموينات جنب وخذ للتجارة,"580,361,880",,,Traditional Trade,Small Grocery,,2,THU,21.41620,39.71152,"311,111,111,111,113","4,031,245,197","42,065,212,586",2024-09-15,1,,0,0.0000000,In-Active,Approved by Finance,Agent Registration,Required,2024-11-22,2024-12-26,شارع,ام الجود,4113,24323,8001,JEDDAH,Zone,,
Makkah,West,مكة المكرمة,MAK002,AG00292,Rashid  Hussein,CS002323,أسواق هوازن,"538,410,087",,,Traditional Trade,Large Grocery,,2,THU,21.41041,39.70491,"300,535,397,300,003","7,002,521,537","4,306,906,363",2023-11-07,0,,0,0.0000000,In-Active,Approved by Finance,Agent Registration,Required,,,شارع الزايدي العام,الزايدي,٠,٠,٠,JEDDAH,Zone,,
Makkah,West,مكة المكرمة,MAK002,AG00050,Ahmed Alkurdi,CS002325,أسواق ومخابز الصقور,"547,343,170",,,Traditional Trade,Medium Grocery,,2,THU,21.40557,39.70312,"302,207,134,200,003","4,031,245,807","450,000,000,003",2024-09-15,2,,0,0.0000000,In-Active,Approved by Finance,Agent Registration,Required,2024-12-09,2025-09-12,شارع أيمن بن عبيد الحبشي,ام الجود,9088,24232,2422,JEDDAH,Assignment,,
Makkah,West,مكة المكرمة,MAK002,AG00292,Rashid  Hussein,CS002327,تموينات قمر للمواد الغذائية,"560,866,916",,,Traditional Trade,Medium Grocery,,2,THU,21.39219,39.70203,"302,161,485,200,003","4,031,239,226","42,013,808,114",2024-10-09,7,Credit,0,502.8200000,ACTIVE,Approved by Finance,Agent Registration,Required,2025-06-07,2025-07-09,شارع,البحيرات,3634,24331,7362,JEDDAH,Zone,,
Makkah,West,مكة المكرمة,MAK002,AG00055,Abdullah Masoud,CS002333,تموينات الوسام,"550,118,689",,,Traditional Trade,Medium Grocery,,2,THU,21.39149,39.72248,"311,054,150,200,003","4,031,085,888","3,909,540,027",2023-11-07,2,Credit,0,500.0000000,ACTIVE,Approved by Finance,Agent Registration,Required,2025-04-08,2025-04-08,شارع الزايدي العام,الزايدي,٠,٠,٠,JEDDAH,Assignment,,
Makkah,West,مكة المكرمة,MAK002,AG00292,Rashid  Hussein,CS002334,مركز رضا فاضل للتسويق,"575,447,146",,,Traditional Trade,Medium Grocery,,2,THU,21.40070,39.74464,"311,281,994,900,003","4,031,227,527","3,903,560,552",2023-11-07,1,,0,0.0000000,In-Active,Approved by Finance,Agent Registration,Required,,,بجوار خط القطار في الزايدي,الزايدي,٠,٠,٠,JEDDAH,Zone,,
Makkah,West,مكة المكرمة,MAK002,AG00292,Rashid  Hussein,CS002350,تموينات غزلان الحمراء للمواد الغذائية,"566,534,293",,,Traditional Trade,Medium Grocery,,1,TUE,21.41760,39.77254,"310,647,474,300,003","4,031,090,102","3,909,526,968",2023-11-08,1,,0,0.0000000,In-Active,Approved by Finance,Agent Registration,Required,1979-11-20,1979-11-20,ممشي الحمراء,الحمراء,.,.,.,JEDDAH,Zone,,
Makkah,West,مكة المكرمة,MAK002,AG00292,Rashid  Hussein,CS002359,تموينات الصبحي للمواد الغذائية,"500,855,799",,,Traditional Trade,Medium Grocery,,1,SAT,21.44200,39.79098,"300,220,697,800,003","4,031,023,829","399,514,661",2023-11-08,3,,0,0.0000000,In-Active,Approved by Finance,Agent Registration,Required,,,.,الزاهر,.,.,.,JEDDAH,Zone,,
Makkah,West,مكة المكرمة,MAK002,AG00292,Rashid  Hussein,CS002406,اسواق ومخابز سلال للتسويق,"599,548,030",,,Traditional Trade,Medium Grocery,,2,WED,21.38860,39.88402,"311,369,585,100,003","4,031,245,413","42,085,430,684",2023-11-12,0,,0,0.0000000,In-Active,Approved by Finance,Agent Registration,Required,,,الامير مقرن بن عبدالعزيز ال سع,الشامية الجديد,000,000,000,JEDDAH,Zone,,
Makkah,West,مكة المكرمة,MAK002,AG00292,Rashid  Hussein,CS002410,أسواق ومخابز خيرات فجر,"509,301,836",,,Traditional Trade,Medium Grocery,,1,SAT,21.45157,39.76512,"305,001,301,900,003","4,031,288,768","44,711,626,202",2023-11-12,1,,0,0.0000000,In-Active,Approved by Finance,Agent Registration,Required,,,شارع الحمراء ٥٧,الفيحاء,٠,٠,٠,JEDDAH,Zone,,
Makkah,West,مكة المكرمة,MAK002,AG00292,Rashid  Hussein,CS002415,مؤسسه شلالات الريان التجاريه,"550,534,591",,,Traditional Trade,Large Grocery,,2,WED,21.39575,39.87657,"311,123,473,400,003","4,031,288,288","4,032,255,033",2023-11-12,1,,0,0.0000000,In-Active,Approved by Finance,Agent Registration,Required,,,شارع عام,الزايدي,000,000,000,JEDDAH,Zone,,
Makkah,West,مكة المكرمة,MAK002,AG00292,Rashid  Hussein,CS002432,تموينات زاوية المسافر للمواد الغذائية,"557,119,461",,,,,,1,TUE,21.41656,39.77174,"312,109,157,800,003","4,031,287,143","450,313,330,894",2024-09-15,21,Credit,28,1363.8400000,ACTIVE,Approved by Finance,Agent Registration,Required,2025-09-11,2024-10-25,-,الحمراء,0,24321,0,JEDDAH,Zone,,
Makkah,West,مكة المكرمة,MAK002,AG00292,Rashid  Hussein,CS002440,بقاله قوت,0,,,Traditional Trade,Small Grocery,,2,WED,21.39580,39.87653,"310,239,578,800,003","4,031,242,848","44,000,000,000,062",2023-11-14,1,,0,0.0000000,In-Active,Approved by Finance,Agent Registration,Required,1979-11-20,1979-11-20,الصحافه,الجامعة,0,0,0,JEDDAH,Zone,,
Makkah,West,مكة المكرمة,MAK002,AG00055,Abdullah Masoud,CS002443,سلة سلمان للمواد الغذائية,"557,615,882",,,Traditional Trade,Medium Grocery,,1,SAT,21.44076,39.79446,"310,433,421,800,003","4,031,231,929","41,032,610,988",2023-11-14,2,Credit,0,500.0000000,ACTIVE,Approved by Finance,Agent Registration,Required,2026-03-28,2026-03-28,سلمة بن شيب,الزاهر,٠,٠,٠,JEDDAH,Assignment,,
Makkah,West,مكة المكرمة,MAK002,AG00055,Abdullah Masoud,CS002444,مركز ومخبز المحمادي,"554,232,269",,,Traditional Trade,Medium Grocery,,1,SAT,21.44078,39.79394,"300,253,046,500,003","4,031,099,581","3,900,508,646",2023-11-14,5,Credit,0,500.0000000,ACTIVE,Approved by Finance,Agent Registration,Required,2025-03-01,2024-02-23,٠,الزاهر,٠,٠,',JEDDAH,Assignment,,
Makkah,West,مكة المكرمة,MAK002,AG00292,Rashid  Hussein,CS002472,كيان للتسويق,"549,358,557",,,Traditional Trade,Medium Grocery,,2,SUN,21.37122,39.79092,"311,377,676,800,003","4,030,555,540","450,413,608,242",2024-12-23,14,Credit,14,900.0000000,ACTIVE,Approved by Finance,Agent Registration,Required,2025-03-28,2025-10-03,شارع عبد الله بن عباس رضي الله عنه,الشوقية,0,23532,0,JEDDAH,Zone,,
Makkah,West,مكة المكرمة,MAK002,AG00292,Rashid  Hussein,CS002481,مركز ومخبز التميز للتسوق,"505,619,802",,,Traditional Trade,Medium Grocery,,1,MON,21.33490,39.69243,"310,305,174,800,003","4,031,222,437","7,005,828,939",2023-11-19,4,,0,0.0000000,In-Active,Approved by Finance,Agent Registration,Required,2024-12-16,2024-11-08,ً,ولي العهد,ً,ً,ً,JEDDAH,Zone,,
Makkah,West,مكة المكرمة,MAK002,AG00292,Rashid  Hussein,CS002489,تموينات ومخبز السعاده,"559,446,822",,,Traditional Trade,Small Grocery,,2,WED,21.39580,39.87653,"302,124,918,800,003","4,031,234,577","43,069,054,003",2023-11-19,1,,0,0.0000000,In-Active,Approved by Finance,Agent Registration,Required,2024-09-16,2018-09-11,عام,بطحاء قريش,0,0,0,JEDDAH,Zone,,
Makkah,West,مكة المكرمة,MAK002,AG00055,Abdullah Masoud,CS002510,متجر سله الابرار العزيزيه,"562,339,923",,,Traditional Trade,Small Grocery,,2,WED,21.39250,39.87489,"301,244,079,300,003","4,031,197,616","3,909,505,299",2023-11-21,2,Credit,0,500.0000000,ACTIVE,Approved by Finance,Agent Registration,Required,2024-05-12,2024-05-12,عبدالله بن حميد,العزيزية,0,0,0,JEDDAH,Assignment,,
Makkah,West,مكة المكرمة,MAK002,AG00292,Rashid  Hussein,CS002515,تموينات المستقبل,"501,482,946",,,Traditional Trade,Small Grocery,,1,WED,21.38214,39.77345,"311,313,596,800,003","4,031,266,417","7,029,205,809",2023-11-21,8,,0,0.0000000,In-Active,Approved by Finance,Agent Registration,Required,2026-05-05,2024-10-13,٠,الشوقية,٠,٠,٠,JEDDAH,Zone,,
Makkah,West,مكة المكرمة,MAK002,AG00292,Rashid  Hussein,CS002516,تموينات وتين للمواد الغذائية,"556,053,761",,,Traditional Trade,Small Grocery,,1,SUN,21.43735,39.78596,"310,954,122,500,003",0,"441,012,136,591",2023-11-22,0,,0,0.0000000,In-Active,Approved by Finance,Agent Registration,Required,,,0,النزهة,٠,٠,0,JEDDAH,Zone,,
Makkah,West,مكة المكرمة,MAK002,AG00292,Rashid  Hussein,CS002518,مركز ام القرى للمواد الغذائية,"542,548,224",,,Traditional Trade,Medium Grocery,,1,SUN,21.42755,39.77479,"310,766,208,100,003","4,031,207,733","3,909,531,003",2024-09-15,8,Credit,0,500.0000000,ACTIVE,Approved by Finance,Agent Registration,Required,2025-01-04,2026-01-02,امنه بنت وهاب,الحمراء,1,24412,1,JEDDAH,Zone,,
Makkah,West,مكة المكرمة,MAK002,AG00292,Rashid  Hussein,CS002520,تموينات العوالي,"580,429,267",,,Traditional Trade,Small Grocery,,2,TUE,21.35546,39.90989,"311,253,816,600,003","4,031,199,095","7,011,338,089",2023-11-22,4,,0,0.0000000,In-Active,Approved by Finance,Agent Registration,Required,2025-02-05,2024-09-15,ابراهيم الجفالي,العوالي,0,0,0,JEDDAH,Zone,,
Makkah,West,مكة المكرمة,MAK002,AG00292,Rashid  Hussein,CS002521,تموينات قمر للمواد الغذائية,"536,782,060",,,Traditional Trade,Small Grocery,,2,THU,21.42192,39.71099,"302,136,486,400,003","4,030,351,136","7,013,934,455",2023-11-22,1,,0,0.0000000,In-Active,Approved by Finance,Agent Registration,Required,2024-09-06,2025-05-15,شارع الزايدي العام,الزايدي,٠,٠,0,JEDDAH,Zone,,
Makkah,West,مكة المكرمة,MAK002,AG00292,Rashid  Hussein,CS002530,مؤسسة شلالات الريان التجارية للمياه والعصائر,"566,949,088",,,Horca,Restaurant,,2,THU,21.37713,39.70311,"311,123,473,400,003","4,031,288,288","450,413,719,897",2023-11-23,11,Credit,0,500.0000000,ACTIVE,Approved by Finance,Agent Registration,Required,2024-10-02,2024-12-16,المستودعات,الزايدي,٠,٠,4645,JEDDAH,Zone,,
Makkah,West,مكة المكرمة,MAK002,AG00292,Rashid  Hussein,CS002531,بقالة الوفاء,"547,938,121",,,Traditional Trade,Small Grocery,,1,TUE,21.41062,39.78995,"310,337,973,800,003","4,031,225,016","44,000,000,000,066",2023-11-25,1,,0,0.0000000,In-Active,Approved by Finance,Agent Registration,Required,1979-11-20,1979-11-20,٠,الرصيفة,٠,٠,٠,JEDDAH,Zone,,
Makkah,West,مكة المكرمة,MAK002,AG00292,Rashid  Hussein,CS002532,شركة مجمع امتياز المستهلك التجاري,"550,654,232",,,Traditional Trade,Medium Grocery,,2,THU,21.40219,39.70745,"311,359,424,400,003","4,031,214,178","3,909,535,804",2024-09-15,5,Credit,14,1500.0000000,ACTIVE,Approved by Finance,Agent Registration,Required,2028-03-11,2025-07-26,التخصصي,ام الجود,0,24357,0,JEDDAH,Zone,,
Makkah,West,مكة المكرمة,MAK002,AG00292,Rashid  Hussein,CS002534,بقالة محطة الجبل,"508,235,990",,,Traditional Trade,Small Grocery,,1,MON,21.32341,39.61964,"305,006,732,400,003",0,"440,210,511,195",2023-11-25,1,,0,0.0000000,In-Active,Approved by Finance,Agent Registration,Required,,,محطه سهل طريق الشعيبه,خارج حدود الاحياء,٠,٠,0,JEDDAH,Zone,,
Makkah,West,مكة المكرمة,MAK002,AG00292,Rashid  Hussein,CS002613,ارخص الاسعار للمواد الغذائية,"547,999,493",,,Traditional Trade,Large Grocery,,1,WED,21.37949,39.78822,"300,848,368,100,003","4,031,220,649","44,000,000,000,106",2023-12-05,7,,0,0.0000000,In-Active,Approved by Finance,Agent Registration,Required,1979-11-20,1979-11-20,الممشي,الشوقية,٠,٠,٠,JEDDAH,Zone,,
Makkah,West,مكة المكرمة,MAK002,AG00292,Rashid  Hussein,CS002627,بقالة ابو عبدالرحمن للمواد الغذائية,"90,806,292",,,Traditional Trade,Small Grocery,,1,WED,21.39040,39.79250,"300,842,575,100,003","4,310,993,945","43,109,939,450",2023-12-12,2,,0,0.0000000,In-Active,Approved by Finance,Agent Registration,Required,,,.,الشوقية,0590806292,24351,.,JEDDAH,Zone,,
Makkah,West,مكة المكرمة,MAK002,AG00292,Rashid  Hussein,CS002628,بقالة الليمونة,"595,253,683",,,Traditional Trade,Small Grocery,,1,SUN,21.43718,39.78714,"310,488,605,200,003","4,031,288,548","44,000,000,000,112",2023-12-12,1,,0,0.0000000,In-Active,Approved by Finance,Agent Registration,Required,1979-11-20,1979-11-20,٠,البحيرات,٠,٠,٠,JEDDAH,Zone,,
Makkah,West,مكة المكرمة,MAK002,AG00292,Rashid  Hussein,CS002629,تموينات سهيل للمواد الغذائية,"544,804,485",,,Traditional Trade,Medium Grocery,,2,SUN,21.37422,39.79422,"310,350,780,800,003","4,031,279,944","44,000,000,000,082",2023-12-12,5,,0,0.0000000,In-Active,Approved by Finance,Agent Registration,Required,2024-03-25,2023-07-18,.,الشوقية,0544804484,24351,2917,JEDDAH,Zone,,
Makkah,West,مكة المكرمة,MAK002,AG00292,Rashid  Hussein,CS002630,مركز شذا للمواد الغذائية,"594,659,855",,,Traditional Trade,Small Grocery,,1,WED,21.37979,39.79051,"311,089,229,400,003","4,031,257,114","44,000,000,000,075",2023-12-12,2,,0,0.0000000,In-Active,Approved by Finance,Agent Registration,Required,1979-11-20,1979-11-20,شارع ام المومنين,الشوقية,0594659857,24351,2907,JEDDAH,Zone,,
Makkah,West,مكة المكرمة,MAK002,AG00292,Rashid  Hussein,CS002631,تموينات الجزيرة الطيبة,"553,559,311",,,Traditional Trade,Medium Grocery,,2,SUN,21.36853,39.79539,"311,351,224,400,003","4,031,236,345","390,951,859",2023-12-13,5,,0,0.0000000,In-Active,Approved by Finance,Agent Registration,Required,2025-06-19,2025-01-03,شارع العام,الشوقية,0553559311,24234,.,JEDDAH,Zone,,
Makkah,West,مكة المكرمة,MAK002,AG00292,Rashid  Hussein,CS002632,مركز نور للتسوق,"559,596,599",,,Traditional Trade,Small Grocery,,1,WED,21.37865,39.79487,"311,042,336,400,003","4,031,198,111","4,031,198,111",2023-12-13,2,,0,0.0000000,In-Active,Approved by Finance,Agent Registration,Required,,,شارع العام,الشوقية,0559596594,24353,8762,JEDDAH,Zone,,
Makkah,West,مكة المكرمة,MAK002,AG00250,Mohamed Keshawi,CS002634,تموينات سنابل الربوة للمواد الغذائية,"503,377,864",,,Traditional Trade,Medium Grocery,,1,TUE,21.40107,39.77310,"310,957,225,800,003","4,031,251,072","43,026,397,435",2024-09-15,10,Credit,0,0.0000000,ACTIVE,Approved by Finance,Agent Registration,Required,2024-05-16,2025-08-12,حي الملك فهد,الشوقية,6456,24341,3809,JEDDAH,Assignment,,
Makkah,West,مكة المكرمة,MAK002,AG00292,Rashid  Hussein,CS002640,المالكي للمواد الغذائية,"572,221,460",,,Traditional Trade,Medium Grocery,,1,WED,21.39199,39.78908,"310,393,483,200,003","4,031,235,584","42,065,182,999",2023-12-14,4,,0,0.0000000,In-Active,Approved by Finance,Agent Registration,Required,,,شارع ابو الارقم,الشوقية,0572221460,24351,.,JEDDAH,Zone,,
Makkah,West,مكة المكرمة,MAK002,AG00292,Rashid  Hussein,CS002641,تموينات محمد احمد بن محمد للمواد الغذائية,"542,152,566",,,Traditional Trade,Medium Grocery,,1,WED,21.37621,39.79058,"310,266,382,800,003","4,031,219,622","44,081,184,055",2023-12-14,5,Credit,0,500.0000000,ACTIVE,Approved by Finance,Agent Registration,Required,2024-03-09,2024-03-09,شارع العام,الشوقية,0542152567,24353,.,JEDDAH,Zone,,
Makkah,West,مكة المكرمة,MAK002,AG00292,Rashid  Hussein,CS002645,تموينات ومخابز سنابل التلال,"533,760,609",,,Traditional Trade,Medium Grocery,,1,WED,21.38702,39.79446,"310,089,090,100,003","4,031,246,776","7,021,443,416",2023-12-14,1,,0,0.0000000,In-Active,Approved by Finance,Agent Registration,Required,2025-01-10,2024-02-16,شارع معاذ,الشوقية,0533760609,24351,لا يوجد,JEDDAH,Zone,,
Makkah,West,مكة المكرمة,MAK002,AG00292,Rashid  Hussein,CS002656,تموينات يافع,"560,892,231",,,Traditional Trade,Medium Grocery,,2,SUN,21.36067,39.78889,"311,919,374,400,003","4,031,074,987","3,909,547,718",2024-09-15,6,Credit,23,500.0000000,ACTIVE,Approved by Finance,Agent Registration,Required,2025-10-29,2025-07-06,شارع,المحمدية,0,24246,0,JEDDAH,Zone,,
Makkah,West,مكة المكرمة,MAK002,AG00055,Abdullah Masoud,CS002667,تموينات ركن التميز للمواد الغذائية,"573,304,899",,,Traditional Trade,Small Grocery,,1,MON,21.33404,39.68373,"311,439,934,200,003","3,550,147,613","450,212,987,445",2023-12-16,2,Credit,0,500.0000000,ACTIVE,Approved by Finance,Agent Registration,Required,2024-08-11,2024-08-11,العام,العمرة,0573304899,47915,.,JEDDAH,Assignment,,
Makkah,West,مكة المكرمة,MAK002,AG00292,Rashid  Hussein,CS002673,تموينات خضار وفواكه وتمور المملكة,"534,470,314",,,Traditional Trade,Small Grocery,,1,MON,21.33833,39.68304,"310,111,582,100,003","4,031,248,722","42,034,119,274",2023-12-17,2,,0,0.0000000,In-Active,Approved by Finance,Agent Registration,Required,,,العام,العمرة,0534470314,24354,.,JEDDAH,Zone,,
Makkah,West,مكة المكرمة,MAK002,AG00292,Rashid  Hussein,CS002675,مركز ومخبز ستين,"541,424,003",,,Traditional Trade,Small Grocery,,1,SUN,21.43310,39.78743,"311,111,111,111,113","855,588,880","855,584,885,588",2023-12-17,0,,0,0.0000000,In-Active,Approved by Finance,Agent Registration,Required,,,شارع الستين,النزهة,01776,46250,.,JEDDAH,Zone,,
Makkah,West,مكة المكرمة,MAK002,AG00292,Rashid  Hussein,CS002676,مركز ومخبز شادي,"595,258,365",,,Traditional Trade,Small Grocery,,1,SUN,21.43344,39.78757,"302,125,462,200,003","4,031,189,478","44,000,000,000,025",2023-12-17,2,,0,0.0000000,In-Active,Approved by Finance,Agent Registration,Required,2024-09-17,2024-12-19,الستين,النزهة,3557,532768,3442,JEDDAH,Zone,,
Makkah,West,مكة المكرمة,MAK002,AG00250,Mohamed Keshawi,CS002678,تموينات سمر الندى,"546,195,512",,,Traditional Trade,Medium Grocery,,1,MON,21.31197,39.70602,"310,913,690,100,003","4,031,249,257","440,711,605,436",2024-09-15,3,Credit,0,0.0000000,ACTIVE,Approved by Finance,Agent Registration,Required,2027-02-07,2025-03-15,الامير مقرن بن عبد العزيز ال سعود,البحيرات,2339,24574,7975,JEDDAH,Assignment,,
Makkah,West,مكة المكرمة,MAK002,AG00292,Rashid  Hussein,CS002682,مؤسسة كون الغذاء التجارية,"569,226,060",,,Traditional Trade,Large Grocery,,2,THU,21.39156,39.72700,"302,158,311,500,003","4,031,290,207","1,234,567,890",2023-12-18,3,,0,0.0000000,In-Active,Approved by Finance,Agent Registration,Required,,,شارع الزايدي العام,العمرة,6442,4664,0000,JEDDAH,Zone,,
Makkah,West,مكة المكرمة,MAK002,AG00055,Abdullah Masoud,CS002683,مؤسسة يا هلا التجارية,"566,542,465",,,Horca,Restaurant,,2,SUN,21.37399,39.80555,"300,295,222,200,003","4,031,018,777","3,909,556,835",2023-12-18,2,Credit,0,500.0000000,ACTIVE,Approved by Finance,Agent Registration,Required,2586-01-01,2585-11-30,ابراهيم الخليل,الكعكية,0566542465,24352,6785,JEDDAH,Assignment,,
Makkah,West,مكة المكرمة,MAK002,AG00292,Rashid  Hussein,CS002684,مركز العصيمي للتسويق,"553,575,313",,,Traditional Trade,Small Grocery,,1,WED,21.38513,39.78744,"311,180,251,400,003","4,031,260,984","3,909,517,188",2023-12-18,11,Credit,23,739.4400000,ACTIVE,Approved by Finance,Agent Registration,Required,2025-01-25,2024-11-05,العام,الشوقية,2461,24351,7434,JEDDAH,Zone,,
Makkah,West,مكة المكرمة,MAK002,AG00292,Rashid  Hussein,CS002686,سوبر ستور للتخفيضات,"561,449,088",,,Traditional Trade,Large Grocery,,2,SUN,21.37584,39.79669,"310,576,889,500,003","7,017,236,475","4,030,381,568",2023-12-18,2,,0,0.0000000,In-Active,Approved by Finance,Agent Registration,Required,,,عبدالقادر كوشك,الشوقية,056144908,24353,5639,JEDDAH,Zone,,
Makkah,West,مكة المكرمة,MAK002,AG00292,Rashid  Hussein,CS002689,تموينات ومخبز السعادة,"55,944,682",,,Traditional Trade,Medium Grocery,,2,MON,21.36858,39.82370,"302,124,918,800,003","4,031,234,575","43,069,054,000",2023-12-19,5,,0,0.0000000,In-Active,Approved by Finance,Agent Registration,Required,,,العام,الشوقية,0569369212,24352,.,JEDDAH,Zone,,
Makkah,West,مكة المكرمة,MAK002,AG00055,Abdullah Masoud,CS002694,تموينات خيرات المنزل للموالد الغذائية,"541,853,038",,,Traditional Trade,Medium Grocery,,2,MON,21.36304,39.82186,"310,412,991,700,003","4,031,286,201","450,313,346,983",2023-12-19,6,Credit,0,500.0000000,ACTIVE,Approved by Finance,Agent Registration,Required,2024-09-16,2024-09-16,العام,بطحاء قريش,0541853038,24352,.,JEDDAH,Assignment,,
Makkah,West,مكة المكرمة,MAK002,AG00292,Rashid  Hussein,CS002699,تموينات خيرات الصفوة,"572,168,388",,,Traditional Trade,Small Grocery,,2,MON,21.35429,39.82763,"310,472,524,800,003","4,031,233,977","7,016,412,345",2023-12-19,4,,0,0.0000000,In-Active,Approved by Finance,Agent Registration,Required,2021-11-26,2020-12-17,دايري رابع,بطحاء قريش,0572168383,24352,.,JEDDAH,Zone,,
Makkah,West,مكة المكرمة,MAK002,AG00292,Rashid  Hussein,CS002700,عاصفة الهرم,"530,703,001",,,Traditional Trade,Large Grocery,,1,TUE,21.40101,39.78118,"311,259,441,800,003","4,031,222,519","41,052,686,050",2023-12-19,1,,0,0.0000000,In-Active,Approved by Finance,Agent Registration,Required,,,اسكان,الشوقية,0530703001,24351,6529,JEDDAH,Zone,,
Makkah,West,مكة المكرمة,MAK002,AG00250,Mohamed Keshawi,CS002702,بقالة عزام احمد بن عبدالله غروي للمواد الغذائية,"510,288,439",,,Traditional Trade,Medium Grocery,,1,THU,21.36873,39.83745,"310,407,452,800,003","4,031,290,497","3,909,517,520",2024-09-15,7,Credit,30,785.0400000,ACTIVE,Approved by Finance,Agent Registration,Required,2024-11-08,2025-03-17,شارع,بطحاء قريش,0,24352,0,JEDDAH,Assignment,,
Makkah,West,مكة المكرمة,MAK002,AG00292,Rashid  Hussein,CS002703,مركز ايلاف للتسويق,"551,125,200",,,Traditional Trade,Medium Grocery,,1,THU,21.36844,39.83663,"310,290,427,100,003","4,031,235,858","7,016,794,906",2023-12-20,2,,0,0.0000000,In-Active,Approved by Finance,Agent Registration,Required,2024-12-26,2021-02-18,العام,بطحاء قريش,0551125205,24416,.,JEDDAH,Zone,,
Makkah,West,مكة المكرمة,MAK002,AG00292,Rashid  Hussein,CS002704,بقالة عائشة,"567,729,805",,,Traditional Trade,Small Grocery,,1,SUN,21.43714,39.78730,"311,111,111,111,113","1,234,567,888",23,2023-12-20,1,,0,0.0000000,In-Active,Approved by Finance,Agent Registration,Required,,,النزهة,النزهة,8436,1343,00000,JEDDAH,Zone,,
Makkah,West,مكة المكرمة,MAK002,AG00292,Rashid  Hussein,CS002705,تموينات ديما للمواد الغذائية,"551,571,942",,,Traditional Trade,Small Grocery,,1,SUN,21.42520,39.78574,"311,111,111,111,113","7,037,198,418","450,514,067,037",2023-12-20,0,,0,0.0000000,In-Active,Approved by Finance,Agent Registration,Required,,,الستين,الستين,9656,275464,2345,JEDDAH,Zone,,
Makkah,West,مكة المكرمة,MAK002,AG00292,Rashid  Hussein,CS002706,تموينات ومخبز المهاجرين,"549,548,434",,,Traditional Trade,Small Grocery,,1,WED,21.39042,39.79274,"302,132,427,300,003","4,031,215,332","42,113,666,270",2023-12-21,2,,0,0.0000000,In-Active,Approved by Finance,Agent Registration,Required,,,العام,الشوقية,0549548434,24351,.,JEDDAH,Zone,,
Makkah,West,مكة المكرمة,MAK002,AG00292,Rashid  Hussein,CS002707,تموينات ريف الفرسان للمواد الغذائية,"595,723,741",,,Traditional Trade,Small Grocery,,1,WED,21.38587,39.78998,"300,837,688,900,003","7,013,415,901","7,013,415,901",2023-12-21,5,,0,0.0000000,In-Active,Approved by Finance,Agent Registration,Required,2025-02-25,2025-07-01,العام,الشوقية,0595723741,24351,.,JEDDAH,Zone,,
Makkah,West,مكة المكرمة,MAK002,AG00292,Rashid  Hussein,CS002723,مركز السعادة,"591,225,189",,,Traditional Trade,Small Grocery,,2,MON,21.35887,39.82302,"311,408,237,800,003","4,031,206,488","7,009,685,228",2023-12-22,2,,0,0.0000000,In-Active,Approved by Finance,Agent Registration,Required,2025-05-12,2023-12-26,العام,بطحاء قريش,0591225189,24241,.,JEDDAH,Zone,,
Makkah,West,مكة المكرمة,MAK002,AG00292,Rashid  Hussein,CS002724,تموينات زاد التميز,"505,699,502",,,Traditional Trade,Small Grocery,,2,WED,21.39836,39.87566,"300,552,271,700,003","4,031,260,720","7,027,684,831",2023-12-22,1,,0,0.0000000,In-Active,Approved by Finance,Agent Registration,Required,2025-01-12,2024-07-02,شهيد الدين,الشرائع,0,0,0,JEDDAH,Zone,,
Makkah,West,جدة,MAK002,AG00195,Abdulkareem Saqer,CS002726,ثلاجة الزاهر,"533,722,558",,,Traditional Trade,Large Grocery,,2,SUN,21.36808,39.80565,"311,731,295,500,003","4,031,061,950","3,909,540,404",2023-12-23,7,Credit,23,12600.0000000,ACTIVE,Approved by Finance,Agent Registration,Required,2027-05-19,2026-09-30,العام,الكعكية,7180,23455,4750,JEDDAH,Assignment,,
Makkah,West,مكة المكرمة,MAK002,AG00292,Rashid  Hussein,CS002729,تموينات وسن,"5,083,354",,,Traditional Trade,Medium Grocery,,1,MON,21.32406,39.68265,"311,225,195,100,003","4,031,262,911","7,028,280,092",2023-12-24,3,,0,0.0000000,In-Active,Approved by Finance,Agent Registration,Required,2025-02-12,2025-02-27,محطة,العمرة,0508353354,24353,5268,JEDDAH,Zone,,
Makkah,West,مكة المكرمة,MAK002,AG00292,Rashid  Hussein,CS002732,ماركت التوفير,"530,462,761",,,Traditional Trade,Medium Grocery,,1,MON,21.30143,39.68162,"310,891,360,600,003","4,030,410,619","440,811,827,943",2024-09-15,12,Credit,17,2382.9600000,ACTIVE,Approved by Finance,Agent Registration,Required,2025-02-01,2025-02-24,شارع,الشامية الجديد,0,23762,0,JEDDAH,Zone,,
Makkah,West,مكة المكرمة,MAK002,AG00292,Rashid  Hussein,CS002733,تموينات الزمرد للمواد الغذائية,"549,461,666",,,Traditional Trade,Medium Grocery,,1,TUE,21.40339,39.79580,"300,261,766,500,003","4,031,017,999","7,011,472,532",2023-12-25,2,,0,0.0000000,In-Active,Approved by Finance,Agent Registration,Required,,,العام,الخالدية,0549461660,24232,.,JEDDAH,Zone,,
Makkah,West,مكة المكرمة,MAK002,AG00292,Rashid  Hussein,CS002736,مركز الصفوة,"568,346,897",,,Traditional Trade,Small Grocery,,1,THU,21.38336,39.82850,"310,992,227,600,003","4,031,252,634","43,106,030,223",2023-12-25,1,,0,0.0000000,In-Active,Approved by Finance,Agent Registration,Required,,,العام,بطحاء قريش,0568346897,24352,.,JEDDAH,Zone,,
Makkah,West,مكة المكرمة,MAK002,AG00055,Abdullah Masoud,CS002744,تموينات قطار الحرمين للمواد الغذائية,"567,814,634",,,Traditional Trade,Medium Grocery,,1,TUE,21.41336,39.78506,"310,310,489,900,003","4,031,283,900","450,413,663,622",2024-09-15,5,Credit,0,500.0000000,ACTIVE,Approved by Finance,Agent Registration,Required,2025-07-11,2025-01-15,شارع الفداء,الرصيفة,0,24341,0,JEDDAH,Assignment,,
Makkah,West,بحرة,MAK002,AG00195,Abdulkareem Saqer,CS002745,مستودع وثلاجة البشري,"501,439,991",,,Horca,Restaurant,,2,SAT,21.40895,39.49115,"300,464,038,900,003","4,039,023,938","3,909,601,007",2023-12-26,1,,0,500.0000000,ACTIVE,Approved by Finance,Agent Registration,Required,2026-07-18,2024-12-09,طريق مكة القديم,بحرة,9379,22842,3333,JEDDAH,Assignment,,
Makkah,West,مكة المكرمة,MAK002,AG00292,Rashid  Hussein,CS002747,دكان خليفة,"541,646,577",,,Traditional Trade,Medium Grocery,,2,SUN,21.37247,39.78850,"300,252,125,200,003","4,031,071,410","44,000,000,000,060",2023-12-27,4,Credit,0,0.0000000,In-Active,Approved by Finance,Agent Registration,Required,2024-12-17,2024-10-20,العام,الشوقية,0541646571,24351,.,JEDDAH,Zone,,
Makkah,West,مكة المكرمة,MAK002,AG00292,Rashid  Hussein,CS002748,تموينات باسلامه,"571,755,388",,,Traditional Trade,Medium Grocery,,2,SUN,21.37099,39.79751,"311,130,181,300,003","4,031,264,292","44,000,000,000,019",2023-12-27,2,,0,0.0000000,In-Active,Approved by Finance,Agent Registration,Required,1979-11-20,1979-11-20,ممشة الشوقية,الشوقية,0571755387,24351,.,JEDDAH,Zone,,
Makkah,West,الطائف,MAK002,AG00292,Rashid  Hussein,CS002750,مركز حماده للمواد الغذائيه المخفضه ٢,"564,599,118",,,Traditional Trade,Medium Grocery,,1,TUE,21.40357,39.79562,"311,072,855,900,003","4,031,256,288","42,095,578,959",2024-09-15,1,Credit,0,500.0000000,ACTIVE,Approved by Finance,Agent Registration,Required,2026-09-25,2026-03-26,شارع,الخالدية,9212,26513,2479,JEDDAH,Zone,,
Makkah,West,مكة المكرمة,MAK002,AG00055,Abdullah Masoud,CS002771,مركز طاحون الريحان,"566,779,939",,,Traditional Trade,Small Grocery,,2,SUN,21.37098,39.80527,"311,542,267,900,003","4,031,283,653","450,112,804,700",2023-12-30,2,Credit,0,500.0000000,ACTIVE,Approved by Finance,Agent Registration,Required,2024-07-19,2024-07-19,حلقة,الكعكية,0566779939,24222,.,JEDDAH,Assignment,,
Makkah,West,مكة المكرمة,MAK002,AG00292,Rashid  Hussein,CS002775,بقالة باسم الندوي,"559,227,200",,,Traditional Trade,Small Grocery,,1,TUE,21.40144,39.81899,"311,111,111,111,113","4,031,194,932","441,112,389,296",2023-12-30,1,,0,0.0000000,In-Active,Approved by Finance,Agent Registration,Required,,,العام,المسفلة,0559227200,24233,.,JEDDAH,Zone,,
Makkah,West,مكة المكرمة,MAK002,AG00292,Rashid  Hussein,CS002779,تموينات لحن,"575,950,217",,,Traditional Trade,Medium Grocery,,1,THU,21.38302,39.81430,"311,472,595,900,003","4,031,273,936","440,411,012,484",2023-12-31,1,,0,0.0000000,In-Active,Approved by Finance,Agent Registration,Required,,,زهرة كدي,الكعكية,0575950217,24352,.,JEDDAH,Zone,,
Makkah,West,مكة المكرمة,MAK002,AG00292,Rashid  Hussein,CS002780,مؤسسه العميري التجاريه,0,,,Traditional Trade,Medium Grocery,,2,WED,21.39580,39.87653,"310,785,912,400,003","4,031,244,166","431,110,128,419",2023-12-31,0,,0,0.0000000,In-Active,Approved by Finance,Agent Registration,Required,,,علي بن الحكم السلمي,علي بن الحكم السلمي,0,0,0,JEDDAH,Zone,,
Makkah,West,مكة المكرمة,MAK002,AG00292,Rashid  Hussein,CS002809,تموينات السهم الذهبي للمواد الغذائية,"503,260,824",,,Traditional Trade,Small Grocery,,2,MON,21.28884,39.82217,"310,783,975,600,003","4,031,256,077","3,909,548,766",2024-01-02,0,,0,0.0000000,In-Active,Approved by Finance,Agent Registration,Required,,,العام,العكيشية,0503260824,24263,.,JEDDAH,Zone,,
Makkah,West,مكة المكرمة,MAK002,AG00292,Rashid  Hussein,CS002846,شركة سالة الكنانة للمواد الغذائية,"547,006,038",,,Traditional Trade,Large Grocery,,2,THU,21.39046,39.72236,"311,131,344,500,003","4,031,223,300","450,513,932,221",2024-01-04,1,,0,0.0000000,In-Active,Approved by Finance,Agent Registration,Required,,,العام,الزايدي,0547006038,24352,.,JEDDAH,Zone,,
Makkah,West,مكة المكرمة,MAK002,AG00292,Rashid  Hussein,CS002892,تموينات الضيافة,"547,302,641",,,Traditional Trade,Medium Grocery,,1,TUE,21.40825,39.77852,"310,417,432,500,003","4,031,238,483","3,909,590,220",2024-09-15,3,Credit,30,511.5900000,ACTIVE,Approved by Finance,Agent Registration,Required,2025-05-10,2024-09-28,شارع,الملك فهد,4894,24341,7300,JEDDAH,Zone,,
Makkah,West,مكة المكرمة,MAK002,AG00292,Rashid  Hussein,CS002940,متاجرومخابزالاثير,"568,028,790",,,Traditional Trade,Large Grocery,,1,WED,21.37888,39.79274,"311,002,974,100,003","4,031,253,141","441,212,503,267",2024-01-09,0,,0,0.0000000,In-Active,Approved by Finance,Agent Registration,Required,,,الممشي الجديد,الشوقية,1,1,1,JEDDAH,Zone,,
Makkah,West,مكة المكرمة,MAK002,AG00292,Rashid  Hussein,CS002954,تموينات لاتين,"570,833,497",,,Traditional Trade,Small Grocery,,1,WED,21.38406,39.78616,"311,146,161,700,003","4,031,291,624","450,614,280,745",2024-01-10,1,,0,0.0000000,In-Active,Approved by Finance,Agent Registration,Required,,,ابورجاء العطاردي,الشوقية,1,24341,1,JEDDAH,Zone,,
Makkah,West,مكة المكرمة,MAK002,AG00292,Rashid  Hussein,CS002963,البقاله,"570,624,143",,,Traditional Trade,Small Grocery,,2,SUN,21.37903,39.80433,"300,251,517,600,003","4,031,081,165","40,011,682,994",2024-01-10,0,,0,0.0000000,In-Active,Approved by Finance,Agent Registration,Required,,,شارع ذياد,الشوقية,0,0,1,JEDDAH,Zone,,
Makkah,West,مكة المكرمة,MAK002,AG00292,Rashid  Hussein,CS002987,بقالة عائشة,"592,318,929",,,Traditional Trade,Small Grocery,,1,SUN,21.43075,39.78131,"310,971,797,500,003","4,031,269,573","43,016,069,189",2024-01-13,1,,0,0.0000000,In-Active,Approved by Finance,Agent Registration,Required,,,0,النزهة,0,0,0,JEDDAH,Zone,,
Makkah,West,مكة المكرمة,MAK002,AG00292,Rashid  Hussein,CS002988,تموينات النخيل,"569,006,388",,,Traditional Trade,Small Grocery,,1,SUN,21.42630,39.78352,"311,111,111,111,113",8,"7,896,543,210",2024-01-13,0,,0,0.0000000,In-Active,Approved by Finance,Agent Registration,Required,,,0,النزهة,00,00,0,JEDDAH,Zone,,
Makkah,West,مكة المكرمة,MAK002,AG00292,Rashid  Hussein,CS002990,مركز ومخبز الجود,"504,504,115",,,Traditional Trade,Medium Grocery,,1,SUN,21.42625,39.78499,"311,339,045,800,003","4,031,097,148","3,909,487,660",2024-09-15,4,Credit,0,500.0000000,ACTIVE,Approved by Finance,Agent Registration,Required,2025-05-29,2025-10-05,شارع دار الحديث,النزهة,0,24225,0,JEDDAH,Zone,,
Makkah,West,مكة المكرمة,MAK002,AG00292,Rashid  Hussein,CS002991,بقالة البركة,"555,863,785",,,Traditional Trade,Small Grocery,,1,SUN,21.43137,39.78675,"311,111,111,111,113","8,655,555,555","55,587,000,009",2024-01-13,0,,0,0.0000000,In-Active,Approved by Finance,Agent Registration,Required,,,0,النزهة,00,00,0,JEDDAH,Zone,,
Makkah,West,مكة المكرمة,MAK002,AG00292,Rashid  Hussein,CS002992,تموينات الليمونة ٢,"553,147,179",,,Traditional Trade,Small Grocery,,1,SUN,21.43688,39.78568,"311,111,111,111,113",3,"44,000,000,000,133",2024-01-13,1,,0,0.0000000,In-Active,Approved by Finance,Agent Registration,Required,1979-11-20,1979-11-20,0,النزهة,0,0,0,JEDDAH,Zone,,
Makkah,West,مكة المكرمة,MAK002,AG00292,Rashid  Hussein,CS002993,تموينات باب النزهة,90,,,Traditional Trade,Small Grocery,,1,SUN,21.43922,39.79435,"310,957,358,300,003","7,028,669,351","450,413,754,975",2024-01-13,0,,0,0.0000000,In-Active,Approved by Finance,Agent Registration,Required,,,0,الضيافة,0,0,0,JEDDAH,Zone,,
Makkah,West,جدة,MAK002,AG00250,Mohamed Keshawi,CS002996,بقالة زادي الريان للمواد الغذائية,"534,927,361",,,Traditional Trade,Medium Grocery,,1,SUN,21.43578,39.80531,"311,515,162,500,003","4,030,403,563","440,310,719,888",2024-09-15,2,Credit,30,793.8700000,ACTIVE,Approved by Finance,Agent Registration,Required,2024-11-20,4935-05-20,شارع,الضيافة,7136,23824,5256,JEDDAH,Assignment,,
Makkah,West,مكة المكرمة,MAK002,AG00292,Rashid  Hussein,CS003001,تموينات الخير الغازي للمواد الغذائية,"537,427,811",,,Traditional Trade,Medium Grocery,,2,SUN,21.37130,39.79264,"311,111,111,111,113","4,031,268,067","441,112,410,308",2024-09-15,4,Credit,0,500.0000000,ACTIVE,Approved by Finance,Agent Registration,Required,2025-06-26,2025-05-18,المحمدية,المحمدية,4432,24222,8234,JEDDAH,Zone,,
Makkah,West,مكة المكرمة,MAK002,AG00292,Rashid  Hussein,CS003016,نجمه العاصمه,"506,547,340",0583067956,,Traditional Trade,Medium Grocery,,1,MON,21.32168,39.68260,"300,820,861,300,003","4,031,032,746","3,909,540,229",2024-09-15,7,Credit,10,1000.0000000,ACTIVE,Approved by Finance,Agent Registration,Required,2024-10-13,2025-05-04,الامير بدر بن سلطان بن عبدالعزيز,الشامية الجديد,3889,24352,8495,JEDDAH,Zone,,
Makkah,West,مكة المكرمة,MAK002,AG00292,Rashid  Hussein,CS003057,ديمه,"551,438,937",,,Horca,Restaurant,,2,SUN,21.36757,39.80534,"311,231,617,500,003","4,030,233,525","3,112,316,175",2024-01-18,1,,0,0.0000000,In-Active,Approved by Finance,Agent Registration,Required,,,سوق الكعكيه,الكعكية,0,0,0,JEDDAH,Zone,,
Makkah,West,مكة المكرمة,MAK002,AG00055,Abdullah Masoud,CS003070,تموينات غذاءالواحةالاصيل التجاريه,"567,462,114",,,Traditional Trade,Large Grocery,,1,WED,21.37681,39.79417,"311,492,115,200,003","4,030,125,269","450,413,723,262",2024-01-21,3,Credit,0,500.0000000,ACTIVE,Approved by Finance,Agent Registration,Required,2024-10-26,2024-10-26,الشارع العام,الشوقية,0,0,1,JEDDAH,Assignment,,
Makkah,West,مكة المكرمة,MAK002,AG00195,Abdulkareem Saqer,CS003122,حياة المستهلك,"508,736,097",,,Horca,Restaurant,,2,SUN,21.36843,39.80642,"311,389,986,900,003","4,031,291,677","450,514,073,028",2024-01-25,11,Credit,15,32208.0000000,ACTIVE,Approved by Finance,Agent Registration,Required,2024-11-16,2024-11-30,الكعكيه,الكعكية,4029,24351,6604,JEDDAH,Assignment,,
Makkah,West,جدة,MAK002,AG00275,Legal  Case,CS003133,نخبة الغذاء,"548,656,490",,,Traditional Trade,Large Grocery,,2,WED,21.39580,39.87653,"311,440,361,300,003","4,030,436,507","440,611,230,021",2024-01-30,1,,0,0.0000000,In-Active,Approved by Finance,Agent Registration,Required,2025-08-20,2025-01-03,الصفا ام القري,المحجر,0,0,0,JEDDAH,Assignment,,
Makkah,West,مكة المكرمة,MAK002,AG00292,Rashid  Hussein,CS003151,بقالةالخيرات,"583,071,840",,,Traditional Trade,Medium Grocery,,1,MON,21.33271,39.67396,"300,694,699,700,003","7,023,535,615","4,031,250,466",2024-02-05,0,,0,0.0000000,In-Active,Approved by Finance,Agent Registration,Required,,,ولي العهدرقم واحد,ولي العهد,0,0,0,JEDDAH,Zone,,
Makkah,West,مكة المكرمة,MAK002,AG00292,Rashid  Hussein,CS003168,تموينات ممشى الخير للتجارة,"578,263,298",,,Traditional Trade,Medium Grocery,,2,SUN,21.36378,39.79137,"311,655,517,900,003","4,031,281,612","441,012,199,041",2024-09-15,9,Credit,0,500.0000000,ACTIVE,Approved by Finance,Agent Registration,Required,2025-05-15,2025-04-26,شارع معالي ابراهيم,المحمدية,2744,24351,7781,JEDDAH,Zone,,
Makkah,West,مكة المكرمة,MAK002,AG00055,Abdullah Masoud,CS003169,ثلاجة الذهبية التجارية,"550,560,012",,,Horca,Restaurant,,2,SUN,21.36768,39.80406,"311,238,370,600,003","4,031,075,062","3,909,519,437",2024-02-10,5,Credit,0,500.0000000,ACTIVE,Approved by Finance,Agent Registration,Required,2026-02-14,2024-10-31,شارع عام,الشوقية,0,0,1,JEDDAH,Assignment,,
Makkah,West,مكة المكرمة,MAK002,AG00292,Rashid  Hussein,CS003170,التاج الذهبية,"565,088,719",,,Traditional Trade,Large Grocery,,2,THU,21.40471,39.70318,"310,838,063,600,003","4,031,235,963","44,000,000,000,136",2024-02-10,0,,0,0.0000000,In-Active,Approved by Finance,Agent Registration,Required,1979-11-20,1979-11-20,0,الشرائع,0,0,0,JEDDAH,Zone,,
Makkah,West,مكة المكرمة,MAK002,AG00292,Rashid  Hussein,CS003182,الذهبية للمواد الغذائية,"567,729,804",,,Traditional Trade,Large Grocery,,1,SUN,21.43742,39.78674,"310,838,063,600,003","4,031,277,663",3,2024-02-13,0,,0,0.0000000,In-Active,Missing Documents,Agent Registration,Required,,,شارع الزايدي العام,,00,0,٠,JEDDAH,Zone,,
Makkah,West,بحرة,MAK002,AG00195,Abdulkareem Saqer,CS003186,ثلاجةومستودع بحرة للمواد الغذائية,"580,192,982",,,Traditional Trade,Medium Grocery,,2,SAT,21.40840,39.48927,"300,648,969,100,003","4,031,213,303","3,909,581,585",2024-02-14,1,,0,500.0000000,ACTIVE,Approved by Finance,Agent Registration,Required,2025-01-19,2025-08-30,طريق مكة القديم,بحرة,6886,22843,4742,JEDDAH,Assignment,,
Makkah,West,مكة المكرمة,MAK002,AG00195,Abdulkareem Saqer,CS003291,شركة الغداء الحديث لتجارة,"556,844,303",,,Traditional Trade,Medium Grocery,,2,THU,21.37827,39.71053,"311,123,858,200,003","4,030,267,979","450,614,299,123",2024-04-17,16,Credit,25,35453.0000000,ACTIVE,Approved by Finance,Agent Registration,Required,2025-09-19,2025-12-22,الزايدي,الزايدي,0493,04937,1826374,JEDDAH,Assignment,,
Makkah,West,مكة المكرمة,MAK002,AG00292,Rashid  Hussein,CS003303,مركز عبدالعزيز حبيب الله نياز للتجارة,"508,123,451",0532239801,0508123451,Traditional Trade,Medium Grocery,,2,SUN,21.37084,39.78973,"302,054,995,700,003","4,031,100,713","450,714,502,517",2024-04-24,6,Credit,0,500.0000000,ACTIVE,Approved by Finance,Agent Registration,Required,2025-05-29,2025-01-07,شارع عبدالله بن العباس رضى الله عنه,ولي العهد,0,24353,4728,JEDDAH,Zone,,
Makkah,West,مكة المكرمة,MAK002,AG00292,Rashid  Hussein,CS003312,مؤسسة علاء محمد الامين الشنقيطي,"506,999,797",,,Horca,Restaurant,,2,THU,21.38149,39.71302,"300,306,735,700,003","4,031,249,046","42,125,983,105",2024-04-29,0,Credit,0,0.0000000,In-Active,Approved by Finance,Agent Registration,Required,,,شارع حصين الانصاري السالمي رضي الله عنه,البساتين,0,24331,3932,JEDDAH,Zone,,
Makkah,West,مكة المكرمة,MAK002,AG00195,Abdulkareem Saqer,CS003523,الشركة الحرفين الذهبية لتجارة الاغذية,"540,591,823",,,Traditional Trade,Medium Grocery,,2,SUN,21.36957,39.80485,"311,996,908,900,003","4,031,294,145","440,811,660,029",2024-11-06,8,Credit,27,32240.0000000,ACTIVE,Approved by Finance,Agent Registration,Required,2028-11-12,2026-01-21,شارع,الكعكية,0,24352,0,Corporate Business,Assignment,,
Makkah,West,مكة المكرمة,MAK002,AG00292,Rashid  Hussein,CS003525,شركة الفتح الحديث التجارية,"506,556,107",0562174714,,Horca,Restaurant,,2,SUN,21.37354,39.80577,"311,070,072,200,003","4,031,206,755","450,714,583,147",2024-07-28,0,Credit,0,0.0000000,In-Active,Approved by Finance,Agent Registration,Required,,,17 الكعكية,الملك فهد,7544,24346,4217,JEDDAH,Zone,,
Makkah,West,بحرة,MAK002,AG00292,Rashid  Hussein,CS003705,مركز المعبدي للتسويق و المواد الغذائية,"532,308,586",,,Traditional Trade,Medium Grocery,,2,SAT,21.44007,39.52536,"311,188,714,200,003","4,031,092,880","3,909,567,600",2024-09-15,4,Credit,0,500.0000000,ACTIVE,Approved by Finance,Potential,Required,2025-07-14,2027-12-20,شارع عام,العمرة,4013,22847,9151,JEDDAH,Zone,,
Makkah,West,بحرة,MAK002,AG00292,Rashid  Hussein,CS003706,مؤسسة جون الجوهرة للمنتجات الغذائية,"554,212,336",,,Traditional Trade,Medium Grocery,,2,SAT,21.41925,39.49638,"311,042,365,300,003","4,030,541,128","450,714,522,311",2024-09-15,5,Credit,30,500.0000000,ACTIVE,Approved by Finance,Potential,Required,2025-01-14,2025-01-26,شارع,العمرة,2740,22847,6958,JEDDAH,Zone,,
Makkah,West,,MAK002,AG00292,Rashid  Hussein,CS003707,مؤسسة خليج الامتياز لتجارة الجملة والتجزئه,"536,640,625",,,,,,2,SAT,21.41989,39.49614,"300,719,298,400,003","7,014,926,377",,2024-09-15,0,,0,500.0000000,ACTIVE,Missing Documents,Potential,Required,,,,,,,,JEDDAH,Zone,,
Makkah,West,,MAK002,AG00292,Rashid  Hussein,CS003708,تموينات مركز بحرة,,,,,,,2,SAT,21.40869,39.48860,"311,677,303,400,003","4,039,100,598",,2024-09-15,0,,0,500.0000000,ACTIVE,Missing Documents,Potential,Required,,,,,,,,JEDDAH,Zone,,
Makkah,West,,MAK002,AG00292,Rashid  Hussein,CS003863,تموينات أبو تركى,,,,,,,2,THU,21.39645,39.70185,"311,654,852,900,003","7,034,288,022",,2024-09-15,0,,0,500.0000000,ACTIVE,Missing Documents,Potential,Required,,,,,,,,JEDDAH,Zone,,
Makkah,West,مكة المكرمة,MAK002,AG00292,Rashid  Hussein,CS003864,أسواق هوازن,"548,410,087",,,Traditional Trade,Medium Grocery,,2,THU,21.41020,39.70503,"300,535,397,300,003","4,031,212,262","43,069,063,563",2024-09-15,1,Credit,0,500.0000000,ACTIVE,Approved by Finance,Potential,Required,2027-10-25,2025-01-19,شارع,ام الجود,0,21458,0,JEDDAH,Zone,,
Makkah,West,مكة المكرمة,MAK002,AG00250,Mohamed Keshawi,CS003865,تموينات الرائد المتميزة,"569,994,906",,,Traditional Trade,Medium Grocery,,2,THU,21.40689,39.70374,"310,212,295,400,003","4,031,214,595","3,909,536,106",2024-09-15,6,Credit,30,890.3900000,ACTIVE,Approved by Finance,Potential,NOT Required,2025-12-01,2025-01-30,الامير محمد بن نايف,ام الجود,3300,24323,6949,JEDDAH,Assignment,,
Makkah,West,,MAK002,AG00292,Rashid  Hussein,CS003866,اسواق الوسام 1,,,,,,,2,THU,21.39155,39.72221,"311,054,150,200,003","7,014,919,265",,2024-09-15,0,,0,500.0000000,ACTIVE,Missing Documents,Potential,Required,,,,,,,,JEDDAH,Zone,,
Makkah,West,,MAK002,AG00292,Rashid  Hussein,CS003867,تموينات ربوة البركة للمواد الغذائية,,,,,,,1,TUE,21.39790,39.77248,"310,111,546,400,003","41,083,526,309",,2024-09-15,0,,0,500.0000000,ACTIVE,Missing Documents,Potential,Required,,,,,,,,JEDDAH,Zone,,
Makkah,West,مكة المكرمة,MAK002,AG00292,Rashid  Hussein,CS003869,تموينات بئر المروى للمواد الغذائية,"500,788,852",,,Traditional Trade,Medium Grocery,,1,WED,21.38688,39.78698,"311,273,502,700,003","4,031,207,149","3,909,559,334",2024-09-15,1,Credit,0,500.0000000,ACTIVE,Approved by Finance,Potential,Required,2025-04-07,2025-07-29,شارع الشيخ محمد بن جبير,الشوقية,2386,24351,7749,JEDDAH,Zone,,
Makkah,West,مكة المكرمة,MAK002,AG00292,Rashid  Hussein,CS003871,شركة تموينات الجزيرة الطيبة للمواد الغذائية,"553,559,311",,,Traditional Trade,Medium Grocery,,2,SUN,21.36851,39.79532,"311,351,224,400,003","4,031,236,345","3,909,518,959",2024-09-15,4,Credit,0,0.0000000,ACTIVE,Approved by Finance,Potential,Required,2025-06-20,2025-01-03,معالي ابراهيم,المحمدية,0,24234,0,JEDDAH,Zone,,
Makkah,West,,MAK002,AG00292,Rashid  Hussein,CS003874,تموينات رنات للمواد الغذائية,,,,,,,2,MON,21.35365,39.82168,"311,347,412,700,003","4,031,267,852",,2024-09-15,0,,0,500.0000000,ACTIVE,Missing Documents,Potential,Required,,,,,,,,JEDDAH,Zone,,
Makkah,West,,MAK002,AG00292,Rashid  Hussein,CS003877,أسواق الجبيل 1,,,,,,,1,MON,21.32336,39.61972,"305,006,732,400,003","4,031,255,777",,2024-09-15,0,,0,500.0000000,ACTIVE,Missing Documents,Potential,Required,,,,,,,,JEDDAH,Zone,,
