Area,Region,City,Zone,AgentId,AgentName,CusId,CusName,BuyerPhone,ReceiverPhone,FinancePhone,CH,SubChannel,F,StartWeeks,Days,Latitude,Longitude,VAT,CR,BL,createdDate,TotalDeliveredOrders,PaymentType,CreditDays,CreditLimit,Status,Validation,CreationType,CheckIn,CRExpiryDate,BLExpiryDate,StreetName,DistrictName,AdditionalNum,ZipCode,BuildingNumber,DC,AssignmentType,Geocode Quality,Full Corrected Address
Jeddah,West,جدة,JED001,AG00313,Khaled Salama,CS000021,مخابز وتموينات سلة بلادي,"509,850,203",,,Traditional Trade,Medium Grocery,,2,SUN,21.69426,39.11712,"300,439,981,600,003","4,030,281,500","4,104,262,497",2023-07-05,12,,0,0.0000000,In-Active,Approved by Finance,Agent Registration,Required,2018-09-11,2018-09-11,الامام البخاري,البساتين,6437,23719,5194,JEDDAH,Zone,,
Jeddah,West,جدة,JED001,AG00313,Khaled Salama,CS000023,مركز بن ستين للتموينات,"538,273,327",,,Traditional Trade,Small Grocery,,2,SUN,21.68000,39.12000,"301,207,274,200,003","4,030,347,269","3,911,132,624",2023-07-05,0,,0,0.0000000,In-Active,Approved by Finance,Agent Registration,Required,,,البساتين,البساتين,8833,23718,5274,JEDDAH,Zone,,
Jeddah,West,جدة,JED001,AG00313,Khaled Salama,CS000025,اسواق ومخابز قارة الخير,0,,,Traditional Trade,Medium Grocery,,2,THU,21.59454,39.14779,"311,218,395,300,003","4,030,279,248","325,170",2023-07-05,0,,0,0.0000000,In-Active,Approved by Finance,Agent Registration,Required,,,شارع حراء,النعيم,8088,23526,2914,JEDDAH,Zone,,
Jeddah,West,جدة,JED001,AG00313,Khaled Salama,CS000026,تموينات النجوم,1,,,Traditional Trade,Small Grocery,,2,TUE,21.62000,39.15000,"300,708,786,500,003","4,030,232,297","4,409,120,051",2023-07-05,0,,0,0.0000000,In-Active,Approved by Finance,Agent Registration,Required,,,محمد زيدان,النعيم,8632,23526,3166,JEDDAH,Zone,,
Jeddah,West,جدة,JED001,AG00313,Khaled Salama,CS000027,تموينات البيوتات,"598,131,058",,,,,,2,TUE,21.62000,39.15000,"302,007,452,700,003","4,030,406,984","4,209,553,125",2023-07-05,0,,0,0.0000000,In-Active,Approved by Finance,Agent Registration,Required,,,حسان بن خوط,النعيم,2799,23526,8864,JEDDAH,Zone,,
Jeddah,West,جدة,JED001,AG00313,Khaled Salama,CS000028,تموينات جوهرة غرناطة,2,,,Traditional Trade,Small Grocery,,2,TUE,21.62000,39.15000,"300,100,408,100,003","4,030,384,168","3,911,133,431",2023-07-05,0,,0,0.0000000,In-Active,Approved by Finance,Agent Registration,Required,,,النعيم,النعيم,8928,23526,2989,JEDDAH,Zone,,
Jeddah,West,جدة,JED001,AG00313,Khaled Salama,CS000039,سكنى,"553,613,003",,,Horca,Restaurant,,2,TUE,21.65544,39.12473,"310,605,679,700,003","4,030,379,462","12,345,678,911",2023-07-26,6,,0,0.0000000,In-Active,Approved by Finance,Agent Registration,Required,,,محمد بن ابي بكر,النهضة,00,00,00,JEDDAH,Zone,,
Jeddah,West,جدة,JED001,AG00313,Khaled Salama,CS000040,تموينات الخير,"7,417,411,523",,,Traditional Trade,Medium Grocery,,2,SUN,21.71107,39.11248,"311,111,111,111,113","1,045,215,485","1,288,485,145,644",2023-07-29,0,,0,0.0000000,In-Active,Needs Revise,Agent Registration,Required,,,00,الخالدية,00,123456,00,JEDDAH,Zone,,
Jeddah,West,جدة,JED001,AG00313,Khaled Salama,CS000047,غيث الزاد الغذائية,"551,064,045",,,,,,2,SAT,21.73783,39.13194,"311,095,863,600,003","4,030,505,366","460,116,210,795",2023-07-30,1,,0,0.0000000,In-Active,Approved by Finance,Agent Registration,Required,2026-03-20,2025-06-30,طريق الملك عبدالعزيز,ابحر الجنوبية,00,23733,00,JEDDAH,Zone,,
Jeddah,West,جدة,JED001,AG00313,Khaled Salama,CS000052,تموين الوقداني  1,"500,566,713",,,Traditional Trade,Medium Grocery,,2,SAT,21.74512,39.14083,"310,132,245,700,003","4,030,594,348","440,911,990,077",2024-09-15,8,Credit,0,0.0000000,In-Active,Approved by Finance,Agent Registration,Required,2025-07-09,2025-03-20,شارع,ابحر الجنوبية,0,23734,0,JEDDAH,Zone,,
Jeddah,West,جدة,JED001,AG00313,Khaled Salama,CS000055,مركز العليا للتسويق,"558,449,053",,,Traditional Trade,Large Grocery,,1,MON,21.80302,39.14650,"310,805,446,900,003","4,030,350,365","39,111,323,499",2023-07-30,7,,0,0.0000000,In-Active,Approved by Finance,Agent Registration,Required,2025-01-20,2025-03-23,عمر بن مرة,ابحر الجنوبية,00,21541,0,JEDDAH,Zone,,
Jeddah,West,جدة,JED001,AG00313,Khaled Salama,CS000056,شركة زاد الريان التجارية,"568,742,342",,,Traditional Trade,Medium Grocery,,2,WED,21.61198,39.18772,"311,422,841,800,003","4,030,355,386","41,083,505,032",2024-09-15,3,Credit,0,0.0000000,In-Active,Approved by Finance,Agent Registration,Required,2025-05-26,2025-02-11,سهيل بن صخر,الربوة,6856,22425,2382,JEDDAH,Zone,,
Jeddah,West,جدة,JED001,AG00313,Khaled Salama,CS000059,تموينات نورة,"594,219,771",,,Traditional Trade,Small Grocery,,2,WED,21.61079,39.18314,"302,245,105,600,003","4,030,524,056","43,026,456,545",2023-07-30,0,,0,0.0000000,In-Active,Approved by Finance,Agent Registration,Required,,,انس بن اوس,الربوة,00,00000,0,JEDDAH,Zone,,
Jeddah,West,جدة,JED001,AG00313,Khaled Salama,CS000065,مخبز ومركز درة الخليج,"561,608,016",,,Traditional Trade,Medium Grocery,,2,WED,21.59932,39.16608,"310,199,108,500,003","4,030,300,109","39,121,536,019",2024-09-15,9,Credit,0,0.0000000,In-Active,Approved by Finance,Agent Registration,Required,2025-02-17,2025-05-29,الخطيب التبريزي,البوادي,8166,23443,2649,JEDDAH,Zone,,
Jeddah,West,جدة,JED001,AG00313,Khaled Salama,CS000066,زهره للتسويق,"539,446,127",,,Traditional Trade,Medium Grocery,,2,SAT,21.75874,39.18986,"312,481,790,300,003","4,030,411,482","43,026,462,742",2024-09-15,1,,0,0.0000000,In-Active,Approved by Finance,Agent Registration,Required,2025-02-08,2024-10-13,القاسم بن أمية رضي الله عنه,الحمدانية,3928,23761,6782,JEDDAH,Zone,,
Jeddah,West,جدة,JED001,AG00290,Mohamed Hossain,CS000068,تموينات النور,"543,906,953",,,Traditional Trade,Medium Grocery,,2,SAT,21.75956,39.19340,"311,270,084,600,003","4,030,470,952","440,310,654,113",2024-09-15,24,Credit,15,544.8600000,ACTIVE,Approved by Finance,Agent Registration,Required,2025-04-09,2025-08-27,القاسم بن امية,الحمدانية,0,22352,0,JEDDAH,Assignment,,
Jeddah,West,جدة,JED001,AG00313,Khaled Salama,CS000070,تموينات حمدان محمد بن سعيد العمري للمواد الغذائية,"509,432,280",,,Traditional Trade,Medium Grocery,,2,WED,21.61706,39.17253,"310,640,416,600,003","4,030,391,929","440,711,609,436",2024-09-15,14,Credit,7,500.0000000,ACTIVE,Approved by Finance,Agent Registration,Required,2025-08-10,2025-01-23,شارع,النزهة,8127,23533,3785,JEDDAH,Zone,,
Jeddah,West,جدة,JED001,AG00275,Legal  Case,CS000078,اسواق كارف للمواد الغذائيه,"564,126,149",,,,,,2,WED,21.59992,39.16804,"310,313,266,600,003","4,030,478,386","39,111,447,241",,2,,0,0.0000000,In-Active,Approved by Finance,Agent Registration,Required,2024-06-23,2023-08-08,dummy,البوادي,00,22432,dummy,JEDDAH,Assignment,,
Jeddah,West,جدة,JED001,AG00313,Khaled Salama,CS000079,تموينات سلوى,"546,892,217",,,Traditional Trade,Medium Grocery,,2,WED,21.60029,39.16838,"310,370,648,800,003","4,030,383,945","450,614,130,720",2024-09-15,28,Credit,0,0.0000000,In-Active,Approved by Finance,Agent Registration,Required,2025-05-20,2024-12-19,قريش,البوادي,0,22236,0,JEDDAH,Zone,,
Jeddah,West,جدة,JED001,AG00313,Khaled Salama,CS000084,اليمامه,"534,804,886",,,,,,1,TUE,21.86016,39.23139,"310,762,967,400,003","4,030,396,994","431,210,219,745",2023-07-30,0,,0,0.0000000,In-Active,Approved by Finance,Agent Registration,Required,,,طريق عسفان,الوفاء,1234,32154,1564,JEDDAH,Zone,,
Jeddah,West,جدة,JED001,AG00290,Mohamed Hossain,CS000086,أسواق ومخابز شواطي,"534,644,240",,,Traditional Trade,Medium Grocery,,2,SAT,21.77024,39.13358,"312,694,298,100,003","4,030,382,682","40,031,961,841",2024-09-15,26,Credit,24,9317.9300000,ACTIVE,Approved by Finance,Agent Registration,NOT Required,2025-02-07,2025-09-16,احمد بن اسماعيل بن علي بن عبدالله بن العباس,ابحر الشمالية,0,23819,0,JEDDAH,Assignment,,
Jeddah,West,جدة,JED001,AG00313,Khaled Salama,CS000090,تموينات مصدر الاسرة,"504,849,288",,,Traditional Trade,Small Grocery,,2,SAT,21.76627,39.12920,"300,102,547,900,003","4,030,187,210","104,679,134,679,154",2023-07-31,11,,0,0.0000000,In-Active,Approved by Finance,Agent Registration,Required,2026-01-12,2024-09-23,شارع محمد بن يزيد,السنابل,00,12345,00,JEDDAH,Zone,,
Jeddah,West,جدة,JED001,AG00313,Khaled Salama,CS000094,روابي ابحر للتسويق,"568,495,488",,,Traditional Trade,Medium Grocery,,2,SAT,21.75625,39.12243,"311,364,355,900,003","4,030,340,299","39,111,326,348",2023-07-31,4,,0,0.0000000,In-Active,Approved by Finance,Agent Registration,Required,2025-02-12,2024-03-28,شارع محمد بن زرقون,ابحر الشمالية,00,12345,00,JEDDAH,Zone,,
Jeddah,West,جدة,JED001,AG00313,Khaled Salama,CS000099,تموينات رابية الخير,"536,254,650",,,Traditional Trade,Medium Grocery,,2,WED,21.61391,39.17472,"311,567,436,700,003","4,030,502,337","441,212,644,918",2023-07-31,9,,0,0.0000000,In-Active,Approved by Finance,Agent Registration,Required,2029-09-12,2024-07-12,شارع يحيى المعلمي,الربوة,00,12345,00,JEDDAH,Zone,,
Jeddah,West,جدة,JED001,AG00313,Khaled Salama,CS000102,تموينات رفا الغربية,"532,719,102",,,Traditional Trade,Medium Grocery,,1,WED,21.77311,39.10653,"310,227,977,200,003","4,030,393,287","440,911,930,362",2025-01-13,6,Credit,0,0.0000000,In-Active,Approved by Finance,Agent Registration,Required,2025-09-02,2025-03-13,الملك فيصل بن عبد العزيز,الشراع,6977,23513,3373,JEDDAH,Zone,,
Jeddah,West,جدة,JED001,AG00313,Khaled Salama,CS000104,اسواق زاد الرحيل,"542,481,466",,,Traditional Trade,Large Grocery,,2,SAT,21.75781,39.11897,"311,076,702,700,003","4,030,435,203","1,111,111,111,111,111,100,000",2023-07-31,20,,0,0.0000000,In-Active,Approved by Finance,Agent Registration,Required,2026-10-25,1979-11-20,محمد نور الكتبي,ابحر الشمالية,00,23815,0,JEDDAH,Zone,,
Jeddah,West,جدة,JED001,AG00313,Khaled Salama,CS000114,تموينات مرجان المحيط,"560,929,054",,,Traditional Trade,Large Grocery,,1,THU,21.77064,39.19617,"310,452,669,100,003","4,030,369,174","42,034,232,634",2023-07-31,13,,0,0.0000000,In-Active,Approved by Finance,Agent Registration,Required,2024-11-08,2024-09-29,عمرو بن ابي الوقاص,الفلاح,00,23762,0,JEDDAH,Zone,,
Jeddah,West,جدة,JED001,AG00313,Khaled Salama,CS000119,تموينات تري الليف,"532,682,045",,,Traditional Trade,Medium Grocery,,1,MON,21.79063,39.12966,"310,748,764,800,003","4,603,151,942","43,119,947,096",2023-07-31,0,,0,0.0000000,In-Active,Approved by Finance,Agent Registration,Required,,,ثابت بن معاذ الانصاري,طيبة,00,27888,0,JEDDAH,Zone,,
Jeddah,West,جدة,JED001,AG00313,Khaled Salama,CS000121,تموينات ومخابز رامي,"565,237,131",,,Traditional Trade,Large Grocery,,1,MON,21.79493,39.13477,"300,482,462,900,003","4,030,247,164","39,111,340,571",2024-09-15,4,Credit,0,0.0000000,In-Active,Approved by Finance,Agent Registration,Required,2025-01-17,2026-01-05,شارع,ذهبان,0,25442,0,JEDDAH,Zone,,
Jeddah,West,جدة,JED001,AG00313,Khaled Salama,CS000123,تموينات غذاءك للمواد الغذائية,"559,320,081",,,Traditional Trade,Medium Grocery,,2,THU,21.60759,39.12703,"302,267,218,900,003","4,030,484,181","440,611,312,127",2024-09-15,2,,0,0.0000000,In-Active,Approved by Finance,Agent Registration,Required,2025-08-02,2025-12-07,حراء,الزهراء,7877,23522,2937,JEDDAH,Zone,,
Jeddah,West,جدة,JED001,AG00313,Khaled Salama,CS000124,تموينات زاد الريف,"544,227,842",,,,,,1,THU,21.78058,39.19282,"310,630,903,800,003","4,030,410,287","41,042,622,307",2023-07-31,20,,0,0.0000000,In-Active,Approved by Finance,Agent Registration,Required,2025-02-06,2024-10-08,عمير بن الحمام,طيبة,00,23833,0,JEDDAH,Zone,,
Jeddah,West,جدة,JED001,AG00313,Khaled Salama,CS000125,مخابز وتموينات ديمة,"502,151,778",,,Traditional Trade,Medium Grocery,,1,TUE,21.82284,39.20887,"302,184,155,100,003","4,030,378,264","43,069,078,558",2024-09-15,13,Credit,13,816.3400000,ACTIVE,Approved by Finance,Agent Registration,Required,2025-01-18,2025-11-29,سعيد الينا,الفروسية,8183,23449,4530,JEDDAH,Zone,,
Jeddah,West,جدة,JED001,AG00313,Khaled Salama,CS000128,مركز الجوهرة,"567,107,068",,,Traditional Trade,Medium Grocery,,2,SAT,21.77018,39.16189,"302,076,443,400,003","4,030,244,497","39,111,336,411",2024-09-15,5,Credit,15,500.0000000,ACTIVE,Approved by Finance,Agent Registration,Required,2024-12-17,2026-03-09,شارع عام,الاصالة,6498,23738,4516,JEDDAH,Zone,,
Jeddah,West,جدة,JED001,AG00313,Khaled Salama,CS000129,اسواق ومخابز مركزى,"536,351,685",,,Traditional Trade,Medium Grocery,,2,WED,21.59669,39.16955,"311,206,049,500,003","4,030,168,527","43,119,953,183",2024-09-15,6,Credit,0,0.0000000,In-Active,Approved by Finance,Agent Registration,Required,2025-01-19,2025-04-29,ابو الحسن الهمذاني,البوادي,0,00000,0,JEDDAH,Zone,,
Jeddah,West,جدة,JED001,AG00313,Khaled Salama,CS000131,تموينات سدرة البوادي,"575,654,528",,,Traditional Trade,Medium Grocery,,2,WED,21.59683,39.17030,"311,979,333,500,003","4,030,538,880","440,711,608,548",2024-09-15,8,,0,0.0000000,In-Active,Approved by Finance,Agent Registration,Required,2024-12-26,2025-01-23,ابو حسن الهمذاني,البوادي,7180,23443,2711,JEDDAH,Zone,,
Jeddah,West,جدة,JED001,AG00313,Khaled Salama,CS000133,ستي مارت  2,"502,494,411",,,Traditional Trade,Medium Grocery,,2,THU,21.61003,39.13830,"311,298,660,700,003","4,030,357,581","42,115,891,566",2024-09-15,12,Credit,16,500.0000000,ACTIVE,Approved by Finance,Agent Registration,Required,2025-08-13,2025-05-22,شارع,الزهراء,3037,22261,7757,JEDDAH,Zone,,
Jeddah,West,جدة,JED001,AG00313,Khaled Salama,CS000135,تموينات اماني,"502,019,114",,,,,,1,MON,21.79637,39.13758,"300,910,282,100,003","1,111,111,111","111,111,111,111,111,100",2023-08-01,0,,0,0.0000000,In-Active,Approved by Finance,Agent Registration,Required,,,النزهة,النزهة,00,23534,0,JEDDAH,Zone,,
Jeddah,West,جدة,JED001,AG00313,Khaled Salama,CS000140,تموينات الطيب,"571,027,194",,,Traditional Trade,Medium Grocery,,1,THU,21.75360,39.21219,"310,097,242,400,003","4,030,538,036","39,111,428,320",2024-09-15,16,Credit,0,500.0000000,ACTIVE,Approved by Finance,Agent Registration,Required,2025-01-15,2024-10-13,ابن محمد الفهري,الحمدانية,7797,23761,3220,JEDDAH,Zone,,
Jeddah,West,جدة,JED001,AG00313,Khaled Salama,CS000144,تموينات البوادي الحديثة للمواد الغذائية,"508,428,110",,,,,,2,WED,21.59749,39.16696,"300,000,000,000,003","4,030,378,308","440,110,321,105",,0,,0,0.0000000,In-Active,Approved by Finance,Agent Registration,Required,2024-01-17,2024-07-28,dummy,البوادي,00,23425,dummy,JEDDAH,Zone,,
Jeddah,West,جدة,JED001,AG00313,Khaled Salama,CS000146,شركة سلة السرايا للمواد العذائية,"507,613,581",,,Traditional Trade,Medium Grocery,,1,THU,21.76818,39.20244,"311,313,300,600,003","4,030,383,480","431,110,096,309",2024-09-15,2,Credit,0,0.0000000,In-Active,Approved by Finance,Agent Registration,Required,2026-02-09,2025-05-19,عبدالله بن سليمان الحمدان,الصالحية,3616,22821,7505,JEDDAH,Zone,,
Jeddah,West,,JED001,AG00313,Khaled Salama,CS000150,تموينات خالد,"566,015,853",,,Traditional Trade,Medium Grocery,,2,TUE,21.65537,39.12474,"311,325,629,700,003","4,030,515,494","12,349,787,646,434",2023-08-01,0,,0,0.0000000,In-Active,Missing Documents,Agent Registration,Required,,,,,,,,JEDDAH,Zone,,
Jeddah,West,جدة,JED001,AG00313,Khaled Salama,CS000154,اسواق وزاد ومخابز زاد جدة,"506,065,603",,,,,,1,WED,21.77478,39.10371,"311,364,355,900,003","4,030,347,800","42,013,833,279",2023-08-01,0,,0,0.0000000,In-Active,Approved by Finance,Agent Registration,Required,,,طريق الحرمين,الصفا,00,23216,0,JEDDAH,Zone,,
Jeddah,West,جدة,JED001,AG00290,Mohamed Hossain,CS000156,سوبر ماركت خير بلادي,"509,309,103",,,Traditional Trade,Medium Grocery,,1,THU,21.77654,39.21497,"311,254,611,100,003","4,030,463,897","440,410,981,184",2024-09-15,21,Credit,3,584.3800000,ACTIVE,Approved by Finance,Agent Registration,Required,2025-03-15,2023-11-08,عمرو بن ابي العاص,الرحمانية,3475,23763,8682,JEDDAH,Assignment,,
Jeddah,West,جدة,JED001,AG00313,Khaled Salama,CS000160,تموينات المنى 2,"599,623,668",,,Traditional Trade,Medium Grocery,,1,TUE,21.81571,39.21572,"300,116,266,200,003","4,030,412,481","42,115,913,899",2023-08-01,11,,0,0.0000000,In-Active,Approved by Finance,Agent Registration,Required,2026-05-07,2025-02-25,الامير ماجد,الصفا,00,23452,0,JEDDAH,Zone,,
Jeddah,West,جدة,JED001,AG00313,Khaled Salama,CS000161,تموينات إيلاف الاولى للمواد الغذائية,"555,775,577",,,Traditional Trade,Medium Grocery,,1,WED,21.77135,39.09999,"311,432,755,400,003","4,030,327,468","43,069,119,045",2024-09-15,11,,0,0.0000000,In-Active,Approved by Finance,Agent Registration,Required,2024-10-11,2024-12-18,اسامة عبدالمجيد,الشراع,1,23818,1,JEDDAH,Zone,,
Jeddah,West,جدة,JED001,AG00313,Khaled Salama,CS000162,تموينات الوطن,"537,283,014",,,Traditional Trade,Medium Grocery,,2,WED,21.60410,39.17030,"310,483,798,600,003","4,034,101,838","43,069,119,347",2023-08-01,24,,0,0.0000000,In-Active,Approved by Finance,Agent Registration,Required,2024-10-24,2024-12-20,الجنينه,البوادي,00,29751,0,JEDDAH,Zone,,
Jeddah,West,جدة,JED001,AG00313,Khaled Salama,CS000164,تموينات يارا,"552,161,804",,,,,,2,WED,21.60278,39.16775,"311,111,111,111,113","4,030,421,823","431,110,103,398",2023-08-01,2,,0,0.0000000,In-Active,Approved by Finance,Agent Registration,Required,2025-06-18,2025-05-20,ش عمر بن حسان,البوادي,00,00000,0,JEDDAH,Zone,,
Jeddah,West,جدة,JED001,AG00313,Khaled Salama,CS000165,تموينات ريوف الحديث,"543,162,858",,,Traditional Trade,Medium Grocery,,2,WED,21.60407,39.16437,"310,030,956,200,003","4,030,431,399","440,911,916,599",2024-09-15,22,Credit,0,500.0000000,ACTIVE,Approved by Finance,Agent Registration,Required,2025-09-09,2025-03-13,عبدالرحمن بن حسنة,البوادي,2934,23531,6691,JEDDAH,Zone,,
Jeddah,West,جدة,JED001,AG00313,Khaled Salama,CS000167,اسواق سلة الفتح للمواد الغذائية,"572,363,587",,,Traditional Trade,Small Grocery,,2,WED,21.60673,39.16357,"310,760,977,200,003","4,030,460,633","440,911,906,087",2024-09-15,33,Credit,0,500.0000000,ACTIVE,Approved by Finance,Agent Registration,Required,2025-02-16,2025-03-07,عبدالرحمن بن الحارث,البوادي,2731,23531,7044,JEDDAH,Zone,,
Jeddah,West,جدة,JED001,AG00313,Khaled Salama,CS000169,مخبز ومركز البركة للتسويق,"571,711,396",,,,,,2,WED,21.60646,39.16714,"310,845,737,200,003","4,030,405,477","40,072,065,966",2023-08-01,0,,0,0.0000000,In-Active,Approved by Finance,Agent Registration,Required,,,ش ابن عبدالقدوس,الربوة,00,00000,0,JEDDAH,Zone,,
Jeddah,West,جدة,JED001,AG00313,Khaled Salama,CS000171,تموينات ميلا الخير للمواد الغذائية,"557,664,557",,,Traditional Trade,Medium Grocery,,1,TUE,21.85556,39.21049,"311,066,149,500,003","4,030,433,873","440,811,781,746",2024-09-15,12,Credit,24,724.5100000,ACTIVE,Approved by Finance,Agent Registration,Required,2025-09-30,2025-02-18,شارع,الرياض,7145,23761,4467,JEDDAH,Zone,,
Jeddah,West,جدة,JED001,AG00313,Khaled Salama,CS000173,بقالة سلتي,"535,007,351",,,Traditional Trade,Medium Grocery,,1,MON,21.80274,39.15323,"312,621,780,900,003","4,030,548,299","43,047,998,193",2024-09-15,12,Credit,10,887.8900000,ACTIVE,Approved by Finance,Agent Registration,Required,2024-12-15,2025-10-18,وهب بن خويلد,طيبة,4568,23831,8217,JEDDAH,Zone,,
Jeddah,West,جدة,JED001,AG00313,Khaled Salama,CS000181,اسواق ومخابز بيتي,"597,046,606",,,,,,1,MON,21.80690,39.14915,"302,029,298,900,003","4,030,458,527","39,111,340,397",2023-08-01,0,,0,0.0000000,In-Active,Approved by Finance,Agent Registration,Required,,,وهب بن خويلد,طيبة,00,23831,0,JEDDAH,Zone,,
Jeddah,West,جدة,JED001,AG00313,Khaled Salama,CS000182,تموينات القرني,"570,610,216",,,Traditional Trade,Medium Grocery,,1,MON,21.80199,39.14450,"310,275,275,200,003","4,030,316,840","40,052,037,915",2024-09-15,13,Credit,0,594.0000000,ACTIVE,Approved by Finance,Agent Registration,Required,2025-12-04,2025-11-12,ثابت بن معاذ الأنصاري,طيبة,5458,23835,7892,JEDDAH,Zone,,
Jeddah,West,خليص,JED001,AG00313,Khaled Salama,CS000186,اسواق الرايد لليسويق,"508,579,364",,,Traditional Trade,Medium Grocery,,1,SUN,21.96042,39.38358,"310,163,618,400,003","4,604,108,204","41,012,559,319",2024-09-15,23,Credit,3,1384.0300000,ACTIVE,Approved by Finance,Agent Registration,Required,2026-04-24,2024-09-15,شارع,خليص,0,25551,0,JEDDAH,Zone,,
Jeddah,West,جدة,JED001,AG00313,Khaled Salama,CS000188,اسواق و مخابز الضيافة,"534,837,736",,,Traditional Trade,Medium Grocery,,2,WED,21.61708,39.17485,"310,260,937,700,003","4,032,231,006","41,052,648,840",2024-09-15,7,Credit,0,0.0000000,In-Active,Approved by Finance,Agent Registration,Required,2025-10-27,2025-04-16,شارع,النزهة,6439,23534,4368,JEDDAH,Zone,,
Jeddah,West,جدة,JED001,AG00313,Khaled Salama,CS000193,تموينات الوطن الاقتصادية,"540,456,403",,,Traditional Trade,Medium Grocery,,2,MON,21.69223,39.21379,"310,601,766,600,003","4,030,391,918","440,911,951,090",2024-09-15,8,Credit,0,0.0000000,In-Active,Approved by Finance,Agent Registration,Required,2029-06-18,2026-04-14,شارع,الريان,0,23643,0,JEDDAH,Zone,,
Jeddah,West,جدة,JED001,AG00290,Mohamed Hossain,CS000194,تموينات بركة المحمدية التجارية,"539,736,434",,,Traditional Trade,Medium Grocery,,2,TUE,21.65112,39.13511,"300,184,574,600,003","4,030,479,253","39,111,331,747",2024-09-15,7,Credit,0,500.0000000,ACTIVE,Approved by Finance,Agent Registration,Required,2025-07-01,2025-01-06,شارع,المحمدية,6682,23719,4983,JEDDAH,Assignment,,
Jeddah,West,جدة,JED001,AG00195,Abdulkareem Saqer,CS000201,مؤسسة الخنبشي للمواد الغذائية,"507,379,660",,,Traditional Trade,Large Grocery,,2,WED,21.61497,39.16072,"310,600,257,600,003","4,030,383,804","39,111,427,047",2023-08-02,28,,0,500.0000000,ACTIVE,Approved by Finance,Agent Registration,Required,2025-05-08,2026-04-22,ش حراء,النزهة,6145,23532,2920,JEDDAH,Assignment,,
Jeddah,West,جدة,JED001,AG00313,Khaled Salama,CS000203,شركة رفاهية الصفا لتجارة الجملة و التجزئة,"501,137,539",,,Traditional Trade,Medium Grocery,,1,WED,21.78059,39.09967,"311,231,617,500,003","4,030,233,525","440,511,159,962",2024-09-15,25,Credit,15,1723.8800000,ACTIVE,Approved by Finance,Agent Registration,Required,2024-02-19,2024-11-28,شارع الامير عبد المجيد,الياقوت,7993,23716,4229,JEDDAH,Zone,,
Jeddah,West,جدة,JED001,AG00313,Khaled Salama,CS000204,تموينات حسام للمواد الغذائية,"508,186,084",,,Traditional Trade,Small Grocery,,2,THU,21.61357,39.15947,"310,263,588,900,003","4,030,410,258","440,511,099,103",2023-08-02,1,,0,0.0000000,In-Active,Approved by Finance,Agent Registration,Required,,,ش عتبة بن ربيعة,البوادي,00,23531,0,JEDDAH,Zone,,
Jeddah,West,جدة,JED001,AG00313,Khaled Salama,CS000213,تموينات ميرا الحديثة,"502,494,088",,,,,,1,WED,21.77849,39.09707,"310,147,821,500,003","4,030,433,132","43,109,812,857",2023-08-02,13,,0,0.0000000,In-Active,Approved by Finance,Agent Registration,Required,2026-08-22,2025-04-13,الروضة,الروضة,00,23451,0,JEDDAH,Zone,,
Jeddah,West,جدة,JED001,AG00313,Khaled Salama,CS000215,سوبرماركت دينا,"565,176,933",,,Traditional Trade,Medium Grocery,,2,SUN,21.67717,39.12038,"300,500,767,100,003","4,030,280,947","39,111,330,523",2024-09-15,10,Credit,0,765.0400000,ACTIVE,Approved by Finance,Agent Registration,Required,2025-07-31,2025-06-24,الأمير سلطان,البساتين,0,23717,0,JEDDAH,Zone,,
Jeddah,West,جدة,JED001,AG00313,Khaled Salama,CS000217,بقالة ماجد سعد محمد الشقيم,"553,738,942",,,,,,2,WED,21.61362,39.16023,"300,000,000,000,003","4,030,506,994","440,110,277,928",,1,,0,0.0000000,In-Active,Approved by Finance,Agent Registration,Required,2024-03-29,2024-07-10,dummy,البوادي,00,23531,dummy,JEDDAH,Zone,,
Jeddah,West,جدة,JED001,AG00313,Khaled Salama,CS000219,تموينات فالكم طيب للمواد الغذائية,"535,201,395",,,Traditional Trade,Medium Grocery,,2,SUN,21.68201,39.11840,"310,203,445,200,003","4,030,508,879","441,112,237,607",2024-09-15,5,Credit,8,593.9300000,ACTIVE,Approved by Finance,Agent Registration,Required,2028-04-28,2025-05-06,الامير سلطان,البساتين,8519,23716,5044,JEDDAH,Zone,,
Jeddah,West,جدة,JED001,AG00313,Khaled Salama,CS000222,تموينات عنب وكرز للمواد الغذائية,"557,465,946",,,Traditional Trade,Large Grocery,,1,WED,21.75648,39.06596,"310,743,970,900,003","4,030,479,845","440,210,480,624",2023-08-02,26,,0,0.0000000,In-Active,Approved by Finance,Agent Registration,Required,2025-07-07,2024-08-23,ش احمد الحسياني,اللؤلؤ,00,64262,0,JEDDAH,Zone,,
Jeddah,West,جدة,JED001,AG00313,Khaled Salama,CS000225,اسواق زمخابز البساتين,"545,958,623",,,Traditional Trade,Medium Grocery,,2,SUN,21.68467,39.12073,"311,290,228,900,003","4,030,523,401","42,075,355,187",2024-09-15,13,Credit,19,699.5500000,ACTIVE,Approved by Finance,Agent Registration,Required,2025-09-05,2025-01-25,البساتين,البساتين,8832,23718,5224,JEDDAH,Zone,,
Jeddah,West,جدة,JED001,AG00313,Khaled Salama,CS000227,تموينات جرين كارت للمواد الغذاية,"546,301,361",,,,,,1,WED,21.76339,39.07663,"311,438,280,700,003","4,030,488,877","440,611,354,418",2023-08-02,7,,0,0.0000000,In-Active,Approved by Finance,Agent Registration,Required,2024-10-05,2024-12-24,ابو المغيرة بن حزام,الاجواد,00,23814,0,JEDDAH,Zone,,
Jeddah,West,جدة,JED001,AG00313,Khaled Salama,CS000233,مخابز وتموينات اوزان,"572,864,072",,,Traditional Trade,Medium Grocery,,1,WED,21.77476,39.09288,"300,988,859,100,003","4,030,265,619","43,058,112,481",2023-08-02,5,,0,0.0000000,In-Active,Approved by Finance,Agent Registration,Required,,,ادريس بن قتادة,الشراع,00,00000,0,JEDDAH,Zone,,
Jeddah,West,جدة,JED001,AG00313,Khaled Salama,CS000235,تموينات طلال,"530,541,406",,,,,,1,WED,21.77564,39.09325,"311,342,573,000,003","4,030,447,433","39,111,325,084",2023-08-02,0,,0,0.0000000,In-Active,Approved by Finance,Agent Registration,Required,,,ش ابو جعفر المسلمي,الشراع,00,00000,0,JEDDAH,Zone,,
Jeddah,West,جدة,JED001,AG00290,Mohamed Hossain,CS000237,تموينات مصدر الغذاء,"505,753,516",,,Traditional Trade,Medium Grocery,,2,SUN,21.68467,39.11832,"310,859,647,200,003","4,030,407,152","39,111,333,968",2024-09-15,12,Credit,26,808.9100000,ACTIVE,Approved by Finance,Agent Registration,Required,2027-01-07,2025-06-21,محمد بن ابي الفراج,البساتين,5617,23717,8256,JEDDAH,Assignment,,
Jeddah,West,جدة,JED001,AG00313,Khaled Salama,CS000238,تموينات محمد الزهراني,"562,934,371",,,Traditional Trade,Medium Grocery,,1,THU,21.78034,39.21563,"311,021,060,500,003","4,030,427,782","42,125,981,461",2024-09-15,9,Credit,0,0.0000000,In-Active,Approved by Finance,Agent Registration,Required,2025-12-07,2023-07-05,شارع الصمد,الرحمانية,4973,22346,6654,JEDDAH,Zone,,
Jeddah,West,جدة,JED001,AG00313,Khaled Salama,CS000239,تموينات انعامكم واحد للمواد الغذائية,"555,423,005",,,,,,1,WED,21.76686,39.08247,"311,516,021,200,003","4,030,496,934","43,047,921,339",2023-08-02,2,,0,0.0000000,In-Active,Approved by Finance,Agent Registration,Required,,,شارع صلاح الدين الايوبي,الياقوت,00,23824,0,JEDDAH,Zone,,
Jeddah,West,جدة,JED001,AG00313,Khaled Salama,CS000241,اسواق الجندول,"501,178,941",,,Traditional Trade,Medium Grocery,,2,SUN,21.67559,39.12044,"311,231,617,500,003","4,030,233,525","41,063,210,397",2024-09-15,34,Credit,18,1923.8400000,ACTIVE,Approved by Finance,Agent Registration,Required,2025-02-19,2024-12-09,عبدالرحمن بن ابي بكر الصديق,البساتين,7993,23716,4229,JEDDAH,Zone,,
Jeddah,West,جدة,JED001,AG00313,Khaled Salama,CS000243,تموينات الامداد,"550,915,008",,,Traditional Trade,Medium Grocery,,1,THU,21.77899,39.21622,"311,949,689,800,003","4,030,535,120","440,310,754,576",2024-09-15,17,Credit,4,500.0000000,ACTIVE,Approved by Finance,Agent Registration,Required,2024-12-10,2024-09-23,شارع,الرحمانية,6424,23765,3588,JEDDAH,Zone,,
Jeddah,West,جدة,JED001,AG00313,Khaled Salama,CS000244,تموينات زاد الأية للمواد الغذائية,"538,923,680",,,Traditional Trade,Medium Grocery,,2,SUN,21.67325,39.12015,"310,400,102,300,003","4,030,513,325","450,112,723,265",2024-09-15,19,Credit,0,500.0000000,ACTIVE,Approved by Finance,Agent Registration,Required,2025-05-05,2025-06-28,الامير سلطان,البساتين,5655,23717,7500,JEDDAH,Zone,,
Jeddah,West,جدة,JED001,AG00313,Khaled Salama,CS000246,تموينات زاد لجواد,"545,590,276",,,Traditional Trade,Small Grocery,,2,TUE,21.64696,39.12793,"311,690,010,500,003","4,030,462,914","440,310,671,728",2023-08-02,16,,0,0.0000000,In-Active,Approved by Finance,Agent Registration,Required,2025-03-06,2024-09-10,الامير سلطان,المحمدية,00,68372,0,JEDDAH,Zone,,
Jeddah,West,جدة,JED001,AG00313,Khaled Salama,CS000249,تموينات السعيد للمواد الغذائية,"568,916,434",,,Traditional Trade,Medium Grocery,,1,THU,21.76985,39.19392,"300,097,033,900,003","4,030,274,659","431,210,169,219",2023-08-02,2,,0,0.0000000,In-Active,Approved by Finance,Agent Registration,Required,,,النضير بن الحارث,الفلاح,00,23762,0,JEDDAH,Zone,,
Jeddah,West,جدة,JED001,AG00313,Khaled Salama,CS000252,شركة الحسام  1,"553,327,299",,,Traditional Trade,Medium Grocery,,2,THU,21.60928,39.13467,"311,337,634,100,003","4,030,247,337","39,111,284,641",2024-09-15,7,Credit,0,500.0000000,ACTIVE,Approved by Finance,Agent Registration,Required,2025-05-13,2024-11-05,حراء,الزهراء,8475,23442,2338,JEDDAH,Zone,,
Jeddah,West,جدة,JED001,AG00313,Khaled Salama,CS000256,تموينات الانصار,"536,411,383",,,,,,2,SAT,21.77797,39.18827,"311,001,151,300,003","4,030,425,131","41,083,498,768",2023-08-03,10,,0,0.0000000,In-Active,Approved by Finance,Agent Registration,Required,,,الحمدانية,الحمدانية,11223,23441,1,JEDDAH,Zone,,
Jeddah,West,جدة,JED001,AG00313,Khaled Salama,CS000262,تموينات المستهلك,"507,615,002",,,Traditional Trade,Medium Grocery,,1,SUN,21.92960,39.12162,"310,420,387,900,003","4,030,361,717","39,111,332,093",2024-09-15,2,Credit,0,0.0000000,In-Active,Approved by Finance,Agent Registration,Required,2025-05-26,2024-12-28,شارع عام,ذهبان,9264,23783,4330,JEDDAH,Zone,,
Jeddah,West,جدة,JED001,AG00313,Khaled Salama,CS000265,اسوق الفارس للتسويق,"563,132,892",,,,,,1,SUN,21.93897,39.12309,"305,006,521,800,003","4,041,100,141","4,102,258,579",2023-08-03,0,,0,0.0000000,In-Active,Approved by Finance,Agent Registration,Required,,,العباس بن موسى بن عيسى بن موسى,ذهبان,00,12345,00,JEDDAH,Zone,,
Jeddah,West,جدة,JED001,AG00313,Khaled Salama,CS000267,اسواق البيشية,"579,135,812",,,Traditional Trade,Medium Grocery,,2,SUN,21.68399,39.10796,"310,908,705,600,003","4,030,447,122","43,099,700,508",2024-10-28,44,Credit,26,1243.1800000,ACTIVE,Approved by Finance,Agent Registration,Required,2024-11-21,2025-03-22,المرجان,المرجان,3947,23714,8705,JEDDAH,Zone,,
Jeddah,West,جدة,JED001,AG00313,Khaled Salama,CS000268,أسواق ميس الرائدة للتجارة,"559,855,363",,,Traditional Trade,Medium Grocery,,2,SAT,21.79206,39.18277,"302,172,144,600,003","4,030,510,010","42,044,406,600",2024-09-15,19,Credit,24,2261.7300000,ACTIVE,Approved by Finance,Agent Registration,Required,2025-04-26,2025-10-07,يزيد بن زيد,الفلاح,0,23743,0,JEDDAH,Zone,,
Jeddah,West,جدة,JED001,AG00313,Khaled Salama,CS000271,تموينات الحجاز العصرية,"503,372,341",,,,,,1,THU,21.78990,39.20936,"311,176,000,800,003","4,030,179,815","39,111,439,234",2023-08-03,1,,0,0.0000000,In-Active,Approved by Finance,Agent Registration,Required,,,حمزه شحاته,البغدادية,٠٠,١٢٣٤٥,00,JEDDAH,Zone,,
Jeddah,West,جدة,JED001,AG00313,Khaled Salama,CS000273,اسواق مركز الزين,"508,839,446",,,Traditional Trade,Medium Grocery,,1,MON,21.80204,39.11802,"311,311,095,500,003","4,604,003,119","440,310,698,527",2023-08-03,4,,0,0.0000000,In-Active,Approved by Finance,Agent Registration,Required,,,طريق المدينة المنورة,الصواري,00,00000,0,JEDDAH,Zone,,
Jeddah,West,جدة,JED001,AG00313,Khaled Salama,CS000278,اسواق الحلم الابيض للمواد الغذائية,"531,429,956",,,Traditional Trade,Medium Grocery,,1,WED,21.78632,39.10728,"311,133,071,900,003","4,030,481,681","440,210,534,469",2023-08-03,3,,0,0.0000000,In-Active,Approved by Finance,Agent Registration,Required,,,ابراهيم بن فتوح العقيلي,الصواري,00,23216,0,JEDDAH,Zone,,
Jeddah,West,جدة,JED001,AG00313,Khaled Salama,CS000284,اسواق تهامة,"535,218,674",,,,,,1,THU,21.78691,39.20343,"311,311,095,500,003","4,030,179,815","7,014,061,381",2023-08-03,1,,0,0.0000000,In-Active,Approved by Finance,Agent Registration,Required,,,زين لدين العابدين بن عبدالقاد,الرحمانية,00,12345,0,JEDDAH,Zone,,
Jeddah,West,جدة,JED001,AG00313,Khaled Salama,CS000287,متجر اكسبرسو,"550,474,379",,,,,,1,THU,21.72900,39.20461,"310,360,652,600,003","4,030,470,251","7,028,674,286",2023-08-03,2,,0,0.0000000,In-Active,Approved by Finance,Agent Registration,Required,,,محمد مصلح,الكوثر,00,23437,0,JEDDAH,Zone,,
Jeddah,West,جدة,JED001,AG00313,Khaled Salama,CS000292,مخابز و تموينات الفجر,"535,008,377",,,,,,1,THU,21.79337,39.20002,"311,432,365,100,003","4,030,409,091","7,021,637,322",2023-08-03,1,,0,0.0000000,In-Active,Approved by Finance,Agent Registration,Required,,,سليمان الطبراني,الفلاح,00,22238,00,JEDDAH,Zone,,
Jeddah,West,جدة,JED001,AG00313,Khaled Salama,CS000298,تموينات السلطانه,"501,735,712",,,,,,1,THU,21.78920,39.20179,"311,309,335,800,003","4,604,109,498","7,029,159,774",2023-08-03,1,,0,0.0000000,In-Active,Approved by Finance,Agent Registration,Required,,,سليمان الطبراني,الفلاح,00,12345,00,JEDDAH,Zone,,
Jeddah,West,جدة,JED001,AG00313,Khaled Salama,CS000299,تموينات تالية الخليج,"541,033,058",,,Traditional Trade,Small Grocery,,1,WED,21.76210,39.09152,"302,278,753,700,003","4,030,509,892","4,030,509,892",2023-08-03,3,,0,0.0000000,In-Active,Approved by Finance,Agent Registration,Required,,,شارع ابي القاسم,الشراع,00,23814,1,JEDDAH,Zone,,
Jeddah,West,جدة,JED001,AG00313,Khaled Salama,CS000302,تموينات الفين ثلاثون,"554,289,021",,,Traditional Trade,Medium Grocery,,1,THU,21.74373,39.20072,"302,014,451,100,003","4,030,209,183","431,210,189,886",2024-09-15,16,Credit,0,500.0000000,ACTIVE,Approved by Finance,Agent Registration,Required,2026-10-01,2025-06-17,شارع,الحمدانية,3697,23743,7936,JEDDAH,Zone,,
Jeddah,West,جدة,JED001,AG00313,Khaled Salama,CS000304,تموينات فاطمة,"592,846,718",,,,,,2,THU,21.59554,39.16546,"310,765,535,100,003","4,030,452,312","4,030,452,312",2023-08-03,1,,0,0.0000000,In-Active,Approved by Finance,Agent Registration,Required,,,البدوي الملثم,البوادي,00,23443,1,JEDDAH,Zone,,
Jeddah,West,dummy,JED001,AG00313,Khaled Salama,CS000307,تموينات الدرة,"547,830,702",,,,,,2,MON,21.61073,39.23132,"311,059,041,500,003","4,031,255,629","7,026,119,417",,4,,0,0.0000000,In-Active,Approved by Finance,Agent Registration,Required,1979-11-20,1979-11-20,dummy,dummy,00,00000,dummy,JEDDAH,Zone,,
Jeddah,West,جدة,JED001,AG00313,Khaled Salama,CS000311,تموينات الخليج,"501,139,371",,,,,,2,MON,21.61281,39.23867,"310,708,158,900,003","4,030,443,886","39,111,422,919",,1,,0,0.0000000,In-Active,Approved by Finance,Agent Registration,Required,2023-11-04,2023-09-11,dummy,المنار,00,23463,dummy,JEDDAH,Zone,,
Jeddah,West,جدة,JED001,AG00313,Khaled Salama,CS000312,تموينات زهرتي,"583,111,251",,,Traditional Trade,Medium Grocery,,2,THU,21.61662,39.14920,"300,512,868,200,003","4,030,447,639","41,073,447,005",2024-09-15,33,Credit,0,640.5300000,ACTIVE,Approved by Finance,Agent Registration,Required,2024-12-07,2025-12-21,احمد بن عسيب,النعيم,0,23526,0,JEDDAH,Zone,,
Jeddah,West,جدة,JED001,AG00313,Khaled Salama,CS000316,تموينات الريان,"594,105,471",,,Traditional Trade,Medium Grocery,,2,SAT,21.78916,39.18065,"311,133,177,900,003","4,030,447,298","39,111,439,993",2024-09-15,40,Credit,0,1059.0500000,ACTIVE,Approved by Finance,Agent Registration,Required,2024-12-05,2024-12-23,ابو فراس الحمداني,الفلاح,6616,23738,4830,JEDDAH,Zone,,
Jeddah,West,جدة,JED001,AG00313,Khaled Salama,CS000321,جنات الواحة,"536,665,284",,,,,,1,TUE,21.87295,39.23686,"300,750,664,600,003","4,030,206,782","42,055,012,490",2023-08-03,0,,0,0.0000000,In-Active,Approved by Finance,Agent Registration,Required,,,طريق عسفان,الوفاء,00,21443,1,JEDDAH,Zone,,
Jeddah,West,جدة,JED001,AG00313,Khaled Salama,CS000341,اسواق ومخابز انوار البيت,"572,307,938",,,,,,2,TUE,21.65549,39.12452,"311,613,545,200,003","4,030,506,288","39,111,337,163",2023-08-03,1,,0,0.0000000,In-Active,Approved by Finance,Agent Registration,Required,,,محمود مختار,ابحر الشمالية,00,12345,00,JEDDAH,Zone,,
Jeddah,West,جدة,JED001,AG00313,Khaled Salama,CS000345,الشاطئ للمواد الغذائية,"557,706,795",,,,,,2,TUE,21.65543,39.12456,"300,156,261,100,003","4,407,115,321","440,711,532,165",2023-08-03,3,,0,0.0000000,In-Active,Approved by Finance,Agent Registration,Required,,,الامير سلطان,الروضة,00,12345,00,JEDDAH,Zone,,
Jeddah,West,جدة,JED001,AG00313,Khaled Salama,CS000353,تموينات اقرا,"506,221,389",,,,,,2,THU,21.60642,39.13139,"311,245,208,200,003","4,030,461,341","44,121,655,557",2023-08-03,5,,0,0.0000000,In-Active,Approved by Finance,Agent Registration,Required,,,فهد بن زعير,المحمدية,00,12345,00,JEDDAH,Zone,,
Jeddah,West,جدة,JED001,AG00313,Khaled Salama,CS000356,مخابز و تموينات اوزان,"551,662,033",,,,,,1,WED,21.76885,39.09316,"300,988,859,100,003","4,030,265,619","43,068,112,481",2023-08-04,0,,0,0.0000000,In-Active,Approved by Finance,Agent Registration,Required,,,ادريس بن قتادة,الشراع,00000,00000,00000,JEDDAH,Zone,,
Jeddah,West,جدة,JED001,AG00313,Khaled Salama,CS000372,تموينات تيومين,"550,354,995",,,,,,2,TUE,21.61809,39.14040,"311,416,566,300,003","4,030,366,479","440,410,907,507",2023-08-05,7,,0,0.0000000,In-Active,Approved by Finance,Agent Registration,Required,2025-06-03,2023-10-30,النعيم,النعيم,12385,22578,2,JEDDAH,Zone,,
Jeddah,West,جدة,JED001,AG00313,Khaled Salama,CS000376,اسواق سفينا,"536,701,644",,,Traditional Trade,Medium Grocery,,2,MON,21.62327,39.20727,"300,970,801,200,003","4,030,242,268","41,012,561,421",2023-08-05,2,,0,0.0000000,In-Active,Approved by Finance,Agent Registration,Required,,,حراء,المروة,00,00,00,JEDDAH,Zone,,
Jeddah,West,جدة,JED001,AG00313,Khaled Salama,CS000385,حلا للتسوق,"540,335,617",,,,,,2,MON,21.62525,39.21182,"310,889,088,800,003","4,030,467,893","41,083,502,209",2023-08-05,0,,0,0.0000000,In-Active,Approved by Finance,Agent Registration,Required,,,المروة,المروة,11,12312,1,JEDDAH,Zone,,
Jeddah,West,جدة,JED001,AG00313,Khaled Salama,CS000386,أسواق النجم الثنائي التجارية,"3,217,284,684",,,Traditional Trade,Small Grocery,,1,MON,21.80236,39.15319,"311,650,265,200,003","4,030,510,195","441,112,289,218",2024-09-15,2,,0,0.0000000,In-Active,Approved by Finance,Agent Registration,Required,2025-05-09,2025-05-05,وهب بن خويلد,طيبة,1,23831,1,JEDDAH,Zone,,
Jeddah,West,جدة,JED001,AG00313,Khaled Salama,CS000392,تموينات رزان الخير للمواد الغذائية,"536,671,518",,,Traditional Trade,Medium Grocery,,2,MON,21.62847,39.20729,"305,000,989,300,003","4,030,399,568","42,105,645,574",2024-09-15,14,Credit,0,0.0000000,In-Active,Approved by Finance,Agent Registration,Required,2025-10-21,2026-04-15,عبدالرحمن الجرادي,المروة,8317,23543,3852,JEDDAH,Zone,,
Jeddah,West,جدة,JED001,AG00313,Khaled Salama,CS000393,تموينات المروه الحديثة,"556,721,586",,,Traditional Trade,Medium Grocery,,2,MON,21.62946,39.20673,"310,165,828,100,003","4,030,393,164","40,011,641,379",2024-09-15,28,Credit,14,1068.0300000,ACTIVE,Approved by Finance,Agent Registration,Required,2026-08-31,2025-07-09,صالح العمري,المروة,4097,22262,6932,JEDDAH,Zone,,
Jeddah,West,جدة,JED001,AG00313,Khaled Salama,CS000394,أسواق ومخابز كنز,"570,639,670",,,Traditional Trade,Medium Grocery,,1,MON,21.81743,39.14025,"310,451,896,200,003","4,030,329,766","41,063,417,781",2024-09-15,2,Credit,0,0.0000000,In-Active,Approved by Finance,Agent Registration,Required,2025-08-31,2025-01-23,شارع,طيبة,0,23443,0,JEDDAH,Zone,,
Jeddah,West,الرياض,JED001,AG00313,Khaled Salama,CS000399,الفلاح 1,"533,175,908",,,Traditional Trade,Medium Grocery,,2,THU,21.59347,39.15617,"311,338,443,800,003","7,010,023,575","431,110,124,306",2024-09-15,30,Credit,0,500.0000000,ACTIVE,Approved by Finance,Agent Registration,Required,2025-04-18,2025-06-21,السلامة,السلامة,6908,23466,2759,JEDDAH,Zone,,
Jeddah,West,جدة,JED001,AG00313,Khaled Salama,CS000411,تموينات صادرات السلة للمواد الغذائية,"531,970,286",,,Traditional Trade,Large Grocery,,2,THU,21.61463,39.14161,"312,906,399,100,003","4,030,536,202",0,2025-09-11,13,Credit,0,500.0000000,In-Active,Approved by Finance,Agent Registration,Required,2025-12-17,2025-11-30,شارع,النعيم,0,23526,0,JEDDAH,Zone,,
Jeddah,West,جدة,JED001,AG00313,Khaled Salama,CS000413,سوبر ماركت ترود,"553,194,942",,,Traditional Trade,Small Grocery,,1,MON,21.81529,39.14219,"311,195,955,300,003","4,030,457,224","43,099,575,256",2023-08-05,6,,0,0.0000000,In-Active,Approved by Finance,Agent Registration,Required,,,اليسر,اليسر,00,00000,1,JEDDAH,Zone,,
Jeddah,West,جدة,JED001,AG00313,Khaled Salama,CS000416,تموينات السلامة,"567,635,938",,,,,,2,THU,21.59460,39.15499,"300,824,008,200,003","4,030,237,645","39,111,284,010",2023-08-05,0,,0,0.0000000,In-Active,Approved by Finance,Agent Registration,Required,,,نهضة الشرق,السلامة,00,00000,1,JEDDAH,Zone,,
Jeddah,West,جدة,JED001,AG00313,Khaled Salama,CS000429,ماركت الين,"546,207,611",,,Traditional Trade,Medium Grocery,,2,THU,21.61562,39.14432,"310,451,490,500,003","4,030,363,328","441,012,208,383",2024-09-15,7,Credit,0,500.0000000,ACTIVE,Approved by Finance,Agent Registration,Required,2025-07-20,2025-04-26,رشيد الناصر,النعيم,4490,23535,7665,JEDDAH,Zone,,
Jeddah,West,جدة,JED001,AG00313,Khaled Salama,CS000437,اسواق نهر الامداد,"568,029,307",,,Traditional Trade,Medium Grocery,,2,THU,21.61695,39.14716,"310,879,297,300,003","4,030,202,656","41,073,473,671",2024-09-15,8,Credit,0,0.0000000,In-Active,Approved by Finance,Agent Registration,Required,2025-09-25,2025-01-20,محمد زيدان,النعيم,0,00000,0,JEDDAH,Zone,,
Jeddah,West,جدة,JED001,AG00313,Khaled Salama,CS000438,تموينات ومخابز جنى ستور,"536,430,186",,,,,,1,THU,21.74197,39.20149,"300,257,364,700,003","4,030,410,853","42,126,017,063",2023-08-05,4,,0,0.0000000,In-Active,Approved by Finance,Agent Registration,Required,,,النضير بن الحارث,البشائر,00,23643,1,JEDDAH,Zone,,
Jeddah,West,جدة,JED001,AG00313,Khaled Salama,CS000446,تموينات القمة2,"566,104,259",,,,,,1,THU,21.72913,39.20515,"311,055,456,300,003","4,030,432,400","40,122,535,015",2023-08-05,1,,0,0.0000000,In-Active,Approved by Finance,Agent Registration,Required,,,الشارع العام,الكوثر,00,23743,1,JEDDAH,Zone,,
Jeddah,West,جدة,JED001,AG00313,Khaled Salama,CS000452,Mlameen Al-Deira Sweets and Nuts Al-Ali Est,"509,174,170",,,,,,2,WED,21.60927,39.18546,"300,299,267,700,003","7,016,318,169","43,079,321,767",2023-08-05,0,,0,0.0000000,In-Active,Approved by Finance,Agent Registration,Required,,,عبدالله ذي البجادين,الربوة,00,23532,1,JEDDAH,Zone,,
Jeddah,West,جدة,JED001,AG00313,Khaled Salama,CS000454,العتيبي للأغذية,"532,436,531",,,Traditional Trade,Small Grocery,,2,SAT,21.73498,39.19378,"300,063,027,800,003","2,030,478,684","440,110,274,577",2023-08-05,7,,0,0.0000000,In-Active,Approved by Finance,Agent Registration,Required,,,عبدالله بن ابي امية,الكوثر,00,22234,1,JEDDAH,Zone,,
Jeddah,West,جدة,JED001,AG00313,Khaled Salama,CS000457,تموينات المنار  1,"507,914,176",,,Traditional Trade,Medium Grocery,,2,THU,21.61628,39.14703,"300,940,989,100,003","4,030,230,648","39,111,343,135",2024-09-15,14,Credit,0,500.0000000,ACTIVE,Approved by Finance,Agent Registration,Required,2025-04-20,2024-12-23,محمد زيدان,النعيم,8495,23526,2899,JEDDAH,Zone,,
Jeddah,West,جدة,JED001,AG00313,Khaled Salama,CS000462,بقالة بركة الجديدة للمواد الغذائية,"557,739,464",,,Traditional Trade,Medium Grocery,,2,WED,21.60668,39.16830,"310,449,135,200,003","7,017,685,475","41,073,468,229",2024-09-15,22,Credit,0,0.0000000,In-Active,Approved by Finance,Agent Registration,Required,2586-10-07,2025-01-10,علي الهلالي,البوادي,3592,23833,7599,JEDDAH,Zone,,
Jeddah,West,جدة,JED001,AG00313,Khaled Salama,CS000463,تموينات ومخابز السلطان للتسويق,"576,342,844",,,,,,2,SAT,21.75437,39.18600,"311,624,478,700,003","4,030,507,595","440,912,004,840",2023-08-05,0,,0,0.0000000,In-Active,Approved by Finance,Agent Registration,Required,,,عبدالله بن ابي يامية,الحمدانية,00,23765,1,JEDDAH,Zone,,
Jeddah,West,جدة,JED001,AG00313,Khaled Salama,CS000465,تموينات نهضة الاحساس,"542,066,343",,,Traditional Trade,Medium Grocery,,2,THU,21.61315,39.14662,"311,339,638,400,003","4,030,309,852","440,110,384,719",2024-09-15,26,Credit,0,500.0000000,ACTIVE,Approved by Finance,Agent Registration,Required,2025-04-19,2025-08-05,شارع,النعيم,2945,23526,8184,JEDDAH,Zone,,
Jeddah,West,جدة,JED001,AG00313,Khaled Salama,CS000467,تموينات عثمان,"506,334,272",,,,,,2,WED,21.60934,39.16804,"311,433,158,800,003","4,030,488,263","4,411,123,119,642",2023-08-05,19,,0,0.0000000,In-Active,Approved by Finance,Agent Registration,Required,2024-09-30,2025-05-08,عائشة بنت الحارث,البوادي,00,00000,1,JEDDAH,Zone,,
Jeddah,West,جدة,JED001,AG00313,Khaled Salama,CS000468,تموينات الهدف,"590,548,839",,,,,,2,WED,21.60903,39.16712,"310,837,178,500,003","4,030,404,527","39,111,455,040",2023-08-05,5,,0,0.0000000,In-Active,Approved by Finance,Agent Registration,Required,,,الحامي,البوادي,00,00000,1,JEDDAH,Zone,,
Jeddah,West,جدة,JED001,AG00313,Khaled Salama,CS000469,تموينات الربيع,"537,782,093",,,Traditional Trade,Small Grocery,,2,TUE,21.63035,39.15979,"310,339,778,400,003","4,030,333,947","41,032,605,814",2023-08-05,1,,0,0.0000000,In-Active,Approved by Finance,Agent Registration,Required,,,الامل,النزهة,00,00000,1,JEDDAH,Zone,,
Jeddah,West,جدة,JED001,AG00313,Khaled Salama,CS000473,أسواق الشهري,"539,172,401",,,Traditional Trade,Medium Grocery,,2,THU,21.61053,39.12895,"300,837,388,100,003","4,030,320,259","40,092,201,951",2023-08-05,1,,0,0.0000000,In-Active,Approved by Finance,Agent Registration,Required,,,الرغامة,البركة,00,22363,1,JEDDAH,Zone,,
Jeddah,West,جدة,JED001,AG00313,Khaled Salama,CS000504,تموينات ريفا,"592,687,108",,,Traditional Trade,Medium Grocery,,2,WED,21.61241,39.16171,"302,205,832,700,003","4,030,538,619","41,032,610,009",2024-09-15,25,Credit,0,500.0000000,ACTIVE,Approved by Finance,Agent Registration,Required,2025-12-24,2024-09-23,خديجة بن خويلد,البوادي,7633,23531,2681,JEDDAH,Zone,,
Jeddah,West,الرياض,JED001,AG00313,Khaled Salama,CS000505,مؤسسة أمسو للأغذية,"501,825,535",,,Traditional Trade,Medium Grocery,,1,WED,21.78120,39.09949,"300,106,165,700,003","1,010,199,402","42,044,806,338",2024-12-12,8,Credit,13,6107.3700000,ACTIVE,Approved by Finance,Agent Registration,Required,2025-10-22,2026-10-23,شارع,الياقوت,6747,12282,3727,JEDDAH,Zone,,
Jeddah,West,جدة,JED001,AG00313,Khaled Salama,CS000513,تموينات ألين الغذائيه,"576,306,516",,,Traditional Trade,Medium Grocery,,1,MON,21.81476,39.14257,"310,926,470,900,003","4,030,415,224","450,112,729,581",2024-09-15,16,Credit,0,500.0000000,ACTIVE,Approved by Finance,Agent Registration,Required,2025-03-21,2025-06-29,وهب بن خويلد,طيبة,0,22363,0,JEDDAH,Zone,,
Jeddah,West,جدة,JED001,AG00313,Khaled Salama,CS000530,شركه كنز العالميه المحدوده,"551,085,741",,,Traditional Trade,Medium Grocery,,2,TUE,21.64254,39.13983,"310,451,896,200,003","4,030,329,766","3,909,642,251",2024-09-15,19,Credit,9,871.5200000,ACTIVE,Approved by Finance,Agent Registration,Required,2025-08-31,2025-08-05,امنه بنت وهاب,النعيم,1,23443,1,JEDDAH,Zone,,
Jeddah,West,جدة,JED001,AG00313,Khaled Salama,CS000535,متاجر الفارس الاقتصادية,"551,188,063",,,,,,1,THU,21.77053,39.22019,"311,266,059,600,003","4,030,324,117","43,109,776,762",2023-08-06,2,,0,0.0000000,In-Active,Approved by Finance,Agent Registration,Required,,,ام المؤمنين ريحانة بنت زيد,الصالحية,00,22236,1,JEDDAH,Zone,,
Jeddah,West,جدة,JED001,AG00313,Khaled Salama,CS000545,صفا ماركت,"538,316,742",,,Traditional Trade,Medium Grocery,,1,THU,21.76354,39.22234,"311,231,617,500,003","4,030,233,525","441,012,193,735",2024-09-15,17,Credit,0,500.0000000,ACTIVE,Approved by Finance,Agent Registration,Required,2025-02-19,2025-04-26,ام المؤمنين ريحانة بنت زيد (رضي الله عنها),الصالحية,0,23716,0,JEDDAH,Zone,,
Jeddah,West,جدة,JED001,AG00313,Khaled Salama,CS000554,تموينات دانة,"505,274,698",,,Traditional Trade,Medium Grocery,,2,THU,21.59270,39.14748,"312,002,543,600,003","4,030,487,553","39,111,341,001",2024-09-15,24,Credit,0,500.0000000,ACTIVE,Approved by Finance,Agent Registration,Required,2025-09-25,2025-01-22,نهضة الشرق,السلامة,7938,23437,2441,JEDDAH,Zone,,
Jeddah,West,جدة,JED001,AG00313,Khaled Salama,CS000555,أسواق ومخابز الفروسية,"507,790,483",,,,,,1,THU,21.79616,39.19888,"310,336,584,400,003","4,030,470,301","43,099,750,357",2023-08-06,0,,0,0.0000000,In-Active,Approved by Finance,Agent Registration,Required,,,النضير بن الحارث,الفروسية,00,22282,1,JEDDAH,Zone,,
Jeddah,West,جدة,JED001,AG00313,Khaled Salama,CS000556,بيت الحلاوة,"565,688,526",,,Traditional Trade,Large Grocery,,1,WED,21.77256,39.10106,"300,587,268,300,003","4,030,364,521","42,085,473,836",2023-08-06,1,,0,0.0000000,In-Active,Approved by Finance,Agent Registration,Required,,,الشارع العام,الشراع,00,23816,1,JEDDAH,Zone,,
Jeddah,West,جدة,JED001,AG00313,Khaled Salama,CS000560,تموينات تفاح,"530,079,362",,,Traditional Trade,Medium Grocery,,2,TUE,21.64252,39.13753,"311,942,627,300,003","4,030,390,625","43,059,035,379",2024-09-15,8,Credit,13,500.0000000,ACTIVE,Approved by Finance,Agent Registration,Required,2586-09-01,2024-11-28,ابن ابي المجد,المحمدية,4873,23336,7691,JEDDAH,Zone,,
Jeddah,West,جدة,JED001,AG00313,Khaled Salama,CS000565,تموينات عبدالرحمن للمواد الغذائية,"501,167,378",,,Traditional Trade,Medium Grocery,,1,THU,21.76128,39.23607,"310,707,297,800,003","4,030,390,267","40,303,902,647",2023-08-06,2,,0,0.0000000,In-Active,Approved by Finance,Agent Registration,Required,,,الشارع العام,الصالحية,00,22375,1,JEDDAH,Zone,,
Jeddah,West,جدة,JED001,AG00313,Khaled Salama,CS000581,تموينات ماسة,"556,275,290",,,,,,2,TUE,21.65546,39.12470,"311,219,466,600,003","4,030,468,772","44,000,000,000,130",2023-08-06,3,,0,0.0000000,In-Active,Approved by Finance,Agent Registration,Required,1979-11-20,1979-11-20,عبدالله بن ورقة بن جلادة,مريخ,00,23743,1,JEDDAH,Zone,,
Jeddah,West,جدة,JED001,AG00313,Khaled Salama,CS000583,تموينات متاجر الريان للمواد الغذائية,"538,897,092",,,Traditional Trade,Medium Grocery,,2,MON,21.67314,39.21280,"310,332,722,600,003","4,030,472,680","440,310,668,155",2024-09-15,16,Credit,0,500.0000000,ACTIVE,Approved by Finance,Agent Registration,Required,2025-04-26,2025-09-19,الوليد بن هشام بن معاوية,الريان,2953,23643,6951,JEDDAH,Zone,,
Jeddah,West,جدة,JED001,AG00313,Khaled Salama,CS000584,بقالة عبد العزيز سعدعبد الرحمن الشهري للمواد الغذا,"555,497,183",,,,,,2,MON,21.62487,39.19604,"310,287,400,600,003","4,030,491,764","440,711,463,594",2023-08-06,0,,0,0.0000000,In-Active,Approved by Finance,Agent Registration,Required,,,سليمان الصولة,المروة,00,67841,1,JEDDAH,Zone,,
Jeddah,West,جدة,JED001,AG00313,Khaled Salama,CS000587,مخبز وتموينات العائلة,"551,289,239",,,,,,2,MON,21.62599,39.20123,"300,089,212,900,003","4,030,135,301","39,111,418,227",2023-08-06,0,,0,0.0000000,In-Active,Approved by Finance,Agent Registration,Required,,,حسين طاهر,المروة,13856,56824,1,JEDDAH,Zone,,
Jeddah,West,جدة,JED001,AG00313,Khaled Salama,CS000598,تموينات سحاب الغدير للمواد الغذائية,"564,699,878",,,Traditional Trade,Medium Grocery,,1,TUE,21.87574,39.24008,"311,419,519,900,003","4,042,006,209","41,073,443,060",2024-09-15,11,Credit,0,500.0000000,ACTIVE,Approved by Finance,Agent Registration,Required,2026-04-25,2025-01-01,حي الوفاء,طيبة,7054,23466,2766,JEDDAH,Zone,,
Jeddah,West,جدة,JED001,AG00313,Khaled Salama,CS000599,بقالة سلتي,"535,007,351",,,,,,2,TUE,21.65546,39.12469,"302,039,495,600,003","4,030,548,299","4,030,548,299",2023-08-07,2,,0,0.0000000,In-Active,Approved by Finance,Agent Registration,Required,,,وهب بن خويلد,طيبة,00,00000,1,JEDDAH,Zone,,
Jeddah,West,جدة,JED001,AG00313,Khaled Salama,CS000600,اسواق ومخابز بيتي,"500,636,233",,,Traditional Trade,Medium Grocery,,1,MON,21.80701,39.14903,"302,029,289,000,003","4,030,458,527","4,030,458,527",2023-08-07,3,,0,0.0000000,In-Active,Approved by Finance,Agent Registration,Required,,,وهب بن خويلد,طيبة,00,00000,1,JEDDAH,Zone,,
Jeddah,West,جدة,JED001,AG00313,Khaled Salama,CS000602,متاجر العربية 1,"558,254,000",,,Traditional Trade,Medium Grocery,,1,MON,21.80248,39.14494,"310,111,613,700,003","4,031,208,402","39,111,321,866",2023-08-07,6,Credit,15,2000.0000000,ACTIVE,Approved by Finance,Agent Registration,Required,2026-02-19,2025-02-25,عمر السمرقندي,طيبة,00,00000,1,JEDDAH,Zone,,
Jeddah,West,جدة,JED001,AG00313,Khaled Salama,CS000604,اسواق الاسعار الطيبة,"509,855,345",,,Traditional Trade,Medium Grocery,,1,MON,21.80035,39.14210,"311,460,059,600,003","4,030,491,043","4,030,491,043",2023-08-07,1,,0,0.0000000,In-Active,Approved by Finance,Agent Registration,Required,,,عبدالرحمن بن ابي عبس,المنتزه,00,23456,1,JEDDAH,Zone,,
Jeddah,West,جدة,JED001,AG00313,Khaled Salama,CS000606,اسواق الريف,"555,765,808",,,Traditional Trade,Medium Grocery,,1,MON,21.79711,39.13850,"300,095,554,800,003","4,030,422,566","43,089,522,098",2024-09-15,0,,0,0.0000000,In-Active,Approved by Finance,Agent Registration,Required,2026-06-13,2026-03-28,شارع,طيبة,6825,23832,4376,JEDDAH,Zone,,
Jeddah,West,جدة,JED001,AG00313,Khaled Salama,CS000607,تموينات خالد للمواد الغذائية,"530,219,916",,,Traditional Trade,Small Grocery,,1,MON,21.79081,39.12989,"302,029,074,600,003","4,030,338,064","430,160,397,741",2023-08-07,2,,0,0.0000000,In-Active,Approved by Finance,Agent Registration,Required,,,محمد بن ذاكر,طيبة,00,000000,1,JEDDAH,Zone,,
Jeddah,West,جدة,JED001,AG00313,Khaled Salama,CS000609,تموينات مروة,"551,876,681",,,Traditional Trade,Small Grocery,,2,SAT,21.77135,39.16541,"310,798,682,500,003","4,105,265,257","41,052,652,570",2023-08-07,2,,0,0.0000000,In-Active,Approved by Finance,Agent Registration,Required,,,الشارع العام,الاصالة,00,23761,1,JEDDAH,Zone,,
Jeddah,West,جدة,JED001,AG00313,Khaled Salama,CS000610,تموينات ابو سند,"573,027,248",,,Traditional Trade,Medium Grocery,,1,TUE,21.91672,39.35068,"310,439,272,600,003","7,016,108,263","3,909,579,904",2024-09-15,15,Credit,17,856.7900000,ACTIVE,Approved by Finance,Agent Registration,Required,2025-09-07,2025-02-28,عسفان,عسفان,0,24232,0,JEDDAH,Zone,,
Jeddah,West,جدة,JED001,AG00313,Khaled Salama,CS000613,تموينات أبو سعود,"502,491,705",,,Traditional Trade,Medium Grocery,,1,TUE,21.92120,39.35207,"310,747,393,800,003","4,042,100,446","42,065,132,921",2023-08-07,1,,0,0.0000000,In-Active,Approved by Finance,Agent Registration,Required,,,الشارع العام,عسفان,00,26552,00,JEDDAH,Zone,,
Jeddah,West,جدة,JED001,AG00275,Legal  Case,CS000617,مخابز وتموينات الأصالة للتسويق,"532,536,830",,,Traditional Trade,Small Grocery,,2,SAT,21.77119,39.16478,"311,180,851,900,003","4,030,474,872","42,085,388,707",2023-08-07,16,,0,500.0000000,ACTIVE,Approved by Finance,Agent Registration,Required,,,اسماعيل الغرناطي,الاصالة,00,00000,1,JEDDAH,Assignment,,
Jeddah,West,جدة,JED001,AG00313,Khaled Salama,CS000622,تموينات ريما,"553,095,933",,,Traditional Trade,Medium Grocery,,2,THU,21.59163,39.13862,"310,566,025,900,003","4,030,431,926","440,811,853,990",2024-09-15,14,Credit,0,0.0000000,In-Active,Approved by Finance,Agent Registration,Required,2025-07-18,2026-02-16,شارع,الزهراء,2257,23532,7489,JEDDAH,Zone,,
Jeddah,West,جدة,JED001,AG00313,Khaled Salama,CS000623,تموينات الخير,"581,933,487",,,Traditional Trade,Medium Grocery,,2,SUN,21.71103,39.11238,"311,522,703,600,003","4,030,387,323","440,811,718,308",2024-09-15,52,Credit,0,500.0000000,ACTIVE,Approved by Finance,Agent Registration,Required,2025-06-30,2026-01-30,منصور العبدلي,ابحر الجنوبية,7851,23533,4134,JEDDAH,Zone,,
Jeddah,West,جدة,JED001,AG00313,Khaled Salama,CS000624,تموينات الريان,"558,054,163",,,Traditional Trade,Medium Grocery,,2,SAT,21.77942,39.18890,"311,133,177,900,003","4,030,447,298","39,111,439,893",2023-08-07,1,,0,0.0000000,In-Active,Approved by Finance,Agent Registration,Required,,,ابي الفراس الحمداني,الفلاح,1,000000,1,JEDDAH,Zone,,
Jeddah,West,جدة,JED001,AG00313,Khaled Salama,CS000630,مخبز وتموينات الخير,"503,743,556",,,Traditional Trade,Medium Grocery,,1,TUE,21.86179,39.23300,"301,165,768,500,003","4,030,311,478","440,110,349,233",2023-08-07,1,,0,0.0000000,In-Active,Approved by Finance,Agent Registration,Required,,,الشارع العام,الوفاء,00,22353,1,JEDDAH,Zone,,
Jeddah,West,جدة,JED001,AG00313,Khaled Salama,CS000633,بروزا للمواد الغذائيه,"538,073,255",,,,,,2,WED,21.61244,39.16540,"310,471,470,700,003","4,030,371,397","41,073,493,803",2023-08-07,23,,0,0.0000000,In-Active,Approved by Finance,Agent Registration,Required,2025-09-28,2025-01-31,خولة بنت عمر,البوادي,00,00000,1,JEDDAH,Zone,,
Jeddah,West,جدة,JED001,AG00313,Khaled Salama,CS000637,تموينات عبدالله,"541,873,762",,,,,,2,WED,21.61412,39.16670,"300,365,657,300,003","4,030,437,911","39,111,435,197",2023-08-07,12,,0,0.0000000,In-Active,Approved by Finance,Agent Registration,Required,2025-10-15,2025-01-10,عبدالله بن الربيع,البوادي,1,1,1,JEDDAH,Zone,,
Jeddah,West,جدة,JED001,AG00313,Khaled Salama,CS000643,مخابز وتموينات الفاز,"533,656,392",,,Traditional Trade,Medium Grocery,,2,WED,21.60974,39.19284,"311,415,635,700,003","4,030,413,576","39,111,440,073",2024-09-15,16,Credit,14,1040.2300000,ACTIVE,Approved by Finance,Agent Registration,Required,2024-12-07,2026-07-02,شهيد الدين ثم الوطن محمد رمضان حمدي المولد,المروة,7107,23541,3146,JEDDAH,Zone,,
Jeddah,West,جدة,JED001,AG00313,Khaled Salama,CS000644,تموينات نبراس الفن,"569,599,304",,,,,,2,MON,21.62715,39.20322,"311,200,423,700,003","4,030,397,984","41,073,489,369",2023-08-08,0,,0,0.0000000,In-Active,Approved by Finance,Agent Registration,Required,,,احمد الدارمي,المروة,00,23443,0,JEDDAH,Zone,,
Jeddah,West,جدة,JED001,AG00313,Khaled Salama,CS000645,اسواق ومخابز البرج,"555,635,624",,,,,,2,WED,21.61971,39.19435,"311,305,211,300,003","4,030,386,353","42,013,699,055",2023-08-08,36,,0,0.0000000,In-Active,Approved by Finance,Agent Registration,Required,,,الشهيد سرور بن عبدالله مسعود,المروة,00,23437,1,JEDDAH,Zone,,
Jeddah,West,جدة,JED001,AG00313,Khaled Salama,CS000648,تموينات احلي الزاد,"567,600,351",,,,,,2,WED,21.61896,39.19321,"311,341,027,700,003","4,030,247,273","39,111,412,296",2023-08-08,1,,0,0.0000000,In-Active,Approved by Finance,Agent Registration,Required,,,الشهيد سرور بن عبدالله مسعود,المروة,00,23541,1,JEDDAH,Zone,,
Jeddah,West,جدة,JED001,AG00313,Khaled Salama,CS000650,تموينات الهنوف الوطنية,"545,874,810",,,Traditional Trade,Small Grocery,,2,WED,21.61897,39.19116,"311,313,512,100,003","4,030,383,476","39,111,445,649",2024-09-15,54,Credit,16,1380.6500000,ACTIVE,Approved by Finance,Agent Registration,Required,2025-04-13,2025-02-27,محمد ريس,المنار,7317,22331,3200,JEDDAH,Zone,,
Jeddah,West,جدة,JED001,AG00313,Khaled Salama,CS000654,تموينات الفرح,"572,827,073",,,Traditional Trade,Small Grocery,,2,SUN,21.62043,39.10783,"300,915,075,900,003","4,030,198,055","39,111,330,978",2023-08-08,1,,0,0.0000000,In-Active,Approved by Finance,Agent Registration,Required,,,طريق الكورنيش,الشاطئ,00,00000,1,JEDDAH,Zone,,
Jeddah,West,جدة,JED001,AG00313,Khaled Salama,CS000656,تموينات الفرح,"572,427,073",,,,,,2,SUN,21.62038,39.10787,"300,915,075,800,003","4,030,198,054","39,111,330,979",2023-08-08,1,,0,0.0000000,In-Active,Approved by Finance,Agent Registration,Required,,,طريق الكورنيش,الشاطئ,1,00000,1,JEDDAH,Zone,,
Jeddah,West,جدة,JED001,AG00195,Abdulkareem Saqer,CS000658,مؤسسة البركه للمواد الغذائية,"552,868,501",,,Traditional Trade,Medium Grocery,,2,WED,21.61458,39.17863,"301,172,657,700,003","4,030,092,886","39,111,423,616",2024-09-15,9,Credit,0,3500.0000000,ACTIVE,Approved by Finance,Agent Registration,Required,2024-12-18,2025-08-06,يحي المعلمي,الربوة,7888,23535,4497,JEDDAH,Assignment,,
Jeddah,West,جدة,JED001,AG00313,Khaled Salama,CS000660,متاجر السلة الاقتصادية,"507,935,701",,,,,,1,TUE,21.85075,39.20087,"311,325,125,400,003","4,030,230,587","43,079,380,661",2023-08-08,10,,0,0.0000000,In-Active,Approved by Finance,Agent Registration,Required,2026-03-26,2027-01-25,زين العابدين علي,الرياض,00,22321,1,JEDDAH,Zone,,
Jeddah,West,جدة,JED001,AG00313,Khaled Salama,CS000668,بقالة الخير,"535,415,676",,,,,,2,WED,21.61938,39.18492,"310,768,979,800,003","3,040,420,771","42,105,715,038",2023-08-08,0,,0,0.0000000,In-Active,Approved by Finance,Agent Registration,Required,,,محمد بن عبد الحكيم,الربوة,0,23763,1,JEDDAH,Zone,,
Jeddah,West,جدة,JED001,AG00313,Khaled Salama,CS000669,تموينات الراية,"562,571,041",,,,,,1,TUE,21.85498,39.19540,"310,329,007,900,003","4,030,480,214","43,079,285,049",2023-08-08,16,Credit,11,500.0000000,ACTIVE,Approved by Finance,Agent Registration,Required,2025-06-28,2025-01-10,النصر الاسلمي,الرياض,4494,23455,7108,JEDDAH,Zone,,
Jeddah,West,جدة,JED001,AG00313,Khaled Salama,CS000671,سوبر ماركت البركة,"505,450,959",,,,,,2,TUE,21.62331,39.18583,"300,261,976,700,003","4,030,267,749","39,111,447,704",2023-08-08,3,,0,0.0000000,In-Active,Approved by Finance,Agent Registration,Required,,,محمد بن وهيب,الصفا,00,24432,11,JEDDAH,Zone,,
Jeddah,West,جدة,JED001,AG00313,Khaled Salama,CS000672,تموينات باسل,"534,776,213",,,Traditional Trade,Medium Grocery,,2,TUE,21.62392,39.18777,"302,042,463,700,003","4,030,461,028","43,089,541,905",2024-09-15,14,Credit,0,0.0000000,In-Active,Approved by Finance,Agent Registration,Required,2025-02-08,2025-02-22,شارع,المروة,0,23542,0,JEDDAH,Zone,,
Jeddah,West,جدة,JED001,AG00313,Khaled Salama,CS000673,غيث الزاد الغذائية,"537,085,046",,,,,,2,TUE,21.63710,39.14868,"311,095,863,600,003","4,030,505,366","441,112,497,811",2023-08-08,0,,0,0.0000000,In-Active,Approved by Finance,Agent Registration,Required,,,طريق المدينة المنورة,النعيم,00,23733,1,JEDDAH,Zone,,
Jeddah,West,جدة,JED001,AG00313,Khaled Salama,CS000675,بقالة نوره,"544,640,189",,,,,,2,TUE,21.62195,39.19327,"311,111,111,111,113","4,030,493,384","44,051,130,516",2023-08-08,1,,0,0.0000000,In-Active,Approved by Finance,Agent Registration,Required,,,ابن الجريح,المروة,00,23542,1,JEDDAH,Zone,,
Jeddah,West,جدة,JED001,AG00313,Khaled Salama,CS000677,السلة اليومية,"571,628,321",,,,,,1,MON,21.83364,39.19296,"310,937,727,800,003","4,030,322,118","41,012,561,454",2023-08-08,1,,0,0.0000000,In-Active,Approved by Finance,Agent Registration,Required,,,طريق عسفان,الرياض,00,65335,1,JEDDAH,Zone,,
Jeddah,West,جدة,JED001,AG00313,Khaled Salama,CS000702,تموينات سلة الغذاء,"573,443,651",,,Traditional Trade,Medium Grocery,,2,TUE,21.62472,39.13714,"300,167,168,200,003","4,030,291,957","39,111,331,761",2024-09-15,35,Credit,24,1849.0900000,ACTIVE,Approved by Finance,Agent Registration,Required,2026-01-12,2025-12-09,الامير سلطان,النعيم,0,23853,0,JEDDAH,Zone,,
Jeddah,West,جدة,JED001,AG00313,Khaled Salama,CS000707,شركة بيت الغذاء للمواد الغذائية,"566,100,481",,,Traditional Trade,Medium Grocery,,1,WED,21.77191,39.08903,"311,477,750,700,003","4,030,275,774","41,063,422,581",2024-09-15,9,,0,0.0000000,In-Active,Approved by Finance,Agent Registration,Required,2024-10-28,2024-12-26,dummy,الياقوت,00,23826,dummy,JEDDAH,Zone,,
Jeddah,West,جدة,JED001,AG00313,Khaled Salama,CS000708,تموينات السلام,"567,398,580",,,,,,2,TUE,21.62056,39.18520,"310,167,112,900,003","4,030,349,225","39,111,405,048",2023-08-09,2,,0,0.0000000,In-Active,Approved by Finance,Agent Registration,Required,,,زاكي بن كامل,النزهة,11,23536,1,JEDDAH,Zone,,
Jeddah,West,جدة,JED001,AG00313,Khaled Salama,CS000712,تموينات علوة للمواد الغذائية,"530,698,360",,,,,,2,WED,21.61976,39.17955,"310,388,564,500,003","4,030,358,908","43,016,034,855",2023-08-09,1,,0,0.0000000,In-Active,Approved by Finance,Agent Registration,Required,,,النزهة,النزهة,1,22348,1,JEDDAH,Zone,,
Jeddah,West,جدة,JED001,AG00313,Khaled Salama,CS000720,مخبز وتموينات لنا,"576,512,046",,,,,,2,TUE,21.62392,39.18746,"310,246,895,300,003","4,030,388,833","42,054,997,953",2023-08-09,20,Credit,16,500.0000000,ACTIVE,Approved by Finance,Agent Registration,NOT Required,2025-07-05,2023-11-17,ابن مهزيار,المروة,00,23526,1,JEDDAH,Zone,,
Jeddah,West,جدة,JED001,AG00313,Khaled Salama,CS000726,تموينات الاصالة العربية,"577,269,589",,,Traditional Trade,Medium Grocery,,2,WED,21.61511,39.19736,"300,026,761,500,003","4,030,493,898","39,111,406,406",2024-09-15,14,Credit,18,1417.6400000,ACTIVE,Approved by Finance,Agent Registration,Required,2029-09-17,2026-11-02,شارع,المروة,3565,23541,7678,JEDDAH,Zone,,
Jeddah,West,جدة,JED001,AG00313,Khaled Salama,CS000731,تموينات لمة العائلة,"540,587,215",,,Traditional Trade,Small Grocery,,2,THU,21.59317,39.15070,"311,111,111,111,113","4,030,504,481","440,911,947,334",2023-08-09,4,,0,0.0000000,In-Active,Approved by Finance,Agent Registration,Required,1979-11-20,2024-03-28,نهضة الشرق,السلامة,00,23437,1,JEDDAH,Zone,,
Jeddah,West,جدة,JED001,AG00313,Khaled Salama,CS000736,شركة قمر الليال التجارية,"501,040,240",,,Traditional Trade,Large Grocery,,2,MON,21.66113,39.20798,"311,444,539,600,003","4,030,382,655","39,111,452,742",2024-09-15,4,,0,0.0000000,In-Active,Approved by Finance,Agent Registration,Required,2025-03-04,2024-12-07,شارع,الريان,1,23642,1,JEDDAH,Zone,,
Jeddah,West,جدة,JED001,AG00313,Khaled Salama,CS000748,اسواق البشية,"504,817,123",,,Traditional Trade,Medium Grocery,,2,MON,21.70217,39.21312,"310,908,705,600,003","4,030,447,122","440,110,267,177",2024-09-15,18,Credit,23,1079.4700000,ACTIVE,Approved by Finance,Agent Registration,Required,2027-01-21,2025-06-26,شارع أبو بحرية التراغمي,الريان,3947,23714,8705,JEDDAH,Zone,,
Jeddah,West,جدة,JED001,AG00313,Khaled Salama,CS000760,تموينات السعادة,"567,238,206",,,Traditional Trade,Medium Grocery,,2,WED,21.61507,39.18184,"311,557,595,100,003","4,030,227,520","39,111,411,594",2024-09-15,24,Credit,0,672.6500000,ACTIVE,Approved by Finance,Agent Registration,Required,2024-12-10,2025-06-19,عبدالله الجوهري,الربوة,4737,23535,7943,JEDDAH,Zone,,
Jeddah,West,جدة,JED001,AG00313,Khaled Salama,CS000764,تموينات الجوهرة الحديثة,"505,193,710",,,Traditional Trade,Medium Grocery,,1,THU,21.76109,39.20506,"310,959,634,100,003","4,030,472,688","42,055,035,672",2024-09-15,22,Credit,14,500.0000000,ACTIVE,Approved by Finance,Agent Registration,Required,2025-04-26,2024-12-06,رضي الدين بن محمد القازاني,الصالحية,0,23763,0,JEDDAH,Zone,,
Jeddah,West,جدة,JED001,AG00313,Khaled Salama,CS000767,بقالة جدة السعيدة للمواد الغذائية,"553,927,188",,,,,,2,WED,21.61151,39.18720,"311,111,111,111,113","4,030,305,613","43,119,956,727",2023-08-09,0,,0,0.0000000,In-Active,Approved by Finance,Agent Registration,Required,,,سهيل بن صخر,الربوة,212,23111,312,JEDDAH,Zone,,
Jeddah,West,جدة,JED001,AG00313,Khaled Salama,CS000768,تموينات افريقيا,"580,617,236",,,,,,2,WED,21.60564,39.18879,"300,089,044,500,003","4,030,377,572","42,034,119,688",2023-08-09,3,,0,0.0000000,In-Active,Approved by Finance,Agent Registration,Required,,,ابوالعلاء المعري,البوادي,121,121,1213,JEDDAH,Zone,,
Jeddah,West,جدة,JED001,AG00313,Khaled Salama,CS000770,بقالة سلوي,"534,625,221",,,,,,2,WED,21.60515,39.18685,"300,112,704,100,003","4,030,410,393","39,111,393,237",2023-08-09,0,,0,0.0000000,In-Active,Approved by Finance,Agent Registration,Required,,,شارع الثلاثين,الربوة,2145,6411,323,JEDDAH,Zone,,
Jeddah,West,جدة,JED001,AG00313,Khaled Salama,CS000777,تموينات عنان,"531,571,970",,,,,,1,THU,21.76264,39.20154,"310,633,066,100,003","4,030,373,383","42,024,013,547",2023-08-10,4,,0,0.0000000,In-Active,Approved by Finance,Agent Registration,Required,,,المعري,الحمدانية,1,23535,1,JEDDAH,Zone,,
Jeddah,West,جدة,JED001,AG00313,Khaled Salama,CS000780,أسواق ومخابز بيج سيل,"558,947,587",,,Traditional Trade,Medium Grocery,,1,THU,21.76264,39.20322,"310,879,246,300,003","4,030,521,268","39,111,393,986",2024-09-15,13,Credit,0,0.0000000,In-Active,Approved by Finance,Agent Registration,Required,2025-08-20,2024-10-30,القاسم بن امية,الحمدانية,0,23326,0,JEDDAH,Zone,,
Jeddah,West,جدة,JED001,AG00313,Khaled Salama,CS000782,مخابز و تموينات ساره 4,"552,196,731",,,Traditional Trade,Medium Grocery,,2,TUE,21.62596,39.18487,"311,374,070,400,003","4,030,076,326","39,111,456,763",2024-09-15,45,Credit,15,961.9400000,ACTIVE,Approved by Finance,Agent Registration,Required,2025-01-27,2025-04-27,عبدالرحمن اللخمي,المروة,5199,22338,6348,JEDDAH,Zone,,
Jeddah,West,جدة,JED001,AG00313,Khaled Salama,CS000784,تموينات الواحة,"535,807,607",,,Traditional Trade,Medium Grocery,,2,TUE,21.62609,39.18514,"301,154,094,800,003","4,030,322,165","450,513,848,985",2024-09-15,30,Credit,0,500.0000000,ACTIVE,Approved by Finance,Agent Registration,Required,2025-07-04,2024-11-07,عبدالرحمن اللخمي,المروة,8924,23542,2280,JEDDAH,Zone,,
Jeddah,West,جدة,JED001,AG00313,Khaled Salama,CS000788,شركة فيرا زون للتجارة,"582,326,820",,,,,,2,TUE,21.63089,39.18800,"311,101,741,200,003","4,030,570,536","440,310,759,454",2023-08-10,3,,0,0.0000000,In-Active,Approved by Finance,Agent Registration,Required,,,عبدالله القصري,المروة,00,23542,1,JEDDAH,Zone,,
Jeddah,West,جدة,JED001,AG00313,Khaled Salama,CS000792,بقالة احتياجاتي للمواد الغذائية,"542,808,772",,,,,,2,TUE,21.62878,39.18382,"311,189,198,700,003","4,030,453,517","39,111,429,781",2023-08-10,0,,0,0.0000000,In-Active,Approved by Finance,Agent Registration,Required,2345-03-28,2025-01-27,علي القومي,المروة,00,23544,1,JEDDAH,Zone,,
Jeddah,West,جدة,JED001,AG00313,Khaled Salama,CS000794,تموينات و مخبز خلود,"537,290,286",,,Traditional Trade,Small Grocery,,1,THU,21.75333,39.20299,"311,557,671,600,003","4,030,501,504","440,811,682,831",2024-09-15,12,Credit,0,0.0000000,In-Active,Approved by Finance,Agent Registration,Required,2026-02-24,2025-02-05,عتبة بن سهيل,المحمدية,0,23761,0,JEDDAH,Zone,,
Jeddah,West,جدة,JED001,AG00313,Khaled Salama,CS000798,تموينات سدرة,"571,347,971",,,Traditional Trade,Medium Grocery,,2,TUE,21.62415,39.15319,"310,835,625,100,003","4,030,401,820","440,110,379,566",2023-08-10,9,,0,0.0000000,In-Active,Approved by Finance,Agent Registration,Required,2024-11-09,2023-08-08,أبي هيثم الانصاري,النعيم,00,23737,1,JEDDAH,Zone,,
Jeddah,West,جدة,JED001,AG00313,Khaled Salama,CS000803,تموينات و مخابز رامي,"565,237,131",,,Traditional Trade,Small Grocery,,1,MON,21.79621,39.13731,"300,482,462,900,003","4,030,247,164","4,030,247,164",2023-08-10,2,,0,0.0000000,In-Active,Approved by Finance,Agent Registration,Required,,,ثابت بن معاذ الانصاري,طيبة,00,00000,1,JEDDAH,Zone,,
Jeddah,West,جدة,JED001,AG00313,Khaled Salama,CS000828,مخابز أسواق البشيه,"502,151,778",,,,,,2,SAT,21.74162,39.19099,"310,889,088,800,003","4,030,467,893","39,111,427,874",2023-08-10,19,Credit,0,0.0000000,In-Active,Approved by Finance,Agent Registration,Required,2025-08-21,2024-02-22,محمد الحسن بن معاوية,الحمدانية,11385,11679,1,JEDDAH,Zone,,
Jeddah,West,جدة,JED001,AG00313,Khaled Salama,CS000840,اسواق البشية,"504,817,122",,,Traditional Trade,Medium Grocery,,2,MON,21.66879,39.20919,"310,908,705,600,003","4,030,447,122","43,109,885,996",2024-09-15,21,Credit,19,6673.2100000,ACTIVE,Approved by Finance,Agent Registration,Required,4935-07-24,2025-04-22,الحارث بن عبدالمطلب,الريان,0,23714,0,JEDDAH,Zone,,
Jeddah,West,جدة,JED001,AG00313,Khaled Salama,CS000845,خير زمان لبيع المنتجات المصرية,"546,981,410",,,,,,2,WED,21.61723,39.17807,"310,891,269,300,003","4,030,373,108","43,119,952,353",2023-08-12,0,,0,0.0000000,In-Active,Approved by Finance,Agent Registration,Required,,,جميل بن عامر,الربوة,0,22237,1,JEDDAH,Zone,,
Jeddah,West,جدة,JED001,AG00195,Abdulkareem Saqer,CS000846,مخابز و تموينات العباسى,"566,820,768",,,Traditional Trade,Medium Grocery,,2,WED,21.61879,39.18022,"300,134,475,600,003","4,030,159,310","39,111,454,425",2024-09-15,31,Credit,18,1401.7900000,ACTIVE,Approved by Finance,Agent Registration,NOT Required,2026-04-20,2025-07-31,حراء,النزهة,0,23536,0,JEDDAH,Assignment,,
Jeddah,West,جدة,JED001,AG00313,Khaled Salama,CS000849,بقالة السندس,"582,287,233",,,,,,2,WED,21.61839,39.17982,"300,749,758,900,003","4,030,380,789","39,111,441,228",2023-08-12,0,,0,0.0000000,In-Active,Approved by Finance,Agent Registration,Required,,,المحرق,النزهة,0,23535,1,JEDDAH,Zone,,
Jeddah,West,جدة,JED001,AG00313,Khaled Salama,CS000850,تموينات الوطن,"562,713,771",,,Traditional Trade,Medium Grocery,,2,TUE,21.62965,39.16615,"301,220,182,300,003","4,030,483,676","39,111,448,704",2024-09-15,10,Credit,0,500.0000000,ACTIVE,Approved by Finance,Agent Registration,Required,2026-08-12,2025-09-10,سنان الضمري,النزهة,3484,23534,7742,JEDDAH,Zone,,
Jeddah,West,جدة,JED001,AG00313,Khaled Salama,CS000854,نموينات المدينه,"530,238,742",,,Traditional Trade,Medium Grocery,,2,THU,21.58897,39.13816,"310,800,510,200,003","4,030,392,675","39,121,539,725",2024-09-15,1,Credit,0,0.0000000,In-Active,Approved by Finance,Agent Registration,Required,2025-08-27,2025-06-14,شارع,الزهراء,3100,23425,8053,JEDDAH,Zone,,
Jeddah,West,جدة,JED001,AG00313,Khaled Salama,CS000855,اسكارفس للمواد الغذائية,"508,634,878",,,,,,2,TUE,21.62998,39.16653,"311,376,651,900,003","4,030,238,582","440,811,688,624",2023-08-12,2,,0,0.0000000,In-Active,Approved by Finance,Agent Registration,Required,2025-03-02,2026-01-26,محمد سعيد نصيف,النزهة,0,23336,1,JEDDAH,Zone,,
Jeddah,West,جدة,JED001,AG00313,Khaled Salama,CS000858,تموينات الريحانه  1,"593,491,928",,,Traditional Trade,Medium Grocery,,2,MON,21.70084,39.20947,"310,952,632,900,003","4,030,418,531","40,062,061,500",2024-09-15,13,Credit,0,0.0000000,In-Active,Approved by Finance,Agent Registration,Required,2025-05-11,2024-12-22,شارع,الريان,2930,23741,7492,JEDDAH,Zone,,
Jeddah,West,جدة,JED001,AG00313,Khaled Salama,CS000863,تموينات بشار,"538,510,339",,,,,,2,THU,21.58744,39.13242,"310,110,542,400,003","4,030,573,165","39,111,330,680",2023-08-12,2,,0,0.0000000,In-Active,Approved by Finance,Agent Registration,Required,,,ابراهيم اسلام,الروضة,0,00000,1,JEDDAH,Zone,,
Jeddah,West,جدة,JED001,AG00313,Khaled Salama,CS000864,عالية ماكت,"500,028,141",,,,,,2,THU,21.59096,39.13184,"310,470,695,900,003","4,030,358,669","40,102,477,637",2023-08-12,1,,0,0.0000000,In-Active,Approved by Finance,Agent Registration,Required,,,نديم الثعلبي,الزهراء,0,00000,1,JEDDAH,Zone,,
Jeddah,West,جدة,JED001,AG00313,Khaled Salama,CS000867,هوست ماركت,"540,017,277",,,Traditional Trade,Small Grocery,,2,SUN,21.72209,39.08102,"310,115,819,700,003","4,030,401,241","4,030,401,241",2023-08-12,9,,0,0.0000000,In-Active,Approved by Finance,Agent Registration,Required,,,طريق الاميرعبدالله الفيصل,ابحر الجنوبية,0,000000,1,JEDDAH,Zone,,
Jeddah,West,جدة,JED001,AG00313,Khaled Salama,CS000881,تموينات ياسمين,"533,421,910",,,Traditional Trade,Small Grocery,,2,WED,21.59669,39.16949,"311,111,111,111,113","4,030,391,299","450,112,780,026",2023-08-12,1,,0,0.0000000,In-Active,Approved by Finance,Agent Registration,Required,,,ابو الحسن الهمداني,البوادي,0,00000,1,JEDDAH,Zone,,
Jeddah,West,جدة,JED001,AG00313,Khaled Salama,CS000882,شركة أسواق السله المتميزة التجارية,"547,379,054",,,Traditional Trade,Medium Grocery,,1,WED,21.75652,39.05711,"311,188,266,900,003","4,030,368,778","41,073,452,716",2024-09-15,18,Credit,0,1015.9400000,ACTIVE,Approved by Finance,Agent Registration,Required,2025-01-07,2027-01-01,طريق الامير,اللؤلؤ,2994,23821,6530,JEDDAH,Zone,,
Jeddah,West,جدة,JED001,AG00313,Khaled Salama,CS000886,أسواق النماء للمواد الغذائية,"508,422,766",,,Traditional Trade,Medium Grocery,,2,MON,21.70007,39.20562,"302,109,038,800,003","4,030,236,298","431,210,198,714",2024-09-15,38,Credit,0,500.0000000,ACTIVE,Approved by Finance,Agent Registration,Required,2026-05-06,2025-06-15,حبيب بن عوف العبدي,الريان,7071,23741,2554,JEDDAH,Zone,,
Jeddah,West,جدة,JED001,AG00313,Khaled Salama,CS000887,مركز منية للتسوق,"530,535,008",,,Traditional Trade,Medium Grocery,,2,TUE,21.62617,39.16362,"300,096,325,300,003","4,030,384,804","42,013,807,868",2024-12-07,22,Credit,20,1263.0600000,ACTIVE,Approved by Finance,Agent Registration,Required,2026-05-29,2025-07-09,شارع,النزهة,7350,23534,3229,JEDDAH,Zone,,
Jeddah,West,جدة,JED001,AG00313,Khaled Salama,CS000888,بقالة الفهد,"505,357,956",,,,,,2,TUE,21.62911,39.16126,"311,111,111,111,113","4,030,413,087","42,126,006,259",2023-08-12,0,,0,0.0000000,In-Active,Approved by Finance,Agent Registration,Required,,,التونس,النزهة,0000000,3048,0000,JEDDAH,Zone,,
Jeddah,West,جدة,JED001,AG00313,Khaled Salama,CS000890,بقالة جمانه,"578,025,921",,,Traditional Trade,Small Grocery,,2,THU,21.59562,39.15928,"310,498,575,300,003","4,030,374,654","41,073,444,777",2023-08-12,7,,0,0.0000000,In-Active,Approved by Finance,Agent Registration,Required,2024-11-23,2024-01-12,نهضة الشرق,السلامة,0000000,00000,0000,JEDDAH,Zone,,
Jeddah,West,جدة,JED001,AG00313,Khaled Salama,CS000891,بقالة الجهاد,"545,968,047",,,,,,2,TUE,21.62508,39.17450,"311,111,111,111,113","4,030,484,825","4,307,268,938",2023-08-12,0,,0,0.0000000,In-Active,Approved by Finance,Agent Registration,Required,,,المحرق,النزهة,0000,0000,000,JEDDAH,Zone,,
Jeddah,West,جدة,JED001,AG00313,Khaled Salama,CS000894,مركز تموينات ماجد,"553,478,272",,,,,,2,WED,21.61746,39.17080,"302,130,014,200,003","4,030,339,828","39,111,454,956",2023-08-12,0,,0,0.0000000,In-Active,Approved by Finance,Agent Registration,Required,,,مغائر شعيب,النزهة,133524,552148,1,JEDDAH,Zone,,
Jeddah,West,جدة,JED001,AG00313,Khaled Salama,CS000895,ارزاق بلادي,"563,501,957",,,Traditional Trade,Small Grocery,,2,TUE,21.61985,39.16680,"311,311,488,300,003","4,030,228,891","39,111,415,309",2023-08-12,0,,0,0.0000000,In-Active,Approved by Finance,Agent Registration,Required,,,سلطان بن سلمان,النزهة,١١٢٣١,١٦٨٢٦,١,JEDDAH,Zone,,
Jeddah,West,جدة,JED001,AG00313,Khaled Salama,CS000897,اسواق ومخابز الدرة,"554,528,896",,,Traditional Trade,Medium Grocery,,2,TUE,21.62070,39.17097,"311,476,669,500,003","4,030,511,626","41,083,523,017",2024-09-15,16,Credit,29,644.3500000,ACTIVE,Approved by Finance,Agent Registration,NOT Required,2025-05-09,2025-02-25,سلطان بن سلمان,النزهة,0,00000,0,JEDDAH,Zone,,
Jeddah,West,جدة,JED001,AG00313,Khaled Salama,CS000898,تموينات ومخابز الرضوان,"556,604,102",,,Traditional Trade,Medium Grocery,,2,TUE,21.62095,39.17217,"300,097,225,700,003","4,030,381,111","39,111,432,845",2024-09-15,33,Credit,17,891.5500000,ACTIVE,Approved by Finance,Agent Registration,Required,2025-03-31,2024-09-02,سلطان بن سلمان,النزهة,6763,23534,4113,JEDDAH,Zone,,
Jeddah,West,جدة,JED001,AG00313,Khaled Salama,CS000899,بقالة خضر,"549,322,127",,,,,,2,TUE,21.62104,39.17318,"302,283,320,500,003","4,030,133,750","42,044,807,573",2023-08-12,0,,0,0.0000000,In-Active,Approved by Finance,Agent Registration,Required,,,سلطان بن سلمان,النزهة,0000,0000,000,JEDDAH,Zone,,
Jeddah,West,جدة,JED001,AG00313,Khaled Salama,CS000900,بقاله عافية,"539,378,455",,,,,,2,WED,21.60184,39.17016,"310,338,904,700,003","4,030,502,137","440,511,023,915",,4,,0,0.0000000,In-Active,Approved by Finance,Agent Registration,Required,2024-02-16,2023-11-15,dummy,المروة,00,23526,dummy,JEDDAH,Zone,,
Jeddah,West,جدة,JED001,AG00313,Khaled Salama,CS000901,تموينات ومخابز إيمان,"572,830,594",,,Traditional Trade,Medium Grocery,,2,THU,21.60753,39.12608,"312,028,501,300,003","4,030,331,653","39,111,323,641",2024-09-15,27,Credit,0,0.0000000,In-Active,Approved by Finance,Agent Registration,Required,2024-12-26,2025-02-22,حراء,النهضة,0,23523,0,JEDDAH,Zone,,
Jeddah,West,جدة,JED001,AG00313,Khaled Salama,CS000902,تموينات زياد,"576,226,868",,,Traditional Trade,Medium Grocery,,2,SAT,21.72764,39.19594,"310,886,133,100,003","4,030,410,064","43,047,987,793",2024-09-15,11,Credit,0,0.0000000,In-Active,Approved by Finance,Agent Registration,Required,2025-01-08,2025-10-25,عبدالله بن يوسف الشبل,المنار,0,23761,0,JEDDAH,Zone,,
Jeddah,West,جدة,JED001,AG00313,Khaled Salama,CS000904,اسواق ومخابز قوت بلدي 1,"537,271,233",,,Traditional Trade,Medium Grocery,,2,THU,21.59889,39.16382,"310,959,034,700,003","4,030,419,361","39,111,430,760",2024-09-15,19,Credit,0,0.0000000,In-Active,Approved by Finance,Agent Registration,Required,2027-04-17,2024-05-06,قريش,البوادي,0,23462,0,JEDDAH,Zone,,
Jeddah,West,جدة,JED001,AG00313,Khaled Salama,CS000905,تموينات تفاح,"544,488,446",,,,,,2,WED,21.61820,39.16663,"300,609,969,600,003","4,030,390,625","43,079,407,994",2023-08-13,0,,0,0.0000000,In-Active,Approved by Finance,Agent Registration,Required,,,عبدالرحمن الفراس,النزهة,0,00000,1,JEDDAH,Zone,,
Jeddah,West,جدة,JED001,AG00059,Mohammed Saleh,CS000906,منقا مارت,"568,086,709",,,,,,2,TUE,21.62224,39.16493,"310,670,787,400,003","4,030,380,348","39,111,400,687",2023-08-13,3,,0,0.0000000,In-Active,Approved by Finance,Agent Registration,Required,2025-03-06,2024-09-30,النزهة,النزهة,0,00000,1,JEDDAH,Assignment,,
Jeddah,West,جدة,JED001,AG00313,Khaled Salama,CS000907,تموينات الأندلس,"506,165,104",,,Traditional Trade,Medium Grocery,,2,TUE,21.61809,39.13421,"310,947,833,800,003","4,030,417,825","39,111,323,661",2024-09-15,37,Credit,0,500.0000000,ACTIVE,Approved by Finance,Agent Registration,Required,2026-04-12,2025-07-10,شارع,النهضة,3701,23523,9067,JEDDAH,Zone,,
Jeddah,West,جدة,JED001,AG00313,Khaled Salama,CS000908,تموينات الحرمين,"502,343,989",,,Traditional Trade,Medium Grocery,,2,TUE,21.62138,39.17016,"310,472,519,300,003","4,030,426,275","43,016,080,313",2024-09-15,8,Credit,0,0.0000000,In-Active,Approved by Finance,Agent Registration,Required,2025-08-01,2025-07-16,محمد سعيد ناصيف,النزهة,7178,22262,4568,JEDDAH,Zone,,
Jeddah,West,جدة,JED001,AG00313,Khaled Salama,CS000911,تموينات يارا,"550,221,570",,,Traditional Trade,Medium Grocery,,2,WED,21.60173,39.16494,"301,198,359,900,003","4,030,251,698","40,052,020,285",2024-09-15,9,Credit,0,0.0000000,In-Active,Approved by Finance,Agent Registration,Required,2025-06-20,2025-10-22,عبدالرحمن بن غنام,البوادي,2948,23531,6464,JEDDAH,Zone,,
Jeddah,West,جدة,JED001,AG00313,Khaled Salama,CS000912,اسواق البشية,"502,778,610",,,,,,2,SUN,21.61544,39.12006,"310,889,088,800,003","4,030,467,893","40,112,496,169",2023-08-13,21,,0,0.0000000,In-Active,Approved by Finance,Agent Registration,Required,2025-08-21,2025-05-11,عبدالرحمن الداخل,النهضة,0,00000,1,JEDDAH,Zone,,
Jeddah,West,جدة,JED001,AG00313,Khaled Salama,CS000913,تموينات جدة الجديدة للمواد الغذائية,"550,565,296",,,Traditional Trade,Large Grocery,,2,TUE,21.62788,39.17323,"311,427,613,600,003","4,030,487,551","440,310,823,161",2023-08-13,2,,0,0.0000000,In-Active,Approved by Finance,Agent Registration,Required,2024-09-11,2024-10-02,الهوجاء,النزهة,0,23534,1,JEDDAH,Zone,,
Jeddah,West,جدة,JED001,AG00313,Khaled Salama,CS000914,بقالة النزهة الذهبية,"594,454,970",,,,,,2,TUE,21.62900,39.17268,"311,111,111,111,113","4,030,459,853","440,511,056,927",2023-08-13,2,,0,0.0000000,In-Active,Approved by Finance,Agent Registration,Required,,,الابانات,النزهة,0,0000,1,JEDDAH,Zone,,
Jeddah,West,جدة,JED001,AG00313,Khaled Salama,CS000917,اسواق ريما,"534,851,986",,,Traditional Trade,Medium Grocery,,2,TUE,21.62018,39.16668,"310,566,025,900,003","4,030,431,926","42,065,195,884",2025-01-04,9,Credit,29,618.9000000,ACTIVE,Approved by Finance,Agent Registration,Required,2025-07-18,2025-12-16,عبد الرحمن الجرادي,النزهة,2257,23532,7489,JEDDAH,Zone,,
Jeddah,West,جدة,JED001,AG00313,Khaled Salama,CS000918,اسواق رائد المركزية,"530,301,181",,,,,,1,MON,21.79470,39.13794,"311,439,103,700,003","4,030,488,989","440,410,886,201",2023-08-13,2,,0,0.0000000,In-Active,Approved by Finance,Agent Registration,Required,2024-10-07,2023-10-24,عمر بن اوس,طيبة,١١١٢٩,١١٦٨٧,١,JEDDAH,Zone,,
Jeddah,West,جدة,JED001,AG00313,Khaled Salama,CS000919,تموينات الفتح,"559,245,655",,,,,,2,TUE,21.62029,39.16645,"300,457,387,600,003","4,030,388,324","42,055,087,967",2023-08-13,1,,0,0.0000000,In-Active,Approved by Finance,Agent Registration,Required,,,سلطان بن سلمان,النزهة,0,00,1,JEDDAH,Zone,,
Jeddah,West,جدة,JED001,AG00313,Khaled Salama,CS000920,بقالة سلة تالا,"561,931,843",,,Traditional Trade,Large Grocery,,1,MON,21.80814,39.13979,"311,111,111,111,113","4,030,425,613","43,026,201,930",2023-08-13,6,,0,0.0000000,In-Active,Approved by Finance,Agent Registration,Required,2025-07-03,2026-07-27,عمير بن اوس,طيبة,١٧٨٣٦,١١٦٩٠,٥,JEDDAH,Zone,,
Jeddah,West,جدة,JED001,AG00313,Khaled Salama,CS000921,أسواق و مخابز التفاح,"565,253,986",,,Traditional Trade,Medium Grocery,,2,TUE,21.61894,39.16137,"311,942,627,300,003","4,030,390,625","39,121,535,742",2024-09-15,8,Credit,0,500.0000000,ACTIVE,Approved by Finance,Agent Registration,Required,2025-05-28,2025-02-16,سلطان بن سلمان,النزهة,4873,23336,7691,JEDDAH,Zone,,
Jeddah,West,جدة,JED001,AG00313,Khaled Salama,CS000922,تموينات الفلاح,"531,604,554",,,Traditional Trade,Small Grocery,,2,THU,21.61056,39.12514,"311,426,360,900,003","4,030,595,402","39,111,336,180",2024-09-15,16,Credit,0,500.0000000,ACTIVE,Approved by Finance,Agent Registration,Required,2025-08-22,2025-06-01,النجدي,النهضة,8920,23442,2849,JEDDAH,Zone,,
Jeddah,West,جدة,JED001,AG00313,Khaled Salama,CS000924,اسواق سراة جدة,"576,349,800",,,,,,2,TUE,21.61881,39.15944,"311,120,883,600,003","4,030,323,401","39,111,443,542",2023-08-13,2,,0,0.0000000,In-Active,Approved by Finance,Agent Registration,Required,2025-10-26,2023-08-20,سلطان بن سلمان,النزهة,0,22338,1,JEDDAH,Zone,,
Jeddah,West,جدة,JED001,AG00313,Khaled Salama,CS000925,اسواق المهند,"549,240,589",,,Traditional Trade,Medium Grocery,,2,THU,21.61808,39.15786,"300,088,436,900,003","4,030,422,305","43,089,500,394",2024-09-15,28,Credit,9,529.7700000,ACTIVE,Approved by Finance,Agent Registration,Required,2025-06-11,2025-02-09,عمرو,النزهة,6460,23532,2631,JEDDAH,Zone,,
Jeddah,West,جدة,JED001,AG00313,Khaled Salama,CS000926,تموينات الرحمة,"535,859,368",,,Traditional Trade,Medium Grocery,,2,THU,21.60928,39.12739,"311,397,163,200,003","4,030,483,810","41,103,584,127",2024-09-15,9,Credit,0,557.6400000,ACTIVE,Approved by Finance,Agent Registration,Required,2025-08-02,2025-04-29,المناهج,النهضة,0,23523,0,JEDDAH,Zone,,
Jeddah,West,جدة,JED001,AG00313,Khaled Salama,CS000928,تموينات ومخابز النور,"536,237,634",,,,,,2,THU,21.61809,39.15818,"311,018,808,500,003","4,030,132,519","44,000,000,000,077",2023-08-13,2,,0,0.0000000,In-Active,Approved by Finance,Agent Registration,Required,2024-10-01,2025-08-22,سلطان بن سلمان,النزهة,0,23523,1,JEDDAH,Zone,,
Jeddah,West,جدة,JED001,AG00313,Khaled Salama,CS000930,مخابز و تموينات سله بلادى,"552,107,980",,,Traditional Trade,Medium Grocery,,2,TUE,21.61986,39.12912,"300,439,981,600,003","4,030,281,500","41,113,608,780",2024-09-15,52,Credit,12,3409.6500000,ACTIVE,Approved by Finance,Agent Registration,Required,2025-05-03,2025-05-14,عبدالوهاب بن وهبان,النهضة,0,23615,0,JEDDAH,Zone,,
Jeddah,West,جدة,JED001,AG00313,Khaled Salama,CS000931,اسواق ومخابز تفاح,"511,074,982",,,Traditional Trade,Medium Grocery,,2,TUE,21.62129,39.19455,"311,942,627,300,003","4,030,530,047","43,089,449,571",2024-09-15,52,Credit,10,829.5500000,ACTIVE,Approved by Finance,Agent Registration,NOT Required,2025-05-26,2026-03-06,حراء,المروة,0,23336,0,JEDDAH,Zone,,
Jeddah,West,جدة,JED001,AG00313,Khaled Salama,CS000937,تموينات ياسمين,"543,131,408",,,,,,2,WED,21.61062,39.16241,"302,164,081,700,003","4,030,454,932","431,110,125,409",2023-08-13,15,,0,0.0000000,In-Active,Approved by Finance,Agent Registration,Required,2025-01-31,2025-05-28,عبدالرحمن بن الحارث,البوادي,0,00000,1,JEDDAH,Zone,,
Jeddah,West,جدة,JED001,AG00313,Khaled Salama,CS000940,اسواق ومخابز قارة الخير,"538,514,757",,,Traditional Trade,Medium Grocery,,2,THU,21.61210,39.14616,"311,218,395,300,003","4,030,289,248","39,111,325,170",2024-09-15,35,Credit,0,0.0000000,In-Active,Approved by Finance,Agent Registration,Required,2025-01-31,2024-07-24,شارع,النعيم,6166,23524,3166,JEDDAH,Zone,,
Jeddah,West,جدة,JED001,AG00313,Khaled Salama,CS000941,أسواق هيا,"553,803,110",,,,,,2,SAT,21.75945,39.19236,"310,889,088,800,003","4,030,467,893","41,123,661,607",2023-08-13,4,,0,0.0000000,In-Active,Approved by Finance,Agent Registration,Required,2025-08-21,2024-07-11,القاسم بن  امية,الحمدانية,0,000000,1,JEDDAH,Zone,,
Jeddah,West,جدة,JED001,AG00313,Khaled Salama,CS000944,سوبر ماركة الطيبات,"50,956,180",,,,,,2,TUE,21.62311,39.15897,"302,206,591,200,003","4,030,141,550","39,111,431,191",2023-08-13,0,,0,0.0000000,In-Active,Approved by Finance,Agent Registration,Required,,,فؤاد شاكر,النزهة,11642,11987,1,JEDDAH,Zone,,
Jeddah,West,جدة,JED001,AG00313,Khaled Salama,CS000945,تموينات سعود,"591,901,451",,,,,,2,TUE,21.62541,39.15740,"310,557,320,500,003","4,030,360,494","43,079,392,339",2023-08-13,0,,0,0.0000000,In-Active,Approved by Finance,Agent Registration,Required,,,صفوان بن المعطل,النزهة,0,0,1,JEDDAH,Zone,,
Jeddah,West,جدة,JED001,AG00313,Khaled Salama,CS000946,تموينات اللقماني,"598,485,254",,,,,,1,THU,21.75601,39.20717,"300,898,679,700,003","4,030,310,010","39,111,434,192",2023-08-13,4,,0,0.0000000,In-Active,Approved by Finance,Agent Registration,Required,2025-07-18,2024-11-17,ياسر بن عامر الكناني,الصالحية,0,00,1,JEDDAH,Zone,,
Jeddah,West,جدة,JED001,AG00313,Khaled Salama,CS000947,تموينات الخير,"542,343,613",,,,,,2,TUE,21.62108,39.18578,"300,245,538,100,003","4,030,255,017","440,511,153,059",2023-08-13,0,,0,0.0000000,In-Active,Approved by Finance,Agent Registration,Required,,,اعشى عوف,النزهة,00,12345,00,JEDDAH,Zone,,
Jeddah,West,جدة,JED001,AG00313,Khaled Salama,CS000955,تموينات بدجت,"501,616,112",,,,,,2,SAT,21.74671,39.14684,"311,156,348,500,003","4,030,450,058","431,210,154,361",2023-08-13,0,,0,0.0000000,In-Active,Approved by Finance,Agent Registration,Required,,,حزام بن أبي كعب,ابحر الجنوبية,0,00000,1,JEDDAH,Zone,,
Jeddah,West,جدة,JED001,AG00313,Khaled Salama,CS000967,السوق المركزي,"551,268,098",,,Traditional Trade,Medium Grocery,,2,SUN,21.69644,39.10423,"311,206,049,500,003","4,030,168,527","41,032,611,488",2024-09-15,31,Credit,0,607.1800000,ACTIVE,Approved by Finance,Agent Registration,Required,2027-08-22,2027-08-22,ابي القاسم الصحوي,المرجان,0,00000,0,JEDDAH,Zone,,
Jeddah,West,جدة,JED001,AG00313,Khaled Salama,CS000969,تموينات السلامة,"509,042,078",,,Traditional Trade,Medium Grocery,,2,SUN,21.69448,39.10439,"311,402,108,300,003","4,030,145,076","431,110,021,106",2024-09-15,38,Credit,15,1778.5700000,ACTIVE,Approved by Finance,Agent Registration,Required,2025-05-30,2025-05-07,المرجان,المرجان,3905,23715,6444,JEDDAH,Zone,,
Jeddah,West,جدة,JED001,AG00313,Khaled Salama,CS000971,تموينات الامين,"592,693,948",,,Traditional Trade,Medium Grocery,,2,SUN,21.68863,39.10645,"310,408,849,600,003","4,030,362,617","41,113,627,167",2024-09-15,33,Credit,12,733.3800000,ACTIVE,Approved by Finance,Agent Registration,Required,2025-05-02,2025-05-20,ابي عبدالله الجرواني,المرجان,3387,23456,7706,JEDDAH,Zone,,
Jeddah,West,جدة,JED001,AG00290,Mohamed Hossain,CS000979,تموينات دكان ابحر,"505,255,543",,,Traditional Trade,Medium Grocery,,2,SAT,21.73123,39.10681,"312,672,911,900,003","4,030,507,146","39,111,322,268",2024-09-15,39,Credit,14,3585.0300000,ACTIVE,Approved by Finance,Agent Registration,NOT Required,2025-04-02,2024-06-22,الامير عبدالله الفيصل,ابحر الشمالية,0,23815,0,JEDDAH,Assignment,,
Jeddah,West,جدة,JED001,AG00313,Khaled Salama,CS000994,تموينات خيرات الجود  2,"563,256,859",,,Traditional Trade,Medium Grocery,,2,TUE,21.62137,39.12891,"300,135,088,100,003","4,030,369,311","39,111,341,552",2024-09-15,7,Credit,0,500.0000000,ACTIVE,Approved by Finance,Agent Registration,Required,2024-09-27,2025-01-08,الصفا,النهضة,0,23452,0,JEDDAH,Zone,,
Jeddah,West,جدة,JED001,AG00313,Khaled Salama,CS001000,راشن زون,"533,169,875",,,Traditional Trade,Medium Grocery,,2,THU,21.59173,39.14047,"312,082,225,100,003","4,030,388,051","42,034,227,469",2024-09-15,13,Credit,12,820.6400000,ACTIVE,Approved by Finance,Agent Registration,Required,2024-12-15,2025-09-25,شارع,مشرفة,6180,23521,4340,JEDDAH,Zone,,
Jeddah,West,جدة,JED001,AG00313,Khaled Salama,CS001002,مركز البركة,"532,651,735",,,,,,2,THU,21.60767,39.14758,"311,111,111,111,113","4,030,504,286","440,811,714,867",2023-08-15,3,,0,0.0000000,In-Active,Approved by Finance,Agent Registration,Required,2024-03-06,2024-02-25,أحمد زينل,السلامة,0,0,1,JEDDAH,Zone,,
Jeddah,West,جدة,JED001,AG00313,Khaled Salama,CS001003,تموينات الاسيوية,"570,122,360",,,,,,2,THU,21.60788,39.14771,"311,055,343,500,003","4,030,504,287","440,811,714,868",2023-08-15,3,,0,0.0000000,In-Active,Approved by Finance,Agent Registration,Required,,,احمد زينل,السلامة,0,0,1,JEDDAH,Zone,,
Jeddah,West,جدة,JED001,AG00313,Khaled Salama,CS001005,تموينات فوز العز,"546,191,908",,,Traditional Trade,Medium Grocery,,2,SAT,21.76332,39.10269,"310,618,846,100,003","440,911,885,603","440,911,885,603",2024-09-15,8,Credit,0,0.0000000,In-Active,Approved by Finance,Agent Registration,Required,2025-01-20,2025-03-04,حكيم بن حزن بن ابي وهب,الشراع,0,23826,0,JEDDAH,Zone,,
Jeddah,West,جدة,JED001,AG00313,Khaled Salama,CS001006,تموينات حسن,"557,043,610",,,,,,2,THU,21.60592,39.14790,"300,240,494,300,003","4,030,570,137","41,103,566,557",2023-08-15,13,,0,0.0000000,In-Active,Approved by Finance,Agent Registration,Required,,,احمد زينل,السلامة,0,0,1,JEDDAH,Zone,,
Jeddah,West,جدة,JED001,AG00313,Khaled Salama,CS001008,أسواق البساتين للمواد الغذائية,"538,467,147",,,Traditional Trade,Medium Grocery,,2,SAT,21.79027,39.18269,"300,804,083,300,003","4,030,208,144","41,052,645,760",2024-10-28,60,Credit,13,1325.9400000,ACTIVE,Approved by Finance,Agent Registration,Required,2026-06-04,2025-11-01,النضير بن الحارث,البشائر,7161,23466,4406,JEDDAH,Zone,,
Jeddah,West,جدة,JED001,AG00313,Khaled Salama,CS001013,تموينات سلة بلادي للمواد الغذائية,"560,861,347",,,Traditional Trade,Medium Grocery,,2,THU,21.61180,39.12375,"300,439,981,600,003","4,030,281,500","39,111,336,825",2024-09-15,6,,0,0.0000000,In-Active,Approved by Finance,Agent Registration,Required,2025-05-03,2025-03-07,التامين,النهضة,4889,23615,6515,JEDDAH,Zone,,
Jeddah,West,جدة,JED001,AG00313,Khaled Salama,CS001015,المثالية للمواد الغذائية,"537,423,833",,,Traditional Trade,Medium Grocery,,2,TUE,21.64583,39.13376,"301,335,458,700,003","4,030,462,809","39,111,325,159",2024-09-15,41,Credit,0,0.0000000,In-Active,Approved by Finance,Agent Registration,Required,2025-03-06,2024-09-24,ذي قار,المحمدية,0,23623,0,JEDDAH,Zone,,
Jeddah,West,جدة,JED001,AG00313,Khaled Salama,CS001016,مخابز وتموينات سلة بلادي,"500,811,908",,,Traditional Trade,Small Grocery,,2,SUN,21.69445,39.11686,"300,439,981,600,003","4,030,203,572","41,042,624,971",2024-09-15,48,Credit,11,4695.1200000,ACTIVE,Approved by Finance,Agent Registration,Required,2024-12-12,2024-10-10,عبدالرحمن العتقي,البساتين,0,23615,4889,JEDDAH,Zone,,
Jeddah,West,جدة,JED001,AG00313,Khaled Salama,CS001040,تموينات امين,"562,048,149",,,Traditional Trade,Medium Grocery,,2,SUN,21.68868,39.10648,"311,101,735,600,003","4,030,443,593","4,309,960,849",2023-08-16,0,,0,0.0000000,In-Active,Approved by Finance,Agent Registration,Required,,,عبدالله القصري,المروة,0,0,1,JEDDAH,Zone,,
Jeddah,West,جدة,JED001,AG00313,Khaled Salama,CS001043,تموينات عبدالحميد الحربي,"536,958,064",,,,,,1,MON,21.82721,39.18399,"305,000,651,400,003","4,030,381,523","440,511,083,288",2023-08-16,2,,0,0.0000000,In-Active,Approved by Finance,Agent Registration,Required,2025-04-18,2024-11-15,شبل البجلي,البشائر,0,0,1,JEDDAH,Zone,,
Jeddah,West,جدة,JED001,AG00313,Khaled Salama,CS001046,بقالة عفاف,"561,847,335",,,,,,2,WED,21.61988,39.18810,"310,069,125,500,003","4,030,298,537","42,044,361,747",2023-08-16,5,,0,0.0000000,In-Active,Approved by Finance,Agent Registration,Required,2025-10-02,2024-10-25,شارع حراء,المروة,0,0,1,JEDDAH,Zone,,
Jeddah,West,جدة,JED001,AG00313,Khaled Salama,CS001047,اسواق و مخابز ركن الفروسيه,"541,515,438",,,Traditional Trade,Medium Grocery,,1,TUE,21.82597,39.20806,"310,688,178,400,003","7,017,746,269","42,023,893,125",2024-09-15,1,Credit,0,0.0000000,In-Active,Approved by Finance,Agent Registration,Required,2025-07-02,2023-08-29,عين القاعة,الفروسية,4244,23783,8549,JEDDAH,Zone,,
Jeddah,West,جدة,JED001,AG00313,Khaled Salama,CS001049,بقالة على الله,"569,348,562",,,Traditional Trade,Small Grocery,,1,MON,21.82700,39.20057,"310,112,383,800,003","4,030,399,703","440,511,180,637",2024-09-15,11,Credit,0,0.0000000,In-Active,Approved by Finance,Agent Registration,Required,2024-10-11,2024-11-28,عبدالله بن ابيه,الفروسية,1,23443,1,JEDDAH,Zone,,
Jeddah,West,جدة,JED001,AG00313,Khaled Salama,CS001050,تموينات السلام,"551,163,663",,,,,,2,MON,21.61580,39.21607,"311,072,262,200,003","4,030,454,414","43,079,396,924",2023-08-16,26,,0,0.0000000,In-Active,Approved by Finance,Agent Registration,Required,,,المروة,المروة,0,00000,1,JEDDAH,Zone,,
Jeddah,West,جدة,JED001,AG00313,Khaled Salama,CS001052,الحربى للتسويق,"535,355,298",,,Traditional Trade,Medium Grocery,,2,MON,21.60749,39.21111,"311,231,617,500,003","4,030,233,525","39,111,393,569",2023-08-16,2,,0,0.0000000,In-Active,Approved by Finance,Agent Registration,Required,2025-02-19,2022-09-26,عامر بن ابي ربيعة,المروة,0,23716,1,JEDDAH,Zone,,
Jeddah,West,جدة,JED001,AG00313,Khaled Salama,CS001053,تموينات امنيه,"571,158,809",,,Traditional Trade,Medium Grocery,,1,TUE,21.82862,39.21853,"310,218,695,700,003","4,030,306,273","42,126,006,928",2024-09-15,17,Credit,15,690.0800000,ACTIVE,Approved by Finance,Agent Registration,Required,2024-07-14,2024-07-21,الفروسية,الفروسية,3352,23453,6547,JEDDAH,Zone,,
Jeddah,West,جدة,JED001,AG00313,Khaled Salama,CS001064,أسواق البيشيه,"534,394,219",,,Traditional Trade,Medium Grocery,,1,TUE,21.85092,39.20080,"310,908,705,600,003","4,030,447,122","39,111,428,638",2024-09-15,19,Credit,0,500.0000000,ACTIVE,Approved by Finance,Agent Registration,Required,2024-11-21,2025-04-11,شارع,الرياض,3947,23714,8705,JEDDAH,Zone,,
Jeddah,West,جدة,JED001,AG00313,Khaled Salama,CS001065,تموينات باسل,"571,479,278",,,Traditional Trade,Medium Grocery,,1,TUE,21.83782,39.20639,"302,042,463,700,003","4,030,461,028","440,410,931,007",2024-09-15,15,Credit,27,597.6000000,ACTIVE,Approved by Finance,Agent Registration,Required,2025-02-08,2025-10-08,شارع,طيبة,2578,23542,8638,JEDDAH,Zone,,
Jeddah,West,جدة,JED001,AG00313,Khaled Salama,CS001073,تموينات سلة المنزل,"572,992,630",,,,,,2,THU,21.60417,39.14920,"310,811,499,600,003","4,030,402,667","42,055,041,056",2023-08-17,9,,0,0.0000000,In-Active,Approved by Finance,Agent Registration,Required,,,السلامة,النزهة,0,0,1,JEDDAH,Zone,,
Jeddah,West,جدة,JED001,AG00313,Khaled Salama,CS001080,تموينات المهاء المتميزة,"591,279,024",,,Traditional Trade,Small Grocery,,2,THU,21.61027,39.14761,"311,506,199,700,003","4,030,434,475","440,511,140,245",2023-08-17,2,,0,0.0000000,In-Active,Approved by Finance,Agent Registration,Required,2024-10-02,2023-12-16,علي افندي جميل,السلامة,00,00,00,JEDDAH,Zone,,
Jeddah,West,جدة,JED001,AG00313,Khaled Salama,CS001081,تموينات مها متميزة,"595,965,088",,,,,,2,THU,21.61051,39.14753,"311,111,111,111,113","4,030,434,476","440,511,140,246",2023-08-17,3,,0,0.0000000,In-Active,Approved by Finance,Agent Registration,Required,,,علي افندي جميل,السلامة,0,0,1,JEDDAH,Zone,,
Jeddah,West,جدة,JED001,AG00290,Mohamed Hossain,CS001082,جملة الأغذية الإقتصاددية,"593,463,938",,,,,,2,SAT,21.75618,39.18465,"310,314,657,300,003","4,030,324,822","441,112,440,297",2023-08-17,23,Credit,19,1806.2200000,ACTIVE,Approved by Finance,Agent Registration,NOT Required,2027-12-25,2025-07-02,الربيع بن عبدالله,الحمدانية,0,23541,1,JEDDAH,Assignment,,
Jeddah,West,جدة,JED001,AG00313,Khaled Salama,CS001089,مخابز و تموينات صفوة السلال 1,"504,917,461",,,Traditional Trade,Medium Grocery,,2,SAT,21.76078,39.10599,"310,763,728,600,003","4,030,397,103","42,065,163,969",2024-09-15,9,Credit,0,0.0000000,ACTIVE,Approved by Finance,Agent Registration,Required,2024-10-02,2023-01-31,غانم المخزومي,الشراع,8513,23815,2911,JEDDAH,Zone,,
Jeddah,West,جدة,JED001,AG00313,Khaled Salama,CS001100,تموينات امينة,"554,665,762",,,Traditional Trade,Medium Grocery,,1,THU,21.78093,39.20487,"310,659,907,900,003","4,030,386,689","39,111,414,240",2024-09-15,36,Credit,13,2282.2100000,ACTIVE,Approved by Finance,Agent Registration,Required,2025-06-15,2024-11-29,ابن ابي حليم,الفلاح,5942,23762,7676,JEDDAH,Zone,,
Jeddah,West,جدة,JED001,AG00313,Khaled Salama,CS001107,اسواق افرا,"571,090,050",,,,,,2,SAT,21.75602,39.12235,"311,170,729,900,003","4,605,004,405","4,605,004,405",2023-08-19,1,,0,0.0000000,In-Active,Approved by Finance,Agent Registration,Required,2025-03-07,2022-10-19,الاصالة,الاصالة,0,23216,1,JEDDAH,Zone,,
Jeddah,West,جدة,JED001,AG00313,Khaled Salama,CS001117,تموينات ابراج وسن,"546,286,399",,,Traditional Trade,Medium Grocery,,2,SAT,21.76688,39.18109,"310,689,301,700,003","4,031,297,562","39,111,429,841",2024-09-15,7,Credit,0,0.0000000,In-Active,Approved by Finance,Agent Registration,Required,2025-03-03,2025-03-04,شارع عام,الحمدانية,0,52335,0,JEDDAH,Zone,,
Jeddah,West,جدة,JED001,AG00313,Khaled Salama,CS001118,اسواق ذرة ابحر المركزية,"536,116,455",,,,,,1,WED,21.78521,39.09081,"311,668,411,100,003","4,030,512,407","4,030,512,407",2023-08-19,0,,0,0.0000000,In-Active,Approved by Finance,Agent Registration,Required,,,معمر بن عبدالله,الياقوت,0,0,1,JEDDAH,Zone,,
Jeddah,West,جدة,JED001,AG00313,Khaled Salama,CS001122,أسواق ومخابز الهمه المركزية,"501,160,731",,,Traditional Trade,Medium Grocery,,1,THU,21.78384,39.20729,"312,167,593,300,003","4,030,493,925","440,811,729,829",2024-09-15,6,Credit,0,0.0000000,In-Active,Approved by Finance,Agent Registration,Required,2025-10-12,2026-07-01,الرحمانية,طيبة,2860,23765,6679,JEDDAH,Zone,,
Jeddah,West,جدة,JED001,AG00313,Khaled Salama,CS001129,مخبز وتموينات سارتي  2,"560,065,169",,,Traditional Trade,Medium Grocery,,2,WED,21.60259,39.16818,"311,445,379,500,003","4,030,353,114","40,052,021,652",2024-09-15,14,Credit,0,0.0000000,In-Active,Approved by Finance,Agent Registration,Required,2025-09-09,2024-11-02,طارق بن شريق,البوادي,1,23466,1,JEDDAH,Zone,,
Jeddah,West,مكة المكرمة,JED001,AG00313,Khaled Salama,CS001130,بقالة الوصل,"505,580,105",,,,,,1,TUE,21.91371,39.34976,"311,110,640,000,003","4,030,405,797","4,030,405,797",2023-08-20,0,,0,0.0000000,In-Active,Approved by Finance,Agent Registration,Required,,,الشارع العام,عسفان,0,00000,1,JEDDAH,Zone,,
