Area,Region,City,Zone,AgentId,AgentName,CusId,CusName,BuyerPhone,ReceiverPhone,FinancePhone,CH,SubChannel,F,StartWeeks,Days,Latitude,Longitude,VAT,CR,BL,createdDate,TotalDeliveredOrders,PaymentType,CreditDays,CreditLimit,Status,Validation,CreationType,CheckIn,CRExpiryDate,BLExpiryDate,StreetName,DistrictName,AdditionalNum,ZipCode,BuildingNumber,DC,AssignmentType,Geocode Quality,Full Corrected Address
Khamis Mushait,South,وادي ابن هشبل,KHA002,AG00303,Mohamed khan,CS002352,الاقتصادية ماركت,"562,064,777",,,Traditional Trade,Medium Grocery,,1,SAT,18.60774,42.68060,"312,048,490,400,003","1,010,903,879","42,023,997,118",2024-09-15,6,Credit,13,1500.0000000,ACTIVE,Approved by Finance,Agent Registration,NOT Required,2026-06-09,2025-12-19,شارع,وادي ابن هشبل,0,13243,0,KHAMES MUSHAIT,Zone,,
Khamis Mushait,South,خميس مشيط,KHA002,AG00303,Mohamed khan,CS002633,بقالة يحى,"564,661,100",,,Traditional Trade,Medium Grocery,,2,SUN,18.32404,42.71591,"311,683,997,200,003","5,855,367,241","7,034,369,012",2023-12-13,2,,0,0.0000000,In-Active,Approved by Finance,Agent Registration,Required,2025-06-26,2025-05-22,شباعة,شباعة,8214,62461,3553,KHAMES MUSHAIT,Zone,,
Khamis Mushait,South,خميس مشيط,KHA002,AG00303,Mohamed khan,CS002642,تموينات سارة,"574,671,267",,,Traditional Trade,Medium Grocery,,2,SUN,18.31899,42.72490,"310,762,045,100,003","5,855,354,798","440,711,480,990",2024-10-20,7,Credit,16,500.0000000,ACTIVE,Approved by Finance,Agent Registration,Required,2025-08-26,2025-01-23,شارع ورقة بن نوفل,شباعة,0,62458,0,KHAMES MUSHAIT,Zone,,
Khamis Mushait,South,خميس مشيط,KHA002,AG00303,Mohamed khan,CS002647,تموينات قصة جديده للمواد الغذائية,"532,520,765",,,Traditional Trade,Medium Grocery,,2,SUN,18.31941,42.72650,"311,543,402,900,003","5,855,349,627","42,095,598,264",2024-09-15,5,Credit,0,500.0000000,ACTIVE,Approved by Finance,Agent Registration,NOT Required,2025-10-01,2024-04-07,شارع,شباعه,6976,62458,4136,KHAMES MUSHAIT,Zone,,
Khamis Mushait,South,خميس مشيط,KHA002,AG00303,Mohamed khan,CS002649,بقالة رقية مكين مكين هتان للمواد الغذائية,"551,252,352",,,Traditional Trade,Medium Grocery,,2,SUN,18.31723,42.72457,"310,297,360,300,003","5,855,368,169","450,213,011,292",2023-12-14,2,,0,0.0000000,In-Active,Approved by Finance,Agent Registration,Required,,,عمر بن الخطاب,شباعة,3959,62481,6867,KHAMES MUSHAIT,Zone,,
Khamis Mushait,South,خميس مشيط,KHA002,AG00275,Legal  Case,CS002650,أسواق براس,"508,365,196",,,Traditional Trade,Medium Grocery,,1,SUN,18.35482,42.70908,"311,473,246,800,003","5,855,346,583","440,511,027,353",2023-12-14,1,,0,500.0000000,ACTIVE,Approved by Finance,Agent Registration,Required,2025-05-12,2025-10-24,العام,صدقه بن مكارم,8777,62461,2442,KHAMES MUSHAIT,Assignment,,
Khamis Mushait,South,خميس مشيط,KHA002,AG00303,Mohamed khan,CS002651,اسواق ومخابز بريف,"555,889,855",,,Traditional Trade,Medium Grocery,,1,SUN,18.36137,42.70829,"302,062,927,400,003","5,855,354,073","43,016,107,396",2023-12-14,0,,0,0.0000000,In-Active,Approved by Finance,Agent Registration,Required,,,العام,التعاون,8364,62461,3676,KHAMES MUSHAIT,Zone,,
Khamis Mushait,South,خميس مشيط,KHA002,AG00303,Mohamed khan,CS002652,مؤسسة سلة الأبرار لتجارة الأغذية,"532,015,716",,,Traditional Trade,Large Grocery,,1,SUN,18.36360,42.70923,"301,244,079,300,003","5,855,367,581","440,611,398,631",2023-12-14,7,,0,0.0000000,In-Active,Approved by Finance,Agent Registration,Required,,,أبي ميمونة,التعاون,8713,2442,3669,KHAMES MUSHAIT,Zone,,
Khamis Mushait,South,خميس مشيط,KHA002,AG00303,Mohamed khan,CS002653,تموينات زهراء عسير للمواد الغذائية,"559,279,687",,,Traditional Trade,Medium Grocery,,1,SUN,18.36266,42.70727,"310,093,687,300,003","5,855,357,094","3,909,656,080",2023-12-14,1,,0,0.0000000,In-Active,Approved by Finance,Agent Registration,Required,,,العام,شمال التضامن,5077,62459,9794,KHAMES MUSHAIT,Zone,,
Khamis Mushait,South,خميس مشيط,KHA002,AG00275,Legal  Case,CS002654,مؤسسة بروج للمواد الغذائية,"554,489,786",,,Traditional Trade,Large Grocery,,2,SUN,18.32488,42.71340,"301,138,359,100,003","5,857,527,904","42,095,500,243",2023-12-14,10,,0,0.0000000,In-Active,Approved by Finance,Agent Registration,Required,,,العام,مصلوم,8099,62456,4776,KHAMES MUSHAIT,Assignment,,
Khamis Mushait,South,خميس مشيط,KHA002,AG00303,Mohamed khan,CS002655,تموينات عربة الرواد للمواد الغذائية,"544,777,695",,,Traditional Trade,Small Grocery,,1,SUN,18.36398,42.70942,"310,572,070,100,003","5,850,056,927","7,012,387,887",2023-12-14,8,Credit,30,823.9400000,In-Active,Approved by Finance,Agent Registration,Required,2025-06-13,2025-04-10,أبي القاسم الشيرازي,النور,6302,62493,4724,KHAMES MUSHAIT,Zone,,
Khamis Mushait,South,خميس مشيط,KHA002,AG00303,Mohamed khan,CS002659,سوق ومخبز وخضار الدولفين,"559,473,977",,,Traditional Trade,Large Grocery,,1,MON,18.31873,42.69158,"302,065,129,300,003","5,855,016,663","41,022,585,304",2023-12-16,0,,0,0.0000000,In-Active,Approved by Finance,Agent Registration,Required,,,حي حسام,الربيع,0000,002276,0000,KHAMES MUSHAIT,Zone,,
Khamis Mushait,South,خميس مشيط,KHA002,AG00303,Mohamed khan,CS002660,تموينات هاف منت للمواد الغذائيه,"556,997,141",,,Traditional Trade,Medium Grocery,,1,MON,18.31446,42.69282,"311,341,907,100,003","5,855,361,309","7,029,815,409",2023-12-16,1,,0,0.0000000,In-Active,Approved by Finance,Agent Registration,Required,2025-06-13,2024-08-28,ربيع بن سهل,الربيع,8176,62461,3282,KHAMES MUSHAIT,Zone,,
Khamis Mushait,South,خميس مشيط,KHA002,AG00303,Mohamed khan,CS002661,نجمة الحسام,"554,254,034",,,Traditional Trade,Small Grocery,,1,MON,18.31393,42.69293,"310,392,203,200,003","5,850,143,104","450,413,787,548",2023-12-16,0,,0,0.0000000,In-Active,Approved by Finance,Agent Registration,Required,,,صفوان المرادي,الربيع,4586,62461,7728,KHAMES MUSHAIT,Zone,,
Khamis Mushait,South,خميس مشيط,KHA002,AG00303,Mohamed khan,CS002663,اسواق الراية الحديثة,"505,894,425",,,Traditional Trade,Medium Grocery,,1,MON,18.30948,42.69050,"311,099,314,500,003","5,855,358,966","440,811,746,187",2024-09-15,1,Credit,0,500.0000000,ACTIVE,Approved by Finance,Agent Registration,NOT Required,2025-02-12,2027-10-31,شارع,القري,7799,62454,4244,KHAMES MUSHAIT,Zone,,
Khamis Mushait,South,خميس مشيط,KHA002,AG00303,Mohamed khan,CS002664,تموينات كنده,"554,192,527",,,Traditional Trade,Large Grocery,,1,MON,18.30904,42.69050,"310,400,269,700,003","5,850,124,747","41,042,619,856",2023-12-16,0,,0,0.0000000,In-Active,Approved by Finance,Agent Registration,Required,,,العام,حضن قلوص,7750,62454,4251,KHAMES MUSHAIT,Zone,,
Khamis Mushait,South,خميس مشيط,KHA002,AG00303,Mohamed khan,CS002665,تموينات الخميس لبيع المواد الغذائيه,"547,269,038",,,Traditional Trade,Small Grocery,,1,MON,18.30931,42.69116,"300,505,367,900,003","5,855,047,427","3,909,150,504",2023-12-16,2,,0,0.0000000,In-Active,Approved by Finance,Agent Registration,Required,2023-10-24,2023-08-07,العام,حضن قلوص,0000,0000,0000,KHAMES MUSHAIT,Zone,,
Khamis Mushait,South,خميس مشيط,KHA002,AG00303,Mohamed khan,CS002666,ميني ماركت مباهج السعودية,"560,205,175",,,Traditional Trade,Medium Grocery,,1,MON,18.31038,42.69432,"300,268,758,400,003","5,855,362,784","440,310,711,011",2024-09-15,1,,0,500.0000000,ACTIVE,Approved by Finance,Agent Registration,NOT Required,2024-10-28,2024-09-16,سراقة بن مالك,الصقور,4902,62454,7706,KHAMES MUSHAIT,Zone,,
Khamis Mushait,South,خميس مشيط,KHA002,AG00303,Mohamed khan,CS002669,تموينات سنابل الضاحيه,"541,870,390",,,Traditional Trade,Medium Grocery,,1,MON,18.31621,42.69472,"310,260,915,600,003","5,850,121,714","41,012,571,270",2023-12-16,1,,0,0.0000000,In-Active,Approved by Finance,Agent Registration,Required,,,نصر الدين الطوسي,حضن قلوص,4979,62454,8774,KHAMES MUSHAIT,Zone,,
Khamis Mushait,South,خميس مشيط,KHA002,AG00303,Mohamed khan,CS002712,مؤسسة سماء الصيف للمواد الغذائية,"550,537,940",,,Traditional Trade,Medium Grocery,,1,MON,18.32078,42.65529,"310,681,516,600,003","5,850,135,811","7,028,018,658",2023-12-22,2,,0,0.0000000,In-Active,Approved by Finance,Agent Registration,Required,2026-02-25,2024-03-12,الحزام الدائري,الزاوية,3597,62564,6981,KHAMES MUSHAIT,Zone,,
Khamis Mushait,South,خميس مشيط,KHA002,AG00303,Mohamed khan,CS002714,أسواق الفنار,"509,848,226",,,Traditional Trade,Medium Grocery,,1,MON,18.30270,42.69002,"302,133,645,800,003","5,855,368,846","39,031,437",2023-12-22,20,Credit,12,2524.7200000,ACTIVE,Approved by Finance,Agent Registration,Required,2029-07-25,2026-08-16,طريق الملك فهد,الحضارى,8476,62461,3625,KHAMES MUSHAIT,Zone,,
Khamis Mushait,South,خميس مشيط,KHA002,AG00303,Mohamed khan,CS002715,شركة السلال النقية للمواد الغذائية,"501,289,965",,,Traditional Trade,Medium Grocery,,1,MON,18.31912,42.69714,"311,272,020,200,003","5,855,359,997","7,028,760,853",2023-12-22,2,,0,0.0000000,In-Active,Approved by Finance,Agent Registration,Required,2025-03-25,2025-07-09,صيفي بن عامر,الربيع,4957,62452,8862,KHAMES MUSHAIT,Zone,,
Khamis Mushait,South,خميس مشيط,KHA002,AG00303,Mohamed khan,CS002716,بقالة الفهود للمواد الغذائية,"503,680,487",,,Traditional Trade,Small Grocery,,1,SUN,18.32500,42.69521,"310,893,424,300,003","5,855,351,765","441,112,254,506",2023-12-22,0,,0,0.0000000,In-Active,Approved by Finance,Agent Registration,Required,,,أم معبد,الواحة,5042,62455,6769,KHAMES MUSHAIT,Zone,,
Khamis Mushait,South,خميس مشيط,KHA002,AG00303,Mohamed khan,CS002717,تموينات ثربه لبيع المواد الغذائية,"576,690,324",,,Traditional Trade,Medium Grocery,,1,MON,18.31967,42.69159,"300,039,714,500,003","5,855,048,762","3,909,159,400",2023-12-22,0,,0,0.0000000,In-Active,Approved by Finance,Agent Registration,Required,,,العام,الربيع,0000,00000,0000,KHAMES MUSHAIT,Zone,,
Khamis Mushait,South,خميس مشيط,KHA002,AG00303,Mohamed khan,CS002718,اسواق العنود للمواد الغذائية,"507,657,068",,,Traditional Trade,Medium Grocery,,1,MON,18.32170,42.68442,"310,392,273,800,003","5,855,365,146","441,212,692,831",2024-11-24,0,,0,500.0000000,In-Active,Approved by Finance,Agent Registration,Required,2025-01-24,2025-06-25,شارع,الراقي,3935,62456,6655,KHAMES MUSHAIT,Zone,,
Khamis Mushait,South,خميس مشيط,KHA002,AG00303,Mohamed khan,CS002719,شركة عوض الصيعري وشريكة للتجاره,"556,168,574",,,Traditional Trade,Medium Grocery,,1,MON,18.32137,42.68118,"311,417,640,700,003","5,855,348,296","450,313,295,316",2023-12-22,1,,0,0.0000000,In-Active,Approved by Finance,Agent Registration,Required,2025-03-04,2025-05-07,سهل بن عدي,المنارة,8302,68372,3375,KHAMES MUSHAIT,Zone,,
Khamis Mushait,South,خميس مشيط,KHA002,AG00303,Mohamed khan,CS002720,بقالة لؤلؤ الدانة للمواد الغذائية,"553,975,764",,,Traditional Trade,Medium Grocery,,1,SUN,18.32406,42.69120,"311,530,283,900,003","5,855,365,060","441,012,032,202",2023-12-22,16,Credit,18,1137.4300000,ACTIVE,Approved by Finance,Agent Registration,Required,2025-01-17,2025-04-04,طريق المحاله,العمارة,5078,62454,7778,KHAMES MUSHAIT,Zone,,
Khamis Mushait,South,خميس مشيط,KHA002,AG00303,Mohamed khan,CS002721,سوبر ماركت الخليج,"500,377,271",,,Traditional Trade,Medium Grocery,,1,MON,18.31578,42.69231,"310,592,082,800,003","5,855,347,452","7,017,161,980",2023-12-22,2,,0,0.0000000,In-Active,Approved by Finance,Agent Registration,Required,2586-06-20,2025-04-16,نصر الدين الطوسي,حضن قلوص,7296,62481,4366,KHAMES MUSHAIT,Zone,,
Khamis Mushait,South,خميس مشيط,KHA002,AG00303,Mohamed khan,CS002722,مؤسسة سلة للمواد الغدائية,"532,265,234",,,Traditional Trade,Medium Grocery,,1,THU,18.33323,42.76415,"310,374,462,700,003","5,855,343,792","41,042,626,086",2023-12-22,1,,0,0.0000000,In-Active,Approved by Finance,Agent Registration,Required,2024-03-12,2021-11-15,ابن الرطبي,الشرف,0000,0000,0000,KHAMES MUSHAIT,Zone,,
Khamis Mushait,South,خميس مشيط,KHA002,AG00303,Mohamed khan,CS002737,تموينات بحر الياقوت للمواد الغذائية,"541,115,027",,,Traditional Trade,Medium Grocery,,1,THU,18.33548,42.76656,"311,208,634,200,003","5,855,358,796","43,026,202,864",2024-09-15,17,Credit,30,1713.5900000,ACTIVE,Approved by Finance,Agent Registration,NOT Required,2026-02-07,2025-10-02,خارجة بن عيد المنذر,الموسى,9237,62463,3875,KHAMES MUSHAIT,Zone,,
Khamis Mushait,South,خميس مشيط,KHA002,AG00303,Mohamed khan,CS002738,أسواق زاوية الفتح للتجارة,"555,015,332",,,Traditional Trade,Medium Grocery,,2,MON,18.31968,42.74821,"311,160,567,700,003","5,855,357,762","3,909,118,453",2023-12-25,1,,0,0.0000000,In-Active,Approved by Finance,Agent Registration,Required,,,ابن الرطبي,العزيزية,9055,62462,2489,KHAMES MUSHAIT,Zone,,
Khamis Mushait,South,خميس مشيط,KHA002,AG00303,Mohamed khan,CS002739,تموينات الجابر لبيع المواد الغذائية بالتجزئة,"554,937,385",,,Traditional Trade,Medium Grocery,,2,SUN,18.31680,42.72499,"300,459,802,900,003","5,855,016,831","3,909,160,893",2023-12-25,0,,0,0.0000000,In-Active,Approved by Finance,Agent Registration,Required,,,العام,شباعة,0000,0000,0000,KHAMES MUSHAIT,Zone,,
Khamis Mushait,South,خميس مشيط,KHA002,AG00303,Mohamed khan,CS002740,تموينات زهرة للمواد الغذائية,"538,901,764",,,Traditional Trade,Medium Grocery,,2,SUN,18.31943,42.72438,"311,881,955,500,003","5,855,369,666","450,413,678,464",2023-12-25,0,,0,0.0000000,In-Active,Approved by Finance,Agent Registration,Required,,,عمر بن الخطاب,شباعة,3144,62458,7256,KHAMES MUSHAIT,Zone,,
Khamis Mushait,South,خميس مشيط,KHA002,AG00303,Mohamed khan,CS002751,اسواق ومخابز رواد الشرق للتسوق,"533,695,891",,,Traditional Trade,Medium Grocery,,2,SAT,18.32795,42.75890,"311,337,251,700,003","5,855,356,660","450,814,883,870",2024-09-15,17,Credit,25,1559.3400000,ACTIVE,Approved by Finance,Agent Registration,Required,2025-05-04,2025-03-07,شارع ابن الرطبي,الراقي,8571,62462,2514,KHAMES MUSHAIT,Zone,,
Khamis Mushait,South,خميس مشيط,KHA002,AG00303,Mohamed khan,CS002752,اسواق ومخابز رواد الشرق,"530,047,503",,,Traditional Trade,Medium Grocery,,2,SAT,18.33331,42.76088,"311,337,251,700,003","5,855,356,660","44,000,000,000,115",2023-12-27,2,Cash,0,0.0000000,In-Active,Approved by Finance,Agent Registration,Required,2025-05-03,2025-03-07,أشيم الضبابي,الراقي,8571,62462,2514,KHAMES MUSHAIT,Zone,,
Khamis Mushait,South,خميس مشيط,KHA002,AG00275,Legal  Case,CS002754,أسواق جي سفن المركزية,"550,599,602",,,Traditional Trade,Medium Grocery,,1,WED,18.33934,42.75150,"310,166,270,300,003","5,900,141,845","441,112,377,674",2024-09-15,4,,0,500.0000000,ACTIVE,Approved by Finance,Agent Registration,Required,2025-04-12,2024-05-24,الوفاء,عتود,7795,62481,3726,KHAMES MUSHAIT,Assignment,,
Khamis Mushait,South,خميس مشيط,KHA002,AG00303,Mohamed khan,CS002755,تموينات قوت موجان,"553,965,791",,,Traditional Trade,Medium Grocery,,2,SAT,18.33690,42.75763,"311,654,876,300,003","5,855,366,748","441,112,249,672",2024-09-15,2,,0,500.0000000,ACTIVE,Approved by Finance,Agent Registration,Required,2025-06-07,2025-04-30,تميم بن الأوس,العرق الشمالي,0,62481,0,KHAMES MUSHAIT,Zone,,
Khamis Mushait,South,خميس مشيط,KHA002,AG00303,Mohamed khan,CS002756,تموينات بصمة الخير للمواد الغذائية,"500,203,211",,,Traditional Trade,Medium Grocery,,1,WED,18.33702,42.75775,"310,894,611,500,003","5,855,340,854","40,031,897,873",2023-12-27,0,,0,0.0000000,In-Active,Approved by Finance,Agent Registration,Required,,,العام,اليرموك,4741,62481,7226,KHAMES MUSHAIT,Zone,,
Khamis Mushait,South,خميس مشيط,KHA002,AG00303,Mohamed khan,CS002757,اسواق السهم اللامع للمواد الغذائيه,"532,186,406",,,Traditional Trade,Medium Grocery,,2,SAT,18.32229,42.75453,"311,979,699,500,003","5,855,365,172","440,711,435,488",2024-09-15,2,Credit,0,0.0000000,ACTIVE,Approved by Finance,Agent Registration,Required,2028-01-26,2025-12-23,جبر بن عبد الله القطبي,الراقي,0,62447,0,KHAMES MUSHAIT,Zone,,
Khamis Mushait,South,خميس مشيط,KHA002,AG00303,Mohamed khan,CS002758,تموينات باز الخميس,"558,405,181",,,Traditional Trade,Medium Grocery,,2,MON,18.31645,42.74411,"300,936,465,300,003","5,855,057,877","3,909,118,627",2024-09-15,7,Credit,0,500.0000000,ACTIVE,Approved by Finance,Agent Registration,NOT Required,2025-09-05,2024-12-31,شارع,العزيزية,5484,62461,9786,KHAMES MUSHAIT,Zone,,
Khamis Mushait,South,خميس مشيط,KHA002,AG00303,Mohamed khan,CS002760,تموينات اريج للمواد الغذائيه,"557,507,715",,,Traditional Trade,Medium Grocery,,2,MON,18.31598,42.74333,"311,111,111,111,113","5,850,125,276","450,213,013,807",2024-09-15,8,Credit,0,500.0000000,ACTIVE,Approved by Finance,Agent Registration,NOT Required,2025-07-12,2024-08-15,شارع,العزيزية,9749,62461,5405,KHAMES MUSHAIT,Zone,,
Khamis Mushait,South,خميس مشيط,KHA002,AG00303,Mohamed khan,CS002761,تموينات التفاحة لبيع المواد الغذائية,"553,580,890",,,Traditional Trade,Medium Grocery,,2,SUN,18.32311,42.73460,"311,278,397,400,003","5,855,057,320","44,000,000,000,048",2023-12-27,10,,0,0.0000000,In-Active,Approved by Finance,Agent Registration,Required,2025-03-14,2025-01-22,الملك سعود,الفتح,2539,62481,6797,KHAMES MUSHAIT,Zone,,
Khamis Mushait,South,خميس مشيط,KHA002,AG00303,Mohamed khan,CS002762,تموينات الدخل المحدود للمواد الغذائية,"501,681,169",,,Traditional Trade,Small Grocery,,1,THU,18.33560,42.76797,"310,600,768,700,003","5,855,367,073","441,112,425,371",2024-09-15,12,Credit,23,662.1600000,ACTIVE,Approved by Finance,Agent Registration,NOT Required,2025-06-12,2025-05-20,الشرف,الشرفية,4516,62463,9027,KHAMES MUSHAIT,Zone,,
Khamis Mushait,South,خميس مشيط,KHA002,AG00303,Mohamed khan,CS002763,مؤسسة اللين الراقي لتجارة الجملة و التجزئة,"505,570,463",,,Traditional Trade,Medium Grocery,,2,SAT,18.33391,42.76201,"311,111,111,111,113","5,855,366,528","441,112,237,847",2024-09-15,1,,0,500.0000000,In-Active,Approved by Finance,Agent Registration,Required,2025-04-30,2025-04-29,شارع,الموسى,0,62481,0,KHAMES MUSHAIT,Zone,,
Khamis Mushait,South,خميس مشيط,KHA002,AG00303,Mohamed khan,CS002764,أسواق النجوم العائلية,"583,761,377",,,Traditional Trade,Large Grocery,,1,WED,18.34198,42.76855,"312,576,043,400,003","5,855,381,375","3,909,171,913",2025-03-24,7,Credit,30,1206.6300000,ACTIVE,Approved by Finance,Agent Registration,Required,2027-02-05,2025-03-13,شارع,الرصاص,0,45636,0,KHAMES MUSHAIT,Zone,,
Khamis Mushait,South,خميس مشيط,KHA002,AG00303,Mohamed khan,CS002765,أسواق سلة عسير للمواد الغذائية,"532,443,230",,,Traditional Trade,Medium Grocery,,1,WED,18.34268,42.76764,"300,803,629,400,003","5,855,053,931","41,022,589,538",2023-12-27,0,,0,0.0000000,In-Active,Approved by Finance,Agent Registration,Required,,,العام,الوسام,4687,62458,9092,KHAMES MUSHAIT,Zone,,
Khamis Mushait,South,البردان,KHA002,AG00303,Mohamed khan,CS002766,اسواق و مخابز بازار,"530,233,395",,,Traditional Trade,Medium Grocery,,1,WED,18.34319,42.76700,"311,352,756,700,003","5,855,361,527","450,313,444,436",2024-09-15,5,Credit,30,1500.0000000,ACTIVE,Approved by Finance,Agent Registration,Required,2025-07-06,2024-09-26,الوسام,الموسى,9070,62679,4647,KHAMES MUSHAIT,Zone,,
Khamis Mushait,South,خميس مشيط,KHA002,AG00303,Mohamed khan,CS002767,تموينات النهضة للمواد الغذائية,"504,732,447",,,Traditional Trade,Medium Grocery,,2,SAT,18.32409,42.75208,"310,816,712,500,003","5,855,349,004","42,065,158,204",2023-12-27,0,,0,0.0000000,In-Active,Approved by Finance,Agent Registration,Required,,,العام,الراقي,4317,62465,8931,KHAMES MUSHAIT,Zone,,
Khamis Mushait,South,خميس مشيط,KHA002,AG00303,Mohamed khan,CS002768,تموينات ميناء لبيع المواد الغذائية,"504,166,211",,,Traditional Trade,Medium Grocery,,2,SAT,18.32712,42.75520,"300,529,168,200,003","5,855,253,048","3,909,652,626",2023-12-27,1,,0,0.0000000,In-Active,Approved by Finance,Agent Registration,Required,2025-08-30,2025-07-08,اسماعيل بن سعيد الثقفي,الراقي,7464,62481,4786,KHAMES MUSHAIT,Zone,,
Khamis Mushait,South,خميس مشيط,KHA002,AG00303,Mohamed khan,CS002769,تموينات رواف الجنوب للمواد الغذائية,"501,222,572",,,Traditional Trade,Medium Grocery,,1,WED,18.33663,42.75154,"311,473,822,800,003","5,855,368,946","42,095,586,324",2023-12-27,0,,0,0.0000000,In-Active,Approved by Finance,Agent Registration,Required,,,ابي موسى الجمال,الراقي,6971,62481,4321,KHAMES MUSHAIT,Zone,,
Khamis Mushait,South,خميس مشيط,KHA002,AG00303,Mohamed khan,CS002776,متاجر الاكتفاء للتسوق,"550,205,412",,,Traditional Trade,Medium Grocery,,2,SUN,18.32007,42.73527,"311,116,394,800,003","5,855,369,415","450,413,631,496",2023-12-30,2,Credit,0,5800.5400000,ACTIVE,Approved by Finance,Agent Registration,Required,2025-09-23,2025-11-21,الصناعة,الفتح,2614,62481,6407,KHAMES MUSHAIT,Zone,,
Khamis Mushait,South,خميس مشيط,KHA002,AG00303,Mohamed khan,CS002782,تموينات شريفه,"594,587,841",,,Traditional Trade,Small Grocery,,2,TUE,18.29810,42.72918,"302,083,732,200,003","5,850,127,531","450,714,493,982",2024-01-01,1,,0,0.0000000,In-Active,Approved by Finance,Agent Registration,Required,2025-04-29,2025-01-06,الروضه,الحارث بن مره,7987,62141,4951,KHAMES MUSHAIT,Zone,,
Khamis Mushait,South,خميس مشيط,KHA002,AG00303,Mohamed khan,CS002783,تموينات سلة الشعله للمواد الغذائية,"551,971,831",,,Traditional Trade,Medium Grocery,,2,TUE,18.29652,42.72952,"311,706,115,700,003","5,855,367,497","450,112,810,064",2024-01-01,0,,0,0.0000000,In-Active,Approved by Finance,Agent Registration,Required,,,الحارث بن سويد,الروضة,2629,62462,8830,KHAMES MUSHAIT,Zone,,
Khamis Mushait,South,خميس مشيط,KHA002,AG00303,Mohamed khan,CS002784,مركز الفيصل التجاري,"552,365,043",,,Traditional Trade,Small Grocery,,2,SUN,18.31865,42.72323,"311,278,397,400,003","5,855,057,320","44,000,000,000,049",2024-01-01,3,,0,0.0000000,In-Active,Approved by Finance,Agent Registration,Required,2025-03-30,2025-01-22,شباعه,العام,3031,62461,7481,KHAMES MUSHAIT,Zone,,
Khamis Mushait,South,خميس مشيط,KHA002,AG00303,Mohamed khan,CS002785,تموينات الشرفيه,"532,775,494",,,Traditional Trade,Medium Grocery,,2,TUE,18.30745,42.74136,"300,513,397,900,003","5,855,024,883","40,112,495,308",2024-09-15,16,Credit,18,500.0000000,ACTIVE,Approved by Finance,Agent Registration,Required,2025-01-22,2025-07-01,السائب بن عوام,الشرفية,8775,62461,5203,KHAMES MUSHAIT,Zone,,
Khamis Mushait,South,خميس مشيط,KHA002,AG00303,Mohamed khan,CS002786,تموينات الباحة,"589,373,981",,,Traditional Trade,Medium Grocery,,2,MON,18.30765,42.74481,"300,555,874,500,003","5,855,039,724","3,909,133,614",2024-09-15,11,Credit,0,899.4100000,ACTIVE,Approved by Finance,Agent Registration,Required,2027-06-05,2025-08-06,شارع,الشرفية,8766,62461,5567,KHAMES MUSHAIT,Zone,,
Khamis Mushait,South,خميس مشيط,KHA002,AG00303,Mohamed khan,CS002788,تموينات بحر الجورى,"575,095,751",,,Traditional Trade,Medium Grocery,,2,MON,18.30734,42.74660,"310,386,574,300,003","5,855,359,030","43,119,957,212",2024-09-15,16,Credit,22,917.9200000,ACTIVE,Approved by Finance,Agent Registration,Required,2025-02-13,2025-04-29,شارع,الشرفية,4636,62497,9012,KHAMES MUSHAIT,Zone,,
Khamis Mushait,South,خميس مشيط,KHA002,AG00303,Mohamed khan,CS002789,بقالة نور المروة للمواد الغذائية,"573,127,546",,,Traditional Trade,Small Grocery,,2,MON,18.30789,42.74939,"311,237,245,200,003","5,855,346,275","43,079,393,323",2024-01-01,0,,0,0.0000000,In-Active,Approved by Finance,Agent Registration,Required,,,طريق الملك فهد,ريحة,8182,62462,3412,KHAMES MUSHAIT,Zone,,
Khamis Mushait,South,خميس مشيط,KHA002,AG00303,Mohamed khan,CS002790,بقالة نخلة النخيل,"502,261,500",,,Traditional Trade,Small Grocery,,2,TUE,18.30281,42.74205,"311,360,677,600,003","5,855,366,837","441,112,340,130",2024-01-01,0,,0,0.0000000,In-Active,Approved by Finance,Agent Registration,Required,,,معاذ بن جبل,ام سرار,4597,62421,6818,KHAMES MUSHAIT,Zone,,
Khamis Mushait,South,خميس مشيط,KHA002,AG00275,Legal  Case,CS002791,شركة تموينات أضواء الخميس,"511,507,315",,,Traditional Trade,Medium Grocery,,2,TUE,18.30613,42.73754,"311,281,001,900,003","5,855,351,437","450,112,879,961",2024-09-15,2,,0,500.0000000,ACTIVE,Approved by Finance,Agent Registration,Required,2025-07-11,2025-07-21,جمال الدين التميمي,الشرفية,4815,62461,8565,KHAMES MUSHAIT,Assignment,,
Khamis Mushait,South,خميس مشيط,KHA002,AG00303,Mohamed khan,CS002792,بقالة فوزيه للمواد الغذائية,"550,324,417",,,Traditional Trade,Medium Grocery,,2,TUE,18.30589,42.73780,"311,685,996,600,003","7,034,643,689","441,212,565,882",2024-09-15,3,Credit,0,0.0000000,ACTIVE,Approved by Finance,Agent Registration,Required,2025-06-13,2025-06-04,الشرفية,الشرفية,0,62461,0,KHAMES MUSHAIT,Zone,,
Khamis Mushait,South,خميس مشيط,KHA002,AG00303,Mohamed khan,CS002793,بوفيه مقرمشات ساخنه,"509,154,189",,,Horca,Restaurant,,2,MON,18.30249,42.74598,"311,111,111,111,113","5,855,366,025","440,911,937,808",2024-01-01,0,,0,0.0000000,In-Active,Approved by Finance,Agent Registration,Required,,,حي ام سرار,خارج حدود الأحياء,5621,62521,8258,KHAMES MUSHAIT,Zone,,
Khamis Mushait,South,خميس مشيط,KHA002,AG00303,Mohamed khan,CS002794,تموينات شرعه القحطاني,"547,101,686",,,Traditional Trade,Small Grocery,,2,MON,18.30033,42.74658,"302,099,894,800,003","5,855,355,919","440,210,599,347",2024-01-01,0,,0,0.0000000,In-Active,Approved by Finance,Agent Registration,Required,2024-10-16,2024-09-02,عقيل بن أبي طالب,النخيل,2121,62463,7309,KHAMES MUSHAIT,Zone,,
Khamis Mushait,South,خميس مشيط,KHA002,AG00303,Mohamed khan,CS002795,تموينات اللاذقية للمواد الغذائية,"590,083,606",,,Traditional Trade,Medium Grocery,,2,MON,18.30049,42.74630,"311,367,739,300,003","5,855,364,381","440,611,339,886",2024-09-15,3,Credit,25,500.0000000,ACTIVE,Approved by Finance,Agent Registration,Required,2024-11-30,2025-12-12,عقيل بن ابي طالب,النخيل,2644,62462,6417,KHAMES MUSHAIT,Zone,,
Khamis Mushait,South,خميس مشيط,KHA002,AG00303,Mohamed khan,CS002796,تموينات نخيل الجنوب للمواد الغذائية,"507,735,463",,,Traditional Trade,Medium Grocery,,2,MON,18.30115,42.74626,"302,095,800,700,003","5,855,364,419","440,611,307,744",2024-09-15,9,Credit,30,919.5000000,ACTIVE,Approved by Finance,Agent Registration,NOT Required,2024-11-30,2024-12-18,سعد بن معاذ,النخيل,6916,62462,2283,KHAMES MUSHAIT,Zone,,
Khamis Mushait,South,خميس مشيط,KHA002,AG00303,Mohamed khan,CS002799,تموينات صديق المنزل للمواد الغذائية,"574,503,159",,,Traditional Trade,Medium Grocery,,2,SUN,18.32114,42.72395,"311,966,479,700,003","5,855,359,153","43,089,536,008",2024-09-15,12,Credit,30,713.9900000,ACTIVE,Approved by Finance,Agent Registration,NOT Required,2025-02-19,2025-02-19,شارع,شباعه,6854,62458,3399,KHAMES MUSHAIT,Zone,,
Khamis Mushait,South,خميس مشيط,KHA002,AG00303,Mohamed khan,CS002808,تموينات الراقي للتجاره,"556,269,467",,,Traditional Trade,Medium Grocery,,2,SAT,18.32534,42.75354,"310,523,538,700,003","5,855,347,791","450,213,111,299",2024-09-15,6,Credit,4,500.0000000,ACTIVE,Approved by Finance,Agent Registration,Required,2027-07-08,2025-08-14,الراقى,الكدره,7306,62456,3327,KHAMES MUSHAIT,Zone,,
Khamis Mushait,South,خميس مشيط,KHA002,AG00303,Mohamed khan,CS002810,تموينات و مخابز فود ماركت للمواد الغذائية,"576,225,936",,,Traditional Trade,Medium Grocery,,1,MON,18.30803,42.69163,"310,574,642,400,003","5,855,349,977","41,042,627,992",2024-09-15,12,Credit,17,1100.0000000,ACTIVE,Approved by Finance,Agent Registration,Required,2024-10-24,2024-10-15,شارع,الحسام,4721,62454,7598,KHAMES MUSHAIT,Zone,,
Khamis Mushait,South,خميس مشيط,KHA002,AG00303,Mohamed khan,CS002820,مؤسسة ريم للتجارة,"507,403,423",,,Traditional Trade,Medium Grocery,,2,TUE,18.30278,42.72861,"302,196,843,800,003","5,850,145,484","450,413,560,957",2024-11-24,10,Credit,22,10178.9600000,ACTIVE,Approved by Finance,Agent Registration,Required,2028-09-27,2026-09-17,شارع,الخالدية,3806,62461,8294,KHAMES MUSHAIT,Zone,,
Khamis Mushait,South,خميس مشيط,KHA002,AG00303,Mohamed khan,CS002823,مؤسسه فاطمه سعد للمواد الغذائيه,"550,042,469",,,Traditional Trade,Medium Grocery,,2,THU,18.27207,42.73742,"300,531,789,900,003","5,855,016,345","450,413,794,991",2024-09-15,6,Credit,19,1226.9000000,ACTIVE,Approved by Finance,Agent Registration,NOT Required,2025-01-12,2024-11-01,شارع,الشفا,4026,62433,8027,KHAMES MUSHAIT,Zone,,
Khamis Mushait,South,محايل,KHA002,AG00303,Mohamed khan,CS002827,تموينات محلكم,"546,554,056",,,Traditional Trade,Medium Grocery,,1,MON,18.30628,42.70292,"311,496,756,400,003","5,860,619,402","440,611,248,761",2024-09-15,12,Credit,8,592.0300000,ACTIVE,Approved by Finance,Agent Registration,NOT Required,2024-12-04,2024-12-09,سعد بن خثيمة الاوسي,عتود,4071,63751,7558,KHAMES MUSHAIT,Zone,,
Khamis Mushait,South,خميس مشيط,KHA002,AG00303,Mohamed khan,CS002829,أسواق عصر الحضاره التجاريه,"510,588,029",,,Traditional Trade,Large Grocery,,2,THU,18.26837,42.74097,"311,602,851,900,003","5,855,365,969","450,112,713,295",2024-01-03,3,,0,0.0000000,In-Active,Approved by Finance,Agent Registration,Required,2024-03-26,2024-07-07,حميدي بن حميل,ذهبان الغربي,2723,62465,6521,KHAMES MUSHAIT,Zone,,
Khamis Mushait,South,خميس مشيط,KHA002,AG00303,Mohamed khan,CS002858,أسواق حلا الجنوب للمواد الغذائية,"560,393,891",,,Traditional Trade,Large Grocery,,1,THU,18.33717,42.76433,"310,861,996,900,003","5,855,367,126","42,105,656,391",2024-01-04,2,,0,0.0000000,In-Active,Approved by Finance,Agent Registration,Required,2024-05-24,2023-09-04,انس بن عباس,اليرموك,00000,0000,0000,KHAMES MUSHAIT,Zone,,
Khamis Mushait,South,خميس مشيط,KHA002,AG00303,Mohamed khan,CS002864,تموينات قلعة رهف,"562,459,038",,,Traditional Trade,Small Grocery,,2,THU,18.28257,42.73007,"311,126,805,700,003","5,850,142,052","441,012,085,806",2024-01-06,0,,0,0.0000000,In-Active,Approved by Finance,Agent Registration,Required,,,صفوي,الخلصة,7437,62439,2512,KHAMES MUSHAIT,Zone,,
Khamis Mushait,South,خميس مشيط,KHA002,AG00303,Mohamed khan,CS002890,تموينات الفا طيبه,"507,386,003",,,Traditional Trade,Medium Grocery,,1,MON,18.31137,42.69989,"311,360,677,600,003","5,850,018,137","43,089,460,313",2024-09-15,2,,0,500.0000000,ACTIVE,Approved by Finance,Agent Registration,NOT Required,2025-10-30,2025-02-09,ذو الجشن,طيب اسم,1,00000,1,KHAMES MUSHAIT,Zone,,
Khamis Mushait,South,خميس مشيط,KHA002,AG00303,Mohamed khan,CS003014,تموينات ديم الجنوب,"552,074,689",,,Traditional Trade,Medium Grocery,,1,SUN,18.37763,42.69986,"310,113,844,300,003","5,850,131,023","450,513,915,891",2024-01-14,4,,0,0.0000000,In-Active,Approved by Finance,Agent Registration,Required,2025-02-27,2024-11-15,العام,النور,9277,62431,3308,KHAMES MUSHAIT,Zone,,
Khamis Mushait,South,خميس مشيط,KHA002,AG00303,Mohamed khan,CS003017,تموينات غيمة بلدي,"559,717,420",,,Traditional Trade,Medium Grocery,,1,SUN,18.32433,42.67281,"312,482,614,500,003","5,855,362,308","450,112,898,177",2024-01-14,12,Credit,15,1000.0000000,ACTIVE,Approved by Finance,Agent Registration,Required,2025-08-20,2025-07-20,الحزام الدائري,الجامعين,9474,62452,4331,KHAMES MUSHAIT,Zone,,
Khamis Mushait,South,خميس مشيط,KHA002,AG00303,Mohamed khan,CS003050,مؤسسة مزن زينا لتجارة الأغذية,"571,622,849",,,Traditional Trade,Large Grocery,,2,TUE,18.30456,42.72943,"300,442,892,800,003","5,850,133,528","450,313,361,714",2024-01-17,0,,0,0.0000000,In-Active,Approved by Finance,Agent Registration,Required,,,ضمك,ضمك,6538,62461,3750,KHAMES MUSHAIT,Zone,,
Khamis Mushait,South,خميس مشيط,KHA002,AG00303,Mohamed khan,CS003051,وردة الخميس,"560,086,131",,,Traditional Trade,Large Grocery,,2,TUE,18.30481,42.72944,"302,129,403,300,003","5,855,346,121","40,021,714,708",2024-01-17,0,,0,0.0000000,In-Active,Approved by Finance,Agent Registration,Required,,,الدرب,العام,2623,62461,6312,KHAMES MUSHAIT,Zone,,
Khamis Mushait,South,خميس مشيط,KHA002,AG00303,Mohamed khan,CS003156,تموينات زاوية المحاله للمواد الغذائية,"551,383,286",,,Traditional Trade,Medium Grocery,,1,SUN,18.32258,42.67479,"311,978,485,300,003","5,850,147,367","450,714,384,000",2024-02-06,0,,0,0.0000000,In-Active,Approved by Finance,Agent Registration,Required,,,طريق المحاله,سويده,7524,62567,5490,KHAMES MUSHAIT,Zone,,
Khamis Mushait,South,خميس مشيط,KHA002,AG00303,Mohamed khan,CS003171,اسواق الجندول,"533,669,106",,,Traditional Trade,Medium Grocery,,2,SAT,18.33003,42.75795,"302,208,530,400,003","5,855,347,833","41,113,611,635",2024-09-15,9,Credit,22,2147.0600000,ACTIVE,Approved by Finance,Agent Registration,NOT Required,2027-01-19,2028-04-17,اليرموك,القري,7525,62481,5010,KHAMES MUSHAIT,Zone,,
Khamis Mushait,South,خميس مشيط,KHA002,AG00303,Mohamed khan,CS003204,تموينات المرسى الجديد,"557,319,111",,,Traditional Trade,Medium Grocery,,2,SAT,18.32598,42.74519,"305,004,727,200,003","5,855,053,181","3,909,118,157",2024-09-15,13,Credit,30,1532.5300000,ACTIVE,Approved by Finance,Agent Registration,Required,2025-02-05,2025-03-08,شارع,الواحة,3643,62481,7093,KHAMES MUSHAIT,Zone,,
Khamis Mushait,South,عمق,KHA002,AG00303,Mohamed khan,CS003274,ار تو ماركت,"590,872,646",,,Traditional Trade,Medium Grocery,,1,TUE,18.35537,42.82789,"310,844,820,200,003","5,855,368,530","5,855,368,530",2024-04-03,0,,0,0.0000000,In-Active,Missing Documents,Agent Registration,Required,,,مجاهد بن يوسف بن علي العمرى,,0,62615,7171,KHAMES MUSHAIT,Zone,,
Khamis Mushait,South,خميس مشيط,KHA002,AG00303,Mohamed khan,CS003275,شركة اجدان المتحده للتجارة,"501,144,597",,,,,,1,WED,18.35378,42.82104,"311,447,071,900,003","5,855,363,496","440,611,296,856",2024-09-15,14,Credit,22,3758.2100000,ACTIVE,Approved by Finance,Agent Registration,Required,2586-01-27,2024-01-03,حمود بن ربيعان,تندحه,0,62461,0,KHAMES MUSHAIT,Zone,,
Khamis Mushait,South,خميس مشيط,KHA002,AG00303,Mohamed khan,CS003278,تموينات التوفير الدائم للمواد الغذائية,"562,586,532",,,Traditional Trade,Medium Grocery,,1,TUE,18.36478,42.83357,"311,811,050,200,003","5,855,368,783","450,413,520,998",2024-09-15,12,Credit,27,1959.8600000,ACTIVE,Approved by Finance,Agent Registration,NOT Required,2025-09-13,2024-10-07,شريح بن ذيبان,تندحه,1,62621,1,KHAMES MUSHAIT,Zone,,
Khamis Mushait,South,تندحة,KHA002,AG00303,Mohamed khan,CS003280,اسواق ومخابر جود,"511,268,520",,,Traditional Trade,Medium Grocery,,1,TUE,18.35749,42.82835,"311,304,572,100,003","5,850,137,170","41,063,189,776",2024-09-15,9,Credit,24,2476.3100000,ACTIVE,Approved by Finance,Agent Registration,NOT Required,2025-05-18,2025-12-24,شارع لبنان,تندحه,0,62461,0,KHAMES MUSHAIT,Zone,,
Khamis Mushait,South,خميس مشيط,KHA002,AG00303,Mohamed khan,CS003311,الروضه العالميه للتسويق,"549,393,671",,0543888775,Horca,Restaurant,,2,MON,18.31798,42.74608,"310,536,904,800,003","5,855,349,618","41,022,578,145",2024-04-29,0,Credit,0,0.0000000,In-Active,Approved by Finance,Agent Registration,Required,,,ابن الرطبي,الراقي,0000,62481,000,KHAMES MUSHAIT,Zone,,
Khamis Mushait,South,خميس مشيط,KHA002,AG00303,Mohamed khan,CS003366,الهاجري للاغذيه,"547,070,320",,,Traditional Trade,Large Grocery,,2,SAT,18.32587,42.74521,"312,000,095,700,003","5,855,361,220","450,112,882,192",2024-05-20,0,Credit,0,0.0000000,In-Active,Approved by Finance,Agent Registration,Required,,,ثابت اللغوي,الفتح,8639,62461,1,KHAMES MUSHAIT,Zone,,
Khamis Mushait,South,خميس مشيط,KHA002,AG00303,Mohamed khan,CS003371,تموينات سلة اليم,"537,519,939",,,Traditional Trade,Large Grocery,,1,MON,18.31065,42.67579,"310,139,071,100,003","5,857,527,538","450,614,086,128",2024-05-23,0,Credit,0,0.0000000,In-Active,Approved by Finance,Agent Registration,Required,,,حي التسامح,أحد رفيدة,6266,62486,000,KHAMES MUSHAIT,Zone,,
Khamis Mushait,South,خميس مشيط,KHA002,AG00303,Mohamed khan,CS003404,تموينات خالد للمود الغذائيه,"554,029,650",,,Traditional Trade,Small Grocery,,1,MON,18.30667,42.70418,"302,025,116,600,003","5,855,257,429","450,814,741,757",2024-09-15,12,Credit,0,500.0000000,ACTIVE,Approved by Finance,Agent Registration,Required,2025-02-27,2025-01-30,عيد النمرسي,عتود,9100,62431,3256,KHAMES MUSHAIT,Zone,,
Khamis Mushait,South,عسير,KHA002,AG00303,Mohamed khan,CS003444,الرواد للحلويات,"554,148,222",,,Traditional Trade,Medium Grocery,,2,TUE,18.28790,42.72728,"311,269,054,500,003","5,855,368,037","440,911,960,566",2024-09-15,0,,0,500.0000000,ACTIVE,Approved by Finance,Agent Registration,Required,2024-12-22,2028-02-11,شارع,الامواه,0,00000,0,KHAMES MUSHAIT,Zone,,
Khamis Mushait,South,خميس مشيط,KHA002,AG00303,Mohamed khan,CS003475,اسواق لمى الجنوب للمواد الغذائيه,"566,088,835",,,Traditional Trade,Medium Grocery,,1,SUN,18.36765,42.72166,"302,116,216,100,003","5,855,348,299","441,112,390,664",2024-07-07,1,Credit,0,0.0000000,In-Active,Approved by Finance,Agent Registration,Required,,,طريق وادي بن هشبل,النخيل,3407,62486,6775,KHAMES MUSHAIT,Zone,,
Khamis Mushait,South,خميس مشيط,KHA002,AG00303,Mohamed khan,CS003478,تموينات ثلاث ثلاثات,"541,235,786",,,Traditional Trade,Medium Grocery,,2,WED,18.29149,42.75381,"311,111,111,111,113","5,855,373,230","451,215,939,253",2024-10-05,17,Credit,18,1795.1200000,ACTIVE,Approved by Finance,Agent Registration,Required,2025-05-08,2025-05-29,شارع,شكر,4753,62465,8864,KHAMES MUSHAIT,Zone,,
Khamis Mushait,South,خميس مشيط,KHA002,AG00303,Mohamed khan,CS003479,تموينات مقصورة النسيم للمواد الغذائية,"566,447,300",,,Traditional Trade,Medium Grocery,,2,WED,18.28880,42.75537,"311,786,881,500,003","5,855,368,450","450,313,383,702",2024-09-15,13,Credit,29,1073.6500000,ACTIVE,Approved by Finance,Agent Registration,NOT Required,2025-08-29,2025-09-10,شارع سوسة,بدر,0,62465,0,KHAMES MUSHAIT,Zone,,
Khamis Mushait,South,خميس مشيط,KHA002,AG00303,Mohamed khan,CS003481,تموينات ال عبدالله لبيع المواد الغذائية,"540,303,296",,,Traditional Trade,Medium Grocery,,2,WED,18.29613,42.75933,"311,454,146,200,003","5,855,017,889","3,909,163,712",2024-09-15,3,Credit,16,500.0000000,ACTIVE,Approved by Finance,Agent Registration,Required,2025-08-28,2024-09-18,شارع,النسيم,,62465,9332,KHAMES MUSHAIT,Zone,,
Khamis Mushait,South,خميس مشيط,KHA002,AG00303,Mohamed khan,CS003483,تموينات لمى الجنوب للمواد الغذائية,"531,885,483",,,Traditional Trade,Medium Grocery,,1,MON,18.30843,42.69969,"302,116,216,100,003","5,855,348,299","450,313,445,043",2024-09-15,1,Credit,14,500.0000000,In-Active,Approved by Finance,Agent Registration,Required,2027-06-02,2024-09-26,طريق المدينة المنورة,الحسام,7154,62921,5862,KHAMES MUSHAIT,Zone,,
Khamis Mushait,South,خميس مشيط,KHA002,AG00303,Mohamed khan,CS003488,اسواق الثمانين بلس,"537,476,830",,,Traditional Trade,Medium Grocery,,1,SUN,18.36316,42.70359,"312,339,939,700,003","5,855,374,037","451,216,043,329",2024-10-10,13,Credit,19,2542.1300000,ACTIVE,Approved by Finance,Agent Registration,NOT Required,2025-06-09,2025-06-14,شارع عام,الشرفية,3391,62461,8818,KHAMES MUSHAIT,Zone,,
Khamis Mushait,South,خميس مشيط,KHA002,AG00303,Mohamed khan,CS003489,شركه قافله عسير,"500,915,784",,,Traditional Trade,Medium Grocery,,1,WED,18.33849,42.75145,"311,252,809,500,003","5,855,347,198","41,073,495,047",2024-07-10,0,Credit,0,0.0000000,In-Active,Approved by Finance,Agent Registration,Required,,,الراقي,الراقي,4319,62481,8468,KHAMES MUSHAIT,Zone,,
Khamis Mushait,South,خميس مشيط,KHA002,AG00303,Mohamed khan,CS003494,اسواق و مخابز ثلاجة الحوية,"554,563,336",,,Traditional Trade,Medium Grocery,,1,THU,18.33080,42.77474,"301,187,594,500,003","5,855,356,005","43,089,525,271",2024-09-15,15,Credit,22,1275.5400000,ACTIVE,Approved by Finance,Agent Registration,Required,2024-10-05,2024-09-20,خلاس الهاجري,الموسى,1,62463,1,KHAMES MUSHAIT,Zone,,
Khamis Mushait,South,خميس مشيط,KHA002,AG00303,Mohamed khan,CS003495,شركة قافلة عسير للأسواق المركزية,"500,915,784",,,Traditional Trade,Medium Grocery,,1,THU,18.33574,42.76722,"311,252,809,500,003","5,855,347,198","451,015,511,677",2024-09-15,8,Credit,29,1458.5200000,ACTIVE,Approved by Finance,Agent Registration,Required,2025-03-03,2025-04-21,الشرف,الشرفية,4319,62481,8468,KHAMES MUSHAIT,Zone,,
Khamis Mushait,South,خميس مشيط,KHA002,AG00303,Mohamed khan,CS003514,تموينات الصيعري,"540,557,321",,,Traditional Trade,Medium Grocery,,2,THU,18.26847,42.74091,"311,697,002,400,003","5,855,371,701","450,915,137,533",2024-10-16,10,Credit,0,500.0000000,ACTIVE,Approved by Finance,Agent Registration,Required,2025-02-11,2025-03-07,ابن ابي جرادة,الرصاص,0,62433,0,KHAMES MUSHAIT,Zone,,
Khamis Mushait,South,خميس مشيط,KHA002,AG00303,Mohamed khan,CS003556,متاجر الهدف,"504,251,607",,,Traditional Trade,Medium Grocery,,1,WED,18.33799,42.75688,"300,495,341,300,003","5,855,348,223","42,023,996,674",2024-08-11,0,Credit,0,0.0000000,In-Active,Approved by Finance,Agent Registration,Required,2026-06-27,2024-10-01,الراقي,الراقي,4907,62481,8409,KHAMES MUSHAIT,Zone,,
Khamis Mushait,South,خميس مشيط,KHA002,AG00303,Mohamed khan,CS003557,اسواق لمى الجنوب 3,"535,655,975",,,Traditional Trade,Medium Grocery,,1,SAT,18.46175,42.69766,"302,116,216,100,003","5,855,348,299","450,313,466,235",2024-09-15,4,Credit,9,500.0000000,ACTIVE,Approved by Finance,Agent Registration,Required,2027-06-02,2024-09-28,طريق الملك سعود,الراقي,7154,62921,5862,KHAMES MUSHAIT,Zone,,
Khamis Mushait,South,فتاح,KHA002,AG00303,Mohamed khan,CS003559,اسواق مرعي عايض,"536,478,426",,,Traditional Trade,Medium Grocery,,1,THU,18.32800,42.78009,"311,299,468,600,003","5,850,137,099","440,611,295,823",2024-09-15,5,Credit,0,500.0000000,In-Active,Approved by Finance,Agent Registration,Required,2025-05-02,2024-12-18,طريق الامير سلطان,الخالدية,4105,62796,6898,KHAMES MUSHAIT,Zone,,
Khamis Mushait,South,خميس مشيط,KHA002,AG00303,Mohamed khan,CS003561,تموينات ارض الغذاء,"559,040,843",,,Traditional Trade,Medium Grocery,,2,WED,18.29379,42.75251,"300,514,021,800,003","5,855,337,918","4,104,263,015",2024-08-14,3,Credit,0,0.0000000,In-Active,Approved by Finance,Agent Registration,Required,2024-10-24,2025-09-27,عاليه,شكر,9094,62465,4139,KHAMES MUSHAIT,Zone,,
Khamis Mushait,South,خميس مشيط,KHA002,AG00303,Mohamed khan,CS003573,أسواق و مخابز ثمرة الربيع المركزية,"591,210,681",,,Traditional Trade,Medium Grocery,,1,SUN,18.32696,42.69350,"310,775,107,200,003","5,855,363,437","440,511,124,853",2024-09-15,6,Credit,11,1818.9900000,ACTIVE,Approved by Finance,Agent Registration,Required,2025-10-12,2025-11-09,ام معبد,الواحة,3984,62431,6366,KHAMES MUSHAIT,Zone,,
Khamis Mushait,South,خميس مشيط,KHA002,AG00303,Mohamed khan,CS003579,مؤسسه حلا عسير للتجاره,"583,542,037",,,Traditional Trade,Medium Grocery,,1,THU,18.33761,42.77018,"311,111,111,111,113","5,855,058,872","440,511,093,770",2024-09-15,11,Credit,19,1500.0000000,ACTIVE,Approved by Finance,Agent Registration,NOT Required,2025-07-05,2024-11-21,شارع,الموسى,0,62465,0,KHAMES MUSHAIT,Zone,,
Khamis Mushait,South,خميس مشيط,KHA002,AG00303,Mohamed khan,CS003582,أسواق رازا المركزية,"552,728,560",,,Traditional Trade,Medium Grocery,,2,MON,18.29886,42.75178,"302,117,074,400,003","5,855,337,801","39,121,522,694",2024-09-15,10,Credit,22,1120.7300000,ACTIVE,Approved by Finance,Agent Registration,NOT Required,2027-03-25,2027-05-20,شارع,البوادي,7139,62462,3349,KHAMES MUSHAIT,Zone,,
Khamis Mushait,South,خميس مشيط,KHA002,AG00303,Mohamed khan,CS003586,دكان سار,"540,431,216",,,Traditional Trade,Large Grocery,,1,SUN,18.32302,42.67557,"310,077,465,600,003","5,850,233,204","40,011,580,381",2025-07-06,5,Credit,13,500.0000000,ACTIVE,Approved by Finance,Agent Registration,NOT Required,2025-06-14,2025-07-01,شارع,الواحة,3394,62455,6171,KHAMES MUSHAIT,Zone,,
Khamis Mushait,South,خميس مشيط,KHA002,AG00303,Mohamed khan,CS003589,الماس للبلاستيك,"591,373,857",,,Horca,Baylsan Wholesaler,,2,SUN,18.31272,42.72885,"300,600,865,500,003","5,855,358,568","41,012,563,680",2024-08-22,0,Credit,0,0.0000000,In-Active,Approved by Finance,Agent Registration,Required,2025-01-18,2026-07-01,قمبر,قمبر,0,62461,0,KHAMES MUSHAIT,Zone,,
Khamis Mushait,South,خميس مشيط,KHA002,AG00303,Mohamed khan,CS003590,مؤسسه تاج للبلاستيك و المنظفات,"559,051,517",,,Traditional Trade,Medium Grocery,,2,SUN,18.31381,42.73014,"302,125,393,600,003","5,855,346,686","41,063,402,441",2024-11-20,2,Credit,30,500.0000000,ACTIVE,Approved by Finance,Agent Registration,Required,2025-11-22,2026-11-30,شارع,قمبر,6631,62458,4293,KHAMES MUSHAIT,Zone,,
Khamis Mushait,South,خميس مشيط,KHA002,AG00303,Mohamed khan,CS003594,تموينات ريم للمواد الغذائية,"558,637,593",,,Traditional Trade,Small Grocery,,2,SAT,18.33550,42.74878,"310,596,519,100,003","5,855,347,824","43,026,446,564",2024-08-26,0,Credit,0,0.0000000,In-Active,Approved by Finance,Agent Registration,Required,2586-08-19,2025-08-15,على بن عبدالله الكعبى,الراقي,0,62461,0,KHAMES MUSHAIT,Zone,,
Khamis Mushait,South,خميس مشيط,KHA002,AG00303,Mohamed khan,CS003596,أسواق بركات الراقي للمواد الغذائية,"578,739,611",,,Traditional Trade,Medium Grocery,,1,WED,18.34605,42.74545,"311,269,383,100,003","5,855,366,038","441,012,216,595",2024-10-17,9,Credit,10,1500.0000000,ACTIVE,Approved by Finance,Agent Registration,NOT Required,2028-03-18,2025-04-28,الوفاء,ضمك,7686,62481,3728,KHAMES MUSHAIT,Zone,,
Khamis Mushait,South,خميس مشيط,KHA002,AG00303,Mohamed khan,CS003598,تموينات غيم الخميس للمواد الفذائية,"597,331,633",,,Traditional Trade,Small Grocery,,2,SUN,18.32049,42.71853,"310,728,050,400,003","5,855,371,072","450,714,535,342",2024-08-26,0,Credit,0,0.0000000,In-Active,Approved by Finance,Agent Registration,Required,2025-01-10,2025-01-10,الملك فهد,شباعه,٤٠٩٧,٦٢٤٥٨,٧١٢٢,KHAMES MUSHAIT,Zone,,
Khamis Mushait,South,خميس مشيط,KHA002,AG00303,Mohamed khan,CS003599,مؤسسة الاربعة والعشرين للتجارة 2,"554,802,129",,,Traditional Trade,Medium Grocery,,1,THU,18.32902,42.77173,"310,442,453,400,003","5,855,367,461","450,714,694,631",2024-09-15,0,,0,500.0000000,In-Active,Approved by Finance,Agent Registration,Required,2028-07-01,2026-01-14,خالد بن زهير الهذلي,الشرفية,6085,62481,2864,KHAMES MUSHAIT,Zone,,
Khamis Mushait,South,خميس مشيط,KHA002,AG00303,Mohamed khan,CS003601,تموينات سحابة جازان للمواد الغذائية,"501,922,653",,,Traditional Trade,Medium Grocery,,2,SAT,18.32912,42.74950,"311,004,408,300,003","5,855,354,109","43,069,112,670",2024-09-15,1,Credit,0,500.0000000,ACTIVE,Approved by Finance,Agent Registration,Required,2025-07-14,2024-12-17,الوفاء,الموسى,5272,62461,7420,KHAMES MUSHAIT,Zone,,
Khamis Mushait,South,خميس مشيط,KHA002,AG00303,Mohamed khan,CS003603,تموينات باز الصفوة للمواد الغذائية,"533,118,281",,,Traditional Trade,Small Grocery,,2,MON,18.31407,42.75195,"310,252,604,400,003","5,855,340,916","41,032,609,157",2024-08-27,0,Credit,0,0.0000000,In-Active,Approved by Finance,Agent Registration,Required,2024-10-05,2024-09-22,شارع الصفوة,العزيزية,٢٨٥٣,٦٢٤٦٢,٨٤٣٦,KHAMES MUSHAIT,Zone,,
Khamis Mushait,South,خميس مشيط,KHA002,AG00303,Mohamed khan,CS003608,تموينات الجبيل,"561,936,565",,,Traditional Trade,Medium Grocery,,2,THU,18.29058,42.74556,"300,524,765,800,003","5,855,000,335","3,909,142,061",2024-09-15,11,Credit,15,1500.0000000,ACTIVE,Approved by Finance,Agent Registration,NOT Required,2026-01-14,2025-08-09,خيثمة بن عبدالرحمن,بدر,8326,62465,3451,KHAMES MUSHAIT,Zone,,
Khamis Mushait,South,خميس مشيط,KHA002,AG00303,Mohamed khan,CS003609,اسواق الشعلة المطورة,"598,549,312",,,Traditional Trade,Small Grocery,,2,WED,18.28667,42.75976,"300,490,369,100,003","5,855,344,545","41,022,583,533",2024-09-15,23,Credit,9,1661.9900000,ACTIVE,Approved by Finance,Agent Registration,NOT Required,2025-05-18,2024-09-20,شارع,النسيم,8207,62465,4995,KHAMES MUSHAIT,Zone,,
Khamis Mushait,South,خميس مشيط,KHA002,AG00303,Mohamed khan,CS003610,أسواق الشعلة المطورة,"561,267,940",,,Traditional Trade,Medium Grocery,,2,WED,18.28652,42.76009,"300,490,369,100,003","5,855,047,254","41,063,362,558",2024-08-27,0,Credit,0,0.0000000,In-Active,Approved by Finance,Agent Registration,Required,2025-05-04,2025-01-06,طريق الرصراص,النسيم,0,62465,0,KHAMES MUSHAIT,Zone,,
Khamis Mushait,South,خميس مشيط,KHA002,AG00303,Mohamed khan,CS003611,أسواق الصيعري,"558,929,732",,,Traditional Trade,Small Grocery,,2,WED,18.28612,42.75985,"311,777,053,300,003","5,855,368,316","450,213,035,411",2024-08-27,0,Credit,0,0.0000000,In-Active,Approved by Finance,Agent Registration,Required,2025-08-08,2024-08-17,حى النسيم,النسيم,0,62465,0,KHAMES MUSHAIT,Zone,,
Khamis Mushait,South,خميس مشيط,KHA002,AG00303,Mohamed khan,CS003612,شركة ثمار الجودة,"537,859,182",,,Traditional Trade,Medium Grocery,,2,WED,18.28735,42.76375,"311,504,375,500,003","5,855,371,189","422,115,944,845",2024-08-27,1,Credit,0,0.0000000,In-Active,Approved by Finance,Agent Registration,Required,2025-01-04,2025-06-01,طريق الرصراص,النسيم,٩١٢٨,٦٢٤٦٥,٥٣٣٢,KHAMES MUSHAIT,Zone,,
Khamis Mushait,South,خميس مشيط,KHA002,AG00303,Mohamed khan,CS003613,تموينات الخير,"577,325,020",,,Traditional Trade,Medium Grocery,,1,SUN,18.34210,42.72971,"311,473,246,800,003","5,855,346,583","43,109,794,210",2024-09-15,3,Credit,0,500.0000000,ACTIVE,Approved by Finance,Agent Registration,Required,4936-01-08,2025-04-10,طريق الملك سعود,المثناه,8777,62461,2442,KHAMES MUSHAIT,Zone,,
Khamis Mushait,South,خميس مشيط,KHA002,AG00303,Mohamed khan,CS003614,تموينات همسة لين,"504,316,840",,,Traditional Trade,Medium Grocery,,1,SUN,18.34021,42.72098,"310,768,977,400,003","5,850,121,373","44,000,000,000,116",2024-08-28,0,Credit,0,0.0000000,In-Active,Approved by Finance,Agent Registration,Required,2025-08-02,2025-03-16,شوان العام,شباعة,0,62521,0,KHAMES MUSHAIT,Zone,,
Khamis Mushait,South,ابها,KHA002,AG00303,Mohamed khan,CS003616,اسواق جدي,"530,057,121",,,Traditional Trade,Medium Grocery,,1,WED,18.33955,42.75541,"300,587,461,900,003","5,850,127,069","451,015,503,919",2024-09-15,10,Credit,30,1500.0000000,ACTIVE,Approved by Finance,Agent Registration,NOT Required,2025-02-01,2025-06-24,اصيل الهذلي,الياقوت,2305,62527,8096,KHAMES MUSHAIT,Zone,,
Khamis Mushait,South,خميس مشيط,KHA002,AG00303,Mohamed khan,CS003617,أسواق جناح الوسام المركزية,"572,919,648",,,Traditional Trade,Small Grocery,,1,WED,18.34034,42.75431,"310,686,686,400,003","5,855,254,595","41,063,019,857",2024-09-15,4,Credit,30,993.4100000,ACTIVE,Approved by Finance,Agent Registration,Required,2025-01-25,2025-11-27,يرموك,الحرير,0,23433,0,KHAMES MUSHAIT,Zone,,
Khamis Mushait,South,خميس مشيط,KHA002,AG00303,Mohamed khan,CS003627,أسواق ومخابز كان,"555,099,277",,,Traditional Trade,Medium Grocery,,1,THU,18.32354,42.76797,"311,486,945,200,003","5,855,364,305","450,413,796,634",2024-09-15,2,Credit,0,500.0000000,In-Active,Approved by Finance,Agent Registration,Required,2024-11-25,2024-11-01,حصين بن هرين التميمي,الشرفية,7838,62463,3959,KHAMES MUSHAIT,Zone,,
Khamis Mushait,South,خميس مشيط,KHA002,AG00303,Mohamed khan,CS003628,تموينات عربة الحارة للمواد الغذائية,"552,723,332",,,Traditional Trade,Small Grocery,,1,THU,18.32916,42.76715,"311,565,673,900,003","5,855,365,587","450,313,355,780",2024-09-15,6,Credit,16,600.1600000,ACTIVE,Approved by Finance,Agent Registration,Required,2026-02-18,2024-09-18,الشرف,الشرفية,0,62463,0,KHAMES MUSHAIT,Zone,,
Khamis Mushait,South,خميس مشيط,KHA002,AG00303,Mohamed khan,CS003629,شركة ريشة ولون للتجارة,"558,441,907",,,Traditional Trade,Medium Grocery,,1,WED,18.33905,42.77245,"311,313,346,100,003","5,855,367,229","450,513,833,036",2024-09-15,0,,0,500.0000000,ACTIVE,Approved by Finance,Agent Registration,Required,2025-05-31,2024-12-15,شارع ابن الرطبي,الشرفية,4442,62463,9550,KHAMES MUSHAIT,Zone,,
Khamis Mushait,South,خميس مشيط,KHA002,AG00303,Mohamed khan,CS003631,بروميد,"506,552,724",,,Traditional Trade,Large Grocery,,1,WED,18.35380,42.82086,"311,447,071,900,003","5,855,363,496","450,614,158,000",2024-08-29,0,Credit,0,0.0000000,In-Active,Approved by Finance,Agent Registration,Required,2024-10-17,2024-12-09,طريق الرياض,الموسى,٣٨١١,٦٢٤٦١,٧٩٧٦,KHAMES MUSHAIT,Zone,,
Khamis Mushait,South,خميس مشيط,KHA002,AG00303,Mohamed khan,CS003632,تموينات ار تو للمواد الغذائيه (ارتو ماركت),"500,418,175",,,Traditional Trade,Large Grocery,,1,TUE,18.35532,42.82791,"310,844,820,200,003","5,855,368,530","450,313,302,583",2024-09-15,18,Credit,22,1676.6600000,ACTIVE,Approved by Finance,Agent Registration,NOT Required,2025-09-13,2024-09-12,ابن الرطبي,تندحه,1,62615,1,KHAMES MUSHAIT,Zone,,
Khamis Mushait,South,ابها,KHA002,AG00303,Mohamed khan,CS003634,متاجر الهدف,"509,680,436",,,Traditional Trade,Medium Grocery,,1,TUE,18.36477,42.83406,"300,495,341,300,003","5,850,131,724","43,047,975,354",2024-08-29,0,Credit,0,0.0000000,In-Active,Approved by Finance,Agent Registration,Required,2025-04-27,2024-12-07,الصفا,الصفاء,0,62561,0,KHAMES MUSHAIT,Zone,,
Khamis Mushait,South,خميس مشيط,KHA002,AG00303,Mohamed khan,CS003636,ريم القمم للبلاستيك,"576,191,920",,,Traditional Trade,Medium Grocery,,2,THU,18.28672,42.72751,"310,144,932,100,003","5,850,233,738","39,111,333,369",2024-11-18,4,Credit,30,1039.0200000,ACTIVE,Approved by Finance,Agent Registration,Required,2025-09-28,2025-05-12,شارع,ضمك,0,62441,0,KHAMES MUSHAIT,Zone,,
Khamis Mushait,South,خميس مشيط,KHA002,AG00303,Mohamed khan,CS003637,تموينات سنابل الخميس للمواد الغذائية,"511,546,513",,,Traditional Trade,Small Grocery,,1,WED,18.34072,42.77358,"311,736,418,300,003","5,855,366,529","441,012,135,521",2024-09-15,16,Credit,13,664.6900000,In-Active,Approved by Finance,Agent Registration,Required,2025-04-30,2025-04-24,الشرف,الشرفية,3345,62463,8541,KHAMES MUSHAIT,Zone,,
Khamis Mushait,South,تندحة,KHA002,AG00303,Mohamed khan,CS003638,تموينات انوار تندحة للمواد الغذائية,"500,613,676",0551254096,,,,,1,TUE,18.36290,42.82817,"302,235,302,400,003","5,850,117,911","40,082,127,227",2024-09-15,4,Credit,30,500.0000000,ACTIVE,Approved by Finance,Agent Registration,Required,2586-10-19,2026-02-05,ابن عبادة,تندحه,7099,62615,2813,KHAMES MUSHAIT,Zone,,
Khamis Mushait,South,خميس مشيط,KHA002,AG00303,Mohamed khan,CS003639,تموينات بلاد الرغد للمواد الغذائية,"537,176,271",0507716473,,,,,1,TUE,18.35609,42.82677,"300,708,761,900,003","42,095,601,200","42,095,601,200",2024-09-15,1,,0,500.0000000,ACTIVE,Approved by Finance,Agent Registration,Required,2027-04-02,2025-04-05,ابي إسحاق البيجوري,تندحه,0,62611,0,KHAMES MUSHAIT,Zone,,
Khamis Mushait,South,خميس مشيط,KHA002,AG00303,Mohamed khan,CS003641,تموينات البراق للمواد الغذائية,"500,225,734",,,Traditional Trade,Small Grocery,,2,WED,18.29976,42.76623,"311,469,346,900,003","5,855,366,657","41,083,500,240",2024-09-15,10,Credit,3,567.0500000,ACTIVE,Approved by Finance,Agent Registration,Required,2025-04-27,2025-02-04,شارع,النسيم,8015,62465,4198,KHAMES MUSHAIT,Zone,,
Khamis Mushait,South,خميس مشيط,KHA002,AG00303,Mohamed khan,CS003642,تموينات سلل الخير للمواد الغذائية,"545,116,384",,,Traditional Trade,Small Grocery,,2,WED,18.28164,42.75809,"311,386,415,800,003","5,855,364,690","440,611,272,375",2024-09-15,10,Credit,22,1061.9300000,ACTIVE,Approved by Finance,Agent Registration,Required,2024-12-27,2024-12-12,حبيب بن عدي,بدر,0,62413,0,KHAMES MUSHAIT,Zone,,
Khamis Mushait,South,خميس مشيط,KHA002,AG00303,Mohamed khan,CS003646,إيديا مارت للمواد الغذائية,"568,026,450",,,Traditional Trade,Medium Grocery,,2,SAT,18.32701,42.76218,"300,539,425,400,003","5,850,139,043","440,611,321,832",2024-09-15,3,Credit,30,500.0000000,ACTIVE,Approved by Finance,Agent Registration,Required,2025-09-29,2025-12-08,انس بن النضر,الشرفية,0,62463,0,KHAMES MUSHAIT,Zone,,
Khamis Mushait,South,طريب,KHA002,AG00303,Mohamed khan,CS003648,أسواق ركن الفالح,"542,134,569",,,Traditional Trade,Medium Grocery,,1,TUE,18.53260,43.19440,"302,117,074,400,003","5,855,364,964","440,711,617,028",2024-09-15,7,Credit,30,688.5200000,ACTIVE,Approved by Finance,Agent Registration,Required,2028-01-14,2025-08-21,طريق  خميس مشيط,طريب,0,62831,0,KHAMES MUSHAIT,Zone,,
Khamis Mushait,South,ابها,KHA002,AG00281,Diaa Mohamed,CS003649,أسواق بادويل,"562,990,737",0562990737,,Wholesale,Wholesale,,1,TUE,18.55212,43.20571,"300,779,306,400,003","5,855,262,395","41,063,214,678",2024-09-15,10,Credit,30,4540.0000000,ACTIVE,Approved by Finance,Agent Registration,NOT Required,2025-10-02,2026-07-17,حي العروبة,العزيزية,0,42361,0,KHAMES MUSHAIT,Assignment,,
Khamis Mushait,South,طريب,KHA002,AG00303,Mohamed khan,CS003650,اسواق قمم التوفير للمواد الغذائية,"506,496,524",,,Traditional Trade,Medium Grocery,,1,TUE,18.59681,43.20786,"310,077,987,200,003","5,850,147,015","451,015,534,469",2024-09-15,16,Credit,7,10000.0000000,ACTIVE,Approved by Finance,Agent Registration,NOT Required,2585-09-27,2025-04-25,طريق خميس مشيط الرياض,طريب,2200,62833,8753,KHAMES MUSHAIT,Zone,,
Khamis Mushait,South,منهل ابها,KHA002,AG00303,Mohamed khan,CS003651,مجمع ال مهذل التجاري للتموينات,"501,981,932",0501931832,,Traditional Trade,Medium Grocery,,1,TUE,18.59663,43.20787,"301,102,962,700,003","5,855,346,250","440,410,984,952",2024-09-15,8,Credit,29,1351.6600000,ACTIVE,Approved by Finance,Agent Registration,Required,2025-10-12,2024-12-12,طريق خميس مشيط الرياض,منهل ابها,1,24233,1,KHAMES MUSHAIT,Zone,,
Khamis Mushait,South,العيش,KHA002,AG00303,Mohamed khan,CS003652,تموينات قمم وشيم,"501,254,666",0571411132,,Traditional Trade,Medium Grocery,,1,TUE,18.57514,43.20653,"311,931,041,800,003","5,850,133,502","450,814,943,600",2024-09-15,16,Credit,0,920.8600000,ACTIVE,Approved by Finance,Agent Registration,NOT Required,2588-11-22,2025-02-16,طريب,النزهه,3375,62631,8251,KHAMES MUSHAIT,Zone,,
Khamis Mushait,South,ابها,KHA002,AG00303,Mohamed khan,CS003653,أسواق ومخابز أبو دبيل التجارية,"562,953,343",,,,,,1,TUE,18.53377,43.19407,"311,085,571,400,003","5,855,356,017","3,530,856",2024-09-15,4,Credit,26,2953.5700000,ACTIVE,Approved by Finance,Agent Registration,Required,2025-09-26,2028-02-27,شارع عام,النسيم,0,62823,0,KHAMES MUSHAIT,Zone,,
Khamis Mushait,South,خميس مشيط,KHA002,AG00303,Mohamed khan,CS003657,سوبر ماركت زاوية الشلال,"509,348,154",,,Traditional Trade,Small Grocery,,1,TUE,18.56412,43.20645,"310,655,732,100,003","5,855,348,157","450,714,629,578",2024-09-15,9,Credit,0,500.0000000,ACTIVE,Approved by Finance,Agent Registration,Required,2025-06-10,2025-01-19,طريب,الامواه,62461,18308,3781,KHAMES MUSHAIT,Zone,,
Khamis Mushait,South,خميس مشيط,KHA002,AG00223,Mohamed Abdelghaffar,CS003663,شركة نانا التجاريه,"561,024,143",,,Traditional Trade,Large Grocery,,2,THU,18.28465,42.72818,"300,975,259,400,003","5,850,126,491","42,085,379,139",2024-09-05,9,Credit,27,14590.5100000,ACTIVE,Approved by Finance,Agent Registration,Required,2026-11-30,2027-01-17,زحريا الانصاري,المعمورة,7247,62431,5199,KHAMES MUSHAIT,Assignment,,
Khamis Mushait,South,احد رفيده,KHA002,AG00303,Mohamed khan,CS003683,أسواق النبض للمواد الغذائية,"575,073,011",,,Traditional Trade,Medium Grocery,,2,WED,18.29303,42.76137,"310,825,460,400,003","5,850,140,073","440,611,243,511",2024-09-15,5,Credit,26,875.2300000,In-Active,Approved by Finance,Agent Registration,Required,2024-12-10,2024-12-09,شارع,النسيم,2175,62419,7650,KHAMES MUSHAIT,Zone,,
Khamis Mushait,South,طريب,KHA002,AG00303,Mohamed khan,CS003695,مجمع الخالدية التجارية,"555,627,416",,,Traditional Trade,Large Grocery,,1,TUE,18.71436,43.18985,"310,077,987,200,003","5,850,147,015","40,082,117,115",2024-09-15,3,Credit,22,500.0000000,ACTIVE,Approved by Finance,Agent Registration,NOT Required,2025-12-06,2025-12-26,شارع,طريب,0,66657,0,KHAMES MUSHAIT,Zone,,
Khamis Mushait,South,,KHA002,AG00303,Mohamed khan,CS004043,تموينات درة الربيع للمواد الغذائية,,,,,,,1,MON,18.32108,42.68416,"311,187,266,600,003","5,855,339,970",,2024-09-15,0,,0,500.0000000,ACTIVE,Missing Documents,Potential,Required,,,,,,,,KHAMES MUSHAIT,Zone,,
Khamis Mushait,South,,KHA002,AG00303,Mohamed khan,CS004091,تموينات خضار المدينه,"546,141,687",,,,,,1,TUE,18.36420,42.83442,"300,529,581,300,003","5,855,345,644",,2024-09-15,0,,0,500.0000000,ACTIVE,Missing Documents,Potential,Required,,,,,,,,KHAMES MUSHAIT,Zone,,
Khamis Mushait,South,خميس مشيط,KHA002,AG00303,Mohamed khan,CS004685,دكان,"555,745,598",,,Traditional Trade,Medium Grocery,,2,THU,18.28587,42.73705,"300,624,168,700,003","5,850,120,345","3,910,709,066",2024-09-15,2,Credit,0,500.0000000,ACTIVE,Approved by Finance,Potential,Required,2025-03-21,2024-04-27,طريق الامير سلطان,العرق الشمالي,5182,62461,6733,KHAMES MUSHAIT,Zone,,
Khamis Mushait,South,خميس مشيط,KHA002,AG00303,Mohamed khan,CS004693,رواد الشرق للتسوق,"546,624,689",,,Traditional Trade,Medium Grocery,,1,SUN,18.34438,42.73030,"311,337,251,700,003","5,855,356,660","460,317,051,092",2024-09-15,12,Credit,15,1500.0000000,ACTIVE,Approved by Finance,Potential,NOT Required,2025-05-04,2025-09-23,الاسواق,طيب اسم,8571,62462,2514,KHAMES MUSHAIT,Zone,,
Khamis Mushait,South,,KHA002,AG00303,Mohamed khan,CS004915,فارميز للمواد الغذائية 1,,,,,,,2,WED,18.29272,42.75314,"301,042,957,200,003","5,855,370,421",,2024-09-15,0,,0,500.0000000,ACTIVE,Missing Documents,Potential,Required,,,,,,,,KHAMES MUSHAIT,Zone,,
Khamis Mushait,South,خميس مشيط,KHA002,AG00303,Mohamed khan,CS004917,مؤسسة روائع العروض للمواد الغذائية,"551,912,008",,,Traditional Trade,Medium Grocery,,1,MON,18.30520,42.69246,"300,587,601,500,003","5,855,044,003","41,093,551,427",2024-09-15,3,Credit,0,500.0000000,ACTIVE,Approved by Finance,Potential,NOT Required,2025-10-09,2025-04-20,قلوص,الراقي,4018,62454,7808,KHAMES MUSHAIT,Zone,,
Khamis Mushait,South,خميس مشيط,KHA002,AG00303,Mohamed khan,CS004919,مؤسسه فجر الحضارة التجارية,"501,066,311",,,Traditional Trade,Medium Grocery,,2,THU,18.28910,42.74313,"302,052,954,500,003","5,855,339,213","41,032,608,625",2024-09-15,4,Credit,0,500.0000000,ACTIVE,Approved by Finance,Potential,Required,2024-12-06,2024-09-22,طريق الامير سلطان,بدر,0,62541,0,KHAMES MUSHAIT,Zone,,
Khamis Mushait,South,طريب,KHA002,AG00303,Mohamed khan,CS004920,أسواق طريب و مخابز طريب المركزية,"538,296,818",0538296818,,Traditional Trade,Medium Grocery,,1,TUE,18.57269,43.20779,"310,352,739,100,003","5,855,345,784","41,032,606,208",2024-09-15,4,Credit,0,500.0000000,ACTIVE,Approved by Finance,Potential,Required,2024-10-04,2025-02-16,طريب,طريب,1,62831,1,KHAMES MUSHAIT,Zone,,
Khamis Mushait,South,,KHA002,AG00303,Mohamed khan,CS004921,مجمع ال مهذي,,,,,,,1,TUE,18.71429,43.18967,"311,229,325,500,003","5,855,035,391",,2024-09-15,0,,0,500.0000000,ACTIVE,Missing Documents,Potential,Required,,,,,,,,KHAMES MUSHAIT,Zone,,
Khamis Mushait,South,,KHA002,AG00303,Mohamed khan,CS004922,أسواق الجنوب,,,,,,,1,TUE,18.82957,43.23381,"302,177,722,300,003","5,950,121,045",,2024-09-15,0,,0,500.0000000,ACTIVE,Missing Documents,Potential,Required,,,,,,,,KHAMES MUSHAIT,Zone,,
Khamis Mushait,South,ال بي ثور,KHA002,AG00303,Mohamed khan,CS004923,تموينات الفارس بالوادى٢,"510,641,727",,,Traditional Trade,Medium Grocery,,1,SAT,18.60825,42.68100,"310,375,988,300,003","5,850,130,234","42,065,228,093",2024-09-15,24,Credit,16,1665.1600000,ACTIVE,Approved by Finance,Potential,Required,2025-12-08,2025-12-17,شارع,القري,8910,62917,2210,KHAMES MUSHAIT,Zone,,
Khamis Mushait,South,,KHA002,AG00303,Mohamed khan,CS004925,أسواق الصبيخه,,,,,,,1,TUE,19.09248,43.31221,"300,476,619,800,003","5,854,101,666",,2024-09-15,0,,0,500.0000000,ACTIVE,Missing Documents,Potential,Required,,,,,,,,KHAMES MUSHAIT,Zone,,
Khamis Mushait,South,وادي ابن هشبل,KHA002,AG00303,Mohamed khan,CS004926,شركة أسواق السله المتميزة التجارية,"539,544,626",,,Traditional Trade,Medium Grocery,,1,SAT,18.67172,42.83570,"311,188,266,900,003","5,855,347,980","40,102,455,075",2024-09-15,6,Credit,30,1500.0000000,ACTIVE,Approved by Finance,Potential,Required,2025-01-21,2026-07-06,عسير - شارع الملك سعود,وادي ابن هشبل,0,23821,0,KHAMES MUSHAIT,Zone,,
Khamis Mushait,South,تندحة,KHA002,AG00303,Mohamed khan,CS004927,تموينات سوق الضباب,"571,152,809",,,Traditional Trade,Medium Grocery,,1,TUE,18.36201,42.83235,"310,173,196,900,003","5,855,339,003","440,911,967,685",2024-09-15,9,Credit,24,1096.1900000,ACTIVE,Approved by Finance,Potential,Required,2025-05-14,2024-03-30,شارع,تندحة,5008,62621,7037,KHAMES MUSHAIT,Zone,,
Khamis Mushait,South,,KHA002,AG00303,Mohamed khan,CS004940,تموينات ام صرار,"565,015,184",,,,,,2,TUE,18.29754,42.73912,"302,062,355,700,003","5,855,254,940",,2024-09-15,0,,0,500.0000000,ACTIVE,Missing Documents,Potential,Required,,,,,,,,KHAMES MUSHAIT,Zone,,
Khamis Mushait,South,خميس مشيط,KHA002,AG00303,Mohamed khan,CS004943,أسواق أمل الأندلس المركزية,"500,714,330",,,Traditional Trade,Medium Grocery,,2,SUN,18.31604,42.73868,"301,123,772,400,003","5,855,376,127","460,316,843,483",2024-09-15,6,Credit,21,553.9700000,ACTIVE,Approved by Finance,Potential,NOT Required,2025-09-09,2025-09-01,شارع,العرق الشمالي,0,62461,0,KHAMES MUSHAIT,Zone,,
Khamis Mushait,South,,KHA002,AG00303,Mohamed khan,CS005108,تموينات المنار,,,,,,,1,TUE,18.69831,42.96651,"300,591,367,900,003","5,855,256,794",,2024-09-15,0,,0,500.0000000,ACTIVE,Missing Documents,Potential,Required,,,,,,,,KHAMES MUSHAIT,Zone,,
Khamis Mushait,South,,KHA002,AG00303,Mohamed khan,CS005113,مؤسسه ظافر عوضه,,,,,,,1,MON,18.30219,42.69082,"310,266,588,700,003","5,800,103,700",,2024-09-15,0,,0,500.0000000,ACTIVE,Missing Documents,Potential,Required,,,,,,,,KHAMES MUSHAIT,Zone,,
Khamis Mushait,South,خميس مشيط,KHA002,AG00303,Mohamed khan,CS005458,تموينات محمد زابن محمد المزارقه,"501,796,936",,,Traditional Trade,Small Grocery,,1,TUE,18.35547,42.82795,"302,079,200,400,003","5,855,254,016","40,052,040,981",2024-09-15,5,Credit,19,500.0000000,ACTIVE,Approved by Finance,Potential,NOT Required,2024-11-30,2024-10-11,عبدالعزيز بن منصور,تندحه,1,62611,1,KHAMES MUSHAIT,Zone,,
Khamis Mushait,South,وادي بن هشبل,KHA002,AG00303,Mohamed khan,CS005459,تموينات الظافر للمواد الغذائيه,"558,030,773",,,Traditional Trade,Medium Grocery,,1,SAT,18.79993,42.87507,"300,616,174,400,003","5,855,344,500","41,012,564,252",2024-09-15,11,Credit,17,552.0800000,ACTIVE,Approved by Finance,Potential,NOT Required,2024-08-22,2026-04-04,شارع,الموسى,6239,62952,2525,KHAMES MUSHAIT,Zone,,
Khamis Mushait,South,الملك خالد,KHA002,AG00303,Mohamed khan,CS005468,تموينات المثناة الجديدة للمواد الغذائية,"530,684,741",,,Traditional Trade,Small Grocery,,2,TUE,18.29284,42.73046,"312,190,461,400,003","5,855,039,480","3,909,117,636",2024-09-15,14,Credit,30,500.0000000,ACTIVE,Approved by Finance,Potential,NOT Required,2025-08-11,2024-11-17,شارع,المثناه,8158,62432,3758,KHAMES MUSHAIT,Zone,,
Khamis Mushait,South,خميس مشيط,KHA002,AG00303,Mohamed khan,CS005470,تموينات واجهة الوسام للمواد الغذائية,"555,274,925",,,Traditional Trade,Small Grocery,,1,WED,18.34911,42.76233,"311,470,691,500,003","5,855,374,039","460,216,452,623",2024-09-15,8,Credit,10,500.0000000,ACTIVE,Approved by Finance,Potential,NOT Required,2025-06-09,2025-08-12,الوسام,الشرفية,3372,62482,7380,KHAMES MUSHAIT,Zone,,
Khamis Mushait,South,,KHA002,AG00303,Mohamed khan,CS005471,تموينات البرق,"594,477,986",,,,,,2,TUE,18.30247,42.73896,"311,367,187,300,003","5,855,363,781",,2024-09-15,0,,0,500.0000000,ACTIVE,Missing Documents,Potential,Required,,,,,,,,KHAMES MUSHAIT,Zone,,
Khamis Mushait,South,خميس مشيط,KHA002,AG00303,Mohamed khan,CS005472,اسواق اطلال الخميس للمواد الغذائية,"581,347,622",,,Traditional Trade,Medium Grocery,,2,SAT,18.32829,42.76062,"311,169,473,900,003","5,855,373,351","451,215,960,643",2024-09-15,4,Credit,26,500.0000000,ACTIVE,Approved by Finance,Potential,Required,2025-05-13,2025-05-31,عبيد بن جحش,الشرفية,8396,62463,3110,KHAMES MUSHAIT,Zone,,
Khamis Mushait,South,,KHA002,AG00303,Mohamed khan,CS005634,تموينات نصف القمر,,,,,,,1,TUE,19.07450,43.31426,"310,298,272,400,003","5,855,364,157",,2024-09-15,0,,0,500.0000000,ACTIVE,Missing Documents,Potential,Required,,,,,,,,KHAMES MUSHAIT,Zone,,
Khamis Mushait,South,,KHA002,AG00303,Mohamed khan,CS005649,أسواق الخليج,,,,,,,2,TUE,18.30110,42.72655,"300,634,869,700,003","5,855,370,502",,2024-09-15,0,,0,500.0000000,ACTIVE,Missing Documents,Potential,Required,,,,,,,,KHAMES MUSHAIT,Zone,,
Khamis Mushait,South,,KHA002,AG00303,Mohamed khan,CS005653,التموين الشامل,,,,,,,1,MON,18.30778,42.68780,"310,829,080,600,003","5,857,066,040",,2024-09-15,0,,0,500.0000000,ACTIVE,Missing Documents,Potential,Required,,,,,,,,KHAMES MUSHAIT,Zone,,
Khamis Mushait,South,,KHA002,AG00303,Mohamed khan,CS005654,تموينات الفجر,,,,,,,1,TUE,18.48573,43.05916,"311,329,821,100,003","5,855,344,613",,2024-09-15,0,,0,500.0000000,ACTIVE,Missing Documents,Potential,Required,,,,,,,,KHAMES MUSHAIT,Zone,,
Khamis Mushait,South,,KHA002,AG00303,Mohamed khan,CS005656,برق المخيله 1,,,,,,,2,MON,18.31968,42.74882,"310,497,908,700,003","5,855,346,563",,2024-09-15,0,,0,500.0000000,ACTIVE,Missing Documents,Potential,Required,,,,,,,,KHAMES MUSHAIT,Zone,,
Khamis Mushait,South,,KHA002,AG00303,Mohamed khan,CS005657,مؤسسة اسماء على بن رافع,"551,973,376",,,,,,2,MON,18.30672,42.75722,"310,613,473,700,003","5,855,347,955",,2024-09-15,0,,0,500.0000000,ACTIVE,Missing Documents,Potential,Required,,,,,,,,KHAMES MUSHAIT,Zone,,
Khamis Mushait,South,خميس مشيط,KHA002,AG00303,Mohamed khan,CS005659,بقالة هيله سعد سعيد آل غنوم (سوبر ماركت الكوثر),"557,246,164",,,Traditional Trade,Medium Grocery,,1,SAT,18.60713,42.68059,"301,178,265,700,003","5,855,343,589","43,026,114,765",2024-09-15,5,Credit,0,500.0000000,ACTIVE,Approved by Finance,Potential,Required,2025-06-23,2023-06-13,حي وادي بن هشيل,الشرفية,7996,62412,4005,KHAMES MUSHAIT,Zone,,
Khamis Mushait,South,خميس مشيط,KHA002,AG00303,Mohamed khan,CS005661,شركة قمم المتسوق للمواد الغذائية,"583,033,877",,,Traditional Trade,Medium Grocery,,1,THU,18.32703,42.77516,"312,272,427,500,003","5,855,362,083","43,037,630,096",2024-09-15,22,Credit,30,500.0000000,ACTIVE,Approved by Finance,Potential,Required,2025-04-21,2024-12-03,العناد,عتود,7976,62447,4529,KHAMES MUSHAIT,Zone,,
Khamis Mushait,South,عسير,KHA002,AG00303,Mohamed khan,CS005664,تموينات خدان للمواد الغذائية,"550,433,421",0550433421,,Traditional Trade,Medium Grocery,,1,SAT,18.62789,42.68689,"300,069,962,100,003","5,855,345,244","3,910,676,586",2024-09-15,8,Credit,0,500.0000000,ACTIVE,Approved by Finance,Potential,Required,2026-08-03,2024-12-24,المنتزه,الامواه,0,00000,0,KHAMES MUSHAIT,Zone,,
Khamis Mushait,South,,KHA002,AG00303,Mohamed khan,CS005666,أسواق بن محي,"556,835,573",,,,,,1,SAT,18.67010,42.82012,"300,460,072,100,003","5,855,058,440",,2024-09-15,0,,0,500.0000000,ACTIVE,Missing Documents,Potential,Required,,,,,,,,KHAMES MUSHAIT,Zone,,
Khamis Mushait,South,,KHA002,AG00303,Mohamed khan,CS005667,تموينات السليل,,,,,,,1,SAT,18.69575,42.86214,"311,424,886,700,003","7,012,416,702",,2024-09-15,0,,0,500.0000000,ACTIVE,Missing Documents,Potential,Required,,,,,,,,KHAMES MUSHAIT,Zone,,
Khamis Mushait,South,وادي ابن هشبل,KHA002,AG00303,Mohamed khan,CS005670,تموينات واسط للمواد الغذائية,"533,236,850",,,Traditional Trade,Medium Grocery,,1,SAT,18.81639,42.87937,"310,135,203,700,003","5,855,344,740","41,022,590,862",2024-09-15,20,Credit,10,859.5800000,ACTIVE,Approved by Finance,Potential,Required,2026-05-12,2025-08-17,واسط,وادي ابن هشبل,0,62481,0,KHAMES MUSHAIT,Zone,,
Khamis Mushait,South,ابها,KHA002,AG00303,Mohamed khan,CS005671,تموينات همسة لين للمواد الغذائية,"502,941,822",,,Traditional Trade,Medium Grocery,,1,SUN,18.33986,42.72125,"310,768,977,400,003","5,850,121,373","450,915,220,622",2024-09-15,13,Credit,17,2183.1700000,ACTIVE,Approved by Finance,Potential,NOT Required,2025-08-25,2025-03-16,شارع,العزيزية,3798,62521,7454,KHAMES MUSHAIT,Zone,,
Khamis Mushait,South,خميس مشيط,KHA002,AG00303,Mohamed khan,CS005672,سوق التفاحه المركزي,"531,390,106",,,Traditional Trade,Small Grocery,,2,SUN,18.32303,42.73480,"311,278,397,400,003","5,855,057,320","41,012,551,667",2024-09-15,12,Credit,17,1535.7800000,ACTIVE,Approved by Finance,Potential,NOT Required,2025-03-13,2025-08-07,شارع,الفتح,3031,62461,7481,KHAMES MUSHAIT,Zone,,
Khamis Mushait,South,خميس مشيط,KHA002,AG00303,Mohamed khan,CS005681,تموينات باز الصفوة للمواد الغذائية,"553,266,248",,,Traditional Trade,Medium Grocery,,2,MON,18.31411,42.75150,"310,252,604,400,003","5,855,340,916","460,417,196,420",2024-09-15,8,Credit,23,500.0000000,ACTIVE,Approved by Finance,Potential,NOT Required,2025-10-05,2025-10-06,شارع,العزيزية,2835,62462,8436,KHAMES MUSHAIT,Zone,,
Khamis Mushait,South,خميس مشيط,KHA002,AG00303,Mohamed khan,CS005684,مؤسسة حصة يحيى الزهراني للمواد الغذائية,"500,830,026",,,Traditional Trade,Medium Grocery,,2,SAT,18.33473,42.75964,"302,146,092,900,003","5,859,611,729","451,115,761,824",2024-09-15,6,Credit,0,500.0000000,ACTIVE,Approved by Finance,Potential,Required,2025-12-14,2023-09-07,ابي بكر بن علي,الراقي,0,63751,0,KHAMES MUSHAIT,Zone,,
Khamis Mushait,South,,KHA002,AG00303,Mohamed khan,CS005686,أسواق عبد الهادى,,,,,,,1,TUE,18.84104,43.23993,"301,047,387,200,003","5,950,104,549",,2024-09-15,0,,0,500.0000000,ACTIVE,Missing Documents,Potential,Required,,,,,,,,KHAMES MUSHAIT,Zone,,
Khamis Mushait,South,خميس مشيط,KHA002,AG00303,Mohamed khan,CS005756,مؤسسة كنز الاماني للتجارة,"532,265,234",,,Traditional Trade,Medium Grocery,,1,THU,18.33321,42.76434,"310,595,831,900,003","1,010,789,722","451,015,544,720",2024-09-15,10,Credit,19,1195.2700000,ACTIVE,Approved by Finance,Potential,Required,2027-01-25,2025-04-26,الشرف,الشرفية,3548,62463,8965,KHAMES MUSHAIT,Zone,,
Khamis Mushait,South,,KHA002,AG00303,Mohamed khan,CS005884,تموينات حدائق الروضه للمواد الغذائيه,,,,,,,2,TUE,18.30734,42.74060,"310,536,904,800,003","5,855,337,786",,2024-09-15,0,,0,500.0000000,ACTIVE,Missing Documents,Potential,Required,,,,,,,,KHAMES MUSHAIT,Zone,,
Khamis Mushait,South,خميس مشيط,KHA002,AG00303,Mohamed khan,CS005888,تموينات ارض الغذاء,"532,301,334",,,Traditional Trade,Medium Grocery,,2,WED,18.29377,42.75254,"300,514,021,800,003","5,855,337,918","41,042,623,015",2024-09-15,10,Credit,16,1709.9800000,ACTIVE,Approved by Finance,Potential,NOT Required,2025-10-22,2025-09-27,خالد بن الوليد,بدر,3840,62461,8884,KHAMES MUSHAIT,Zone,,
Khamis Mushait,South,,KHA002,AG00303,Mohamed khan,CS005891,بن صفوان للتسوق,,,,,,,2,THU,18.29235,42.74774,"300,523,782,700,003","40,062,065,164",,2024-09-15,0,,0,500.0000000,ACTIVE,Missing Documents,Potential,Required,,,,,,,,KHAMES MUSHAIT,Zone,,
Khamis Mushait,South,خميس مشيط,KHA002,AG00303,Mohamed khan,CS006981,تموينات بركات النزهه للمواد الغذائيه,"540,726,687",,,Traditional Trade,Medium Grocery,,2,THU,18.27435,42.73849,"311,108,343,900,003","5,855,050,338","41,113,590,609",2024-09-15,10,Credit,26,1101.4000000,ACTIVE,Approved by Finance,Potential,Required,2025-03-15,2024-12-30,الصفق,الرصاص,7228,62465,2662,KHAMES MUSHAIT,Zone,,
Khamis Mushait,South,,KHA002,AG00303,Mohamed khan,CS007002,شركه واحه الفا للمواد الغذائيه,,,,,,,1,SUN,18.32783,42.69291,"311,360,677,600,003","5,855,044,489",,2024-09-15,0,,0,500.0000000,ACTIVE,Missing Documents,Potential,Required,,,,,,,,KHAMES MUSHAIT,Zone,,
Khamis Mushait,South,خميس مشيط,KHA002,AG00303,Mohamed khan,CS007005,سوق المحبة المركزي,"557,450,412",,,Traditional Trade,Medium Grocery,,2,SUN,18.32348,42.73137,"311,278,397,400,003","5,855,057,320","3,909,156,323",2024-09-15,2,Credit,0,0.0000000,ACTIVE,Approved by Finance,Potential,Required,2025-03-15,2025-05-19,شارع غرناطة,الرصاص,0,62461,0,KHAMES MUSHAIT,Zone,,
Khamis Mushait,South,خميس مشيط,KHA002,AG00303,Mohamed khan,CS007006,اسواق و مخابز نبع الشلال,"552,973,117",,,Traditional Trade,Medium Grocery,,1,MON,18.31683,42.69716,"311,465,715,100,003","5,855,008,967","43,079,365,884",2024-09-15,2,Credit,4,2182.2000000,ACTIVE,Approved by Finance,Potential,NOT Required,2025-08-29,2025-02-11,نصر الدين الطوسي,الرصاص,8636,62454,4968,KHAMES MUSHAIT,Zone,,
Khamis Mushait,South,,KHA002,AG00303,Mohamed khan,CS007009,مؤسسه العنود عمر عبدالله,,,,,,,1,MON,18.32188,42.68443,"310,392,273,800,003","5,855,365,146",,2024-09-15,0,,0,500.0000000,ACTIVE,Missing Documents,Potential,Required,,,,,,,,KHAMES MUSHAIT,Zone,,
Khamis Mushait,South,,KHA002,AG00303,Mohamed khan,CS007022,ملتقى الثمانين,,,,,,,1,SUN,18.36391,42.70731,"302,093,874,400,003","5,855,347,518",,2024-09-15,0,,0,500.0000000,ACTIVE,Missing Documents,Potential,Required,,,,,,,,KHAMES MUSHAIT,Zone,,
Khamis Mushait,South,,KHA002,AG00303,Mohamed khan,CS007023,مؤسسة ركن كنده للمواد الغذائية,,,,,,,1,MON,18.30860,42.68960,"310,400,269,700,003","5,850,124,747",,2024-09-15,0,,0,500.0000000,ACTIVE,Missing Documents,Potential,Required,,,,,,,,KHAMES MUSHAIT,Zone,,
Khamis Mushait,South,خميس مشيط,KHA002,AG00303,Mohamed khan,CS007148,بقالة محمد احمد هتان للمواد الغذائية,"565,095,447",,,Traditional Trade,Small Grocery,,2,TUE,18.29271,42.73018,"310,000,228,800,003","7,021,318,527","460,116,302,978",2024-09-15,8,Credit,10,1142.5800000,ACTIVE,Approved by Finance,Potential,Required,2024-12-25,2025-07-10,ضمك 25,ضمك,0,62461,0,KHAMES MUSHAIT,Zone,,
Khamis Mushait,South,,KHA002,AG00303,Mohamed khan,CS007151,تموينات لمي الجنوب للمواد الغذائيه,,,,,,,1,SUN,18.36771,42.72154,"302,116,216,100,003","5,855,348,299",,2024-09-15,0,,0,500.0000000,ACTIVE,Missing Documents,Potential,Required,,,,,,,,KHAMES MUSHAIT,Zone,,
Khamis Mushait,South,خميس مشيط,KHA002,AG00275,Legal  Case,CS007204,تموينات الوادي,"556,627,745",,,Traditional Trade,Medium Grocery,,1,SUN,18.33131,42.72785,"310,145,916,400,003","5,855,061,999","40,052,031,958",2024-09-15,3,Credit,30,2027.3200000,ACTIVE,Approved by Finance,Potential,Required,2025-07-22,2025-04-08,شارع,المعمورة,8529,85299,3413,KHAMES MUSHAIT,Assignment,,
Khamis Mushait,South,,KHA002,AG00303,Mohamed khan,CS007397,شركه التعاون الاولي للمواد الغذائيه,,,,,,,1,SAT,18.59185,42.69155,"311,546,817,600,003","5,850,140,919",,2024-09-15,0,,0,500.0000000,ACTIVE,Missing Documents,Potential,Required,,,,,,,,KHAMES MUSHAIT,Zone,,
Khamis Mushait,South,,KHA002,AG00303,Mohamed khan,CS007420,بنان الوسام,,,,,,,1,WED,18.33929,42.75189,"310,166,270,300,003","5,900,141,845",,2024-09-15,0,,0,500.0000000,ACTIVE,Missing Documents,Potential,Required,,,,,,,,KHAMES MUSHAIT,Zone,,
Khamis Mushait,South,خميس مشيط,KHA002,AG00303,Mohamed khan,CS007422,بقالة كرم الراقي للمواد الغذائية,"535,043,308",,,Traditional Trade,Medium Grocery,,2,SAT,18.33617,42.75828,"312,042,279,900,003","5,855,364,343","3,909,118,022",2024-09-15,3,Credit,0,500.0000000,ACTIVE,Approved by Finance,Potential,Required,2024-11-26,2024-08-01,اليرموك,النخيل,7861,62463,3713,KHAMES MUSHAIT,Zone,,
Khamis Mushait,South,,KHA002,AG00303,Mohamed khan,CS007439,بقالة متاجر الهدف للمواد الغذائية,"504,251,607",,,,,,1,WED,18.33803,42.75658,"300,495,341,300,003","7,023,555,779",,2024-09-15,0,,0,500.0000000,ACTIVE,Missing Documents,Potential,Required,,,,,,,,KHAMES MUSHAIT,Zone,,
Khamis Mushait,South,خميس مشيط,KHA002,AG00303,Mohamed khan,CS007460,أسواق جزيرة الغذاء المركزية,"537,789,610",,,Traditional Trade,Medium Grocery,,1,WED,18.34761,42.74778,"310,632,449,300,003","5,855,353,205","450,915,147,803",2024-09-15,2,Credit,22,500.0000000,ACTIVE,Approved by Finance,Potential,Required,2025-05-20,2025-03-08,الوفاء,الورود,3975,62481,9473,KHAMES MUSHAIT,Zone,,
Khamis Mushait,South,,KHA002,AG00303,Mohamed khan,CS007581,سوبر ماركت الخليج,,,,,,,1,MON,18.31598,42.69320,"310,592,082,800,003","5,855,364,665",,2024-09-15,0,,0,500.0000000,ACTIVE,Missing Documents,Potential,Required,,,,,,,,KHAMES MUSHAIT,Zone,,
Khamis Mushait,South,بيشة,KHA002,AG00303,Mohamed khan,CS007656,تموينات اوائل الجنوب للمواد الغذائي,"530,905,466",,,Traditional Trade,Medium Grocery,,2,MON,18.30761,42.75396,"300,429,097,400,003","5,851,874,815","40,031,963,062",2024-09-15,5,Credit,15,500.0000000,ACTIVE,Approved by Finance,Potential,Required,2024-12-08,2024-09-28,طريق الملك فهد,العزيزية,7634,67712,3315,KHAMES MUSHAIT,Zone,,
Khamis Mushait,South,خميس مشيط,KHA002,AG00303,Mohamed khan,CS007665,بقالة آسر الجنوب للمواد الغذائية,"8,552,867,971",,,Traditional Trade,Medium Grocery,,2,TUE,18.29135,42.74014,"300,835,344,400,003","5,855,348,131","440,711,424,504",2024-09-15,8,Credit,0,500.0000000,ACTIVE,Approved by Finance,Potential,Required,2025-06-11,2025-01-02,شارع,العرق الجنوبي,4367,62454,8170,KHAMES MUSHAIT,Zone,,
Khamis Mushait,South,,KHA002,AG00303,Mohamed khan,CS007667,محل عبدالله عبدالرحمن عبدالله العود لبيع المواد ال,,,,,,,1,MON,18.32126,42.68111,"310,145,916,400,003","5,850,120,257",,2024-09-15,0,,0,500.0000000,ACTIVE,Missing Documents,Potential,Required,,,,,,,,KHAMES MUSHAIT,Zone,,
Khamis Mushait,South,ابها,KHA002,AG00303,Mohamed khan,CS007669,اسواق و مخابز التوفير,"557,594,694",,,Traditional Trade,Medium Grocery,,1,THU,18.32529,42.77215,"302,059,179,800,003","5,850,101,272","40,031,936,936",2024-09-15,1,Credit,0,500.0000000,ACTIVE,Approved by Finance,Potential,Required,2024-12-31,2024-11-15,شارع عام,الشرفية,5465,62521,7734,KHAMES MUSHAIT,Zone,,
Khamis Mushait,South,خميس مشيط,KHA002,AG00303,Mohamed khan,CS007671,تموينات الرخاء,"596,167,279",,,Traditional Trade,Medium Grocery,,2,THU,18.27406,42.73794,"311,111,111,111,113","5,855,355,149","40,072,074,014",2024-09-15,5,Credit,20,500.0000000,ACTIVE,Approved by Finance,Potential,Required,2025-09-13,2025-09-07,الصفق,الراقي,2378,62465,7385,KHAMES MUSHAIT,Zone,,
Khamis Mushait,South,,KHA002,AG00303,Mohamed khan,CS007691,مؤسسه بحيره الدولفين التجاريه,,,,,,,1,MON,18.32122,42.67530,"302,065,129,300,003","40,072,083,332",,2024-09-15,0,,0,500.0000000,ACTIVE,Missing Documents,Potential,Required,,,,,,,,KHAMES MUSHAIT,Zone,,
Khamis Mushait,South,,KHA002,AG00303,Mohamed khan,CS007692,تموينات ماركت هديه,,,,,,,1,MON,18.32150,42.67515,"305,006,607,100,003","5,855,348,488",,2024-09-15,0,,0,500.0000000,ACTIVE,Missing Documents,Potential,Required,,,,,,,,KHAMES MUSHAIT,Zone,,
Khamis Mushait,South,,KHA002,AG00303,Mohamed khan,CS007693,تموينات ازال القمر,,,,,,,1,MON,18.30873,42.68877,"302,006,082,900,003","5,855,345,134",,2024-09-15,0,,0,500.0000000,ACTIVE,Missing Documents,Potential,Required,,,,,,,,KHAMES MUSHAIT,Zone,,
Khamis Mushait,South,,KHA002,AG00303,Mohamed khan,CS007694,تموينات الجوهره,"508,784,038",,,,,,1,MON,18.30879,42.68897,"300,492,463,500,003","5,855,067,308",,2024-09-15,0,,0,500.0000000,ACTIVE,Missing Documents,Potential,Required,,,,,,,,KHAMES MUSHAIT,Zone,,
Khamis Mushait,South,,KHA002,AG00303,Mohamed khan,CS007696,فاطمه الهزاني,,,,,,,2,MON,18.30877,42.75740,"310,591,895,700,003","40,052,039,513",,2024-09-15,0,,0,500.0000000,ACTIVE,Missing Documents,Potential,Required,,,,,,,,KHAMES MUSHAIT,Zone,,
Khamis Mushait,South,خميس مشيط,KHA002,AG00303,Mohamed khan,CS007702,تموينات المساء الجديد للمواد الغذائية,"561,982,273",,,Traditional Trade,Medium Grocery,,1,SUN,18.32469,42.69550,"312,120,912,100,003","5,855,373,867","450,513,813,915",2024-09-15,2,Credit,4,500.0000000,ACTIVE,Approved by Finance,Potential,Required,2025-06-01,2025-10-25,شارع,الراقي,3272,62461,8135,KHAMES MUSHAIT,Zone,,
Khamis Mushait,South,خميس مشيط,KHA002,AG00303,Mohamed khan,CS007703,شركة السلال النقية للمواد الغذائية,"501,289,964",,,Traditional Trade,Medium Grocery,,1,MON,18.31904,42.69710,"311,272,020,200,003","5,855,359,997","43,119,967,624",2024-09-15,7,Credit,18,900.6300000,ACTIVE,Approved by Finance,Potential,Required,2025-03-30,2025-05-02,شارع,الرصاص,4957,62454,8862,KHAMES MUSHAIT,Zone,,
Khamis Mushait,South,,KHA002,AG00303,Mohamed khan,CS007705,مؤسسة سلة الابرار لتجارة الاغذية,,,,,,,1,SUN,18.36317,42.70903,"301,244,079,300,003","4,031,197,616",,2024-09-15,0,,0,500.0000000,ACTIVE,Missing Documents,Potential,Required,,,,,,,,KHAMES MUSHAIT,Zone,,
Khamis Mushait,South,,KHA002,AG00303,Mohamed khan,CS007718,تموينات زهراء عسير للمواد الغذائية,,,,,,,1,SUN,18.36239,42.70746,"310,093,687,300,003","3,909,656,080",,2024-09-15,0,,0,500.0000000,ACTIVE,Missing Documents,Potential,Required,,,,,,,,KHAMES MUSHAIT,Zone,,
Khamis Mushait,South,,KHA002,AG00303,Mohamed khan,CS007758,أسواق حلا الجنوب للمواد الغذائية,,,,,,,1,THU,18.33722,42.76424,"310,861,996,900,003","5,855,367,126",,2024-09-15,0,,0,500.0000000,ACTIVE,Missing Documents,Potential,Required,,,,,,,,KHAMES MUSHAIT,Zone,,
Khamis Mushait,South,,KHA002,AG00303,Mohamed khan,CS007765,تموينات بن ناجي  1,,,,,,,1,MON,18.31313,42.70158,"300,500,872,500,003","5,857,775,218",,2024-09-15,0,,0,500.0000000,ACTIVE,Missing Documents,Potential,Required,,,,,,,,KHAMES MUSHAIT,Zone,,
Khamis Mushait,South,,KHA002,AG00303,Mohamed khan,CS007907,مؤسسة سماء الصيف للمواد الغذائية,"537,077,145",,,,,,1,SUN,18.32103,42.65512,"310,681,516,600,003","5,850,135,811",,2024-09-15,0,,0,500.0000000,ACTIVE,Missing Documents,Potential,Required,,,,,,,,KHAMES MUSHAIT,Zone,,
Khamis Mushait,South,,KHA002,AG00303,Mohamed khan,CS007981,تموينات النهضة الطيبة للمواد الغذائية,,,,,,,2,SAT,18.32395,42.75198,"310,816,712,500,003","42,065,158,204",,2024-09-15,0,,0,500.0000000,ACTIVE,Missing Documents,Potential,Required,,,,,,,,KHAMES MUSHAIT,Zone,,
Khamis Mushait,South,,KHA002,AG00303,Mohamed khan,CS007983,اسواق الفنار للمواد الغذائية 3,,,,,,,1,MON,18.30247,42.68955,"302,133,645,800,003","4,036,100,637",,2024-09-15,0,,0,500.0000000,ACTIVE,Missing Documents,Potential,Required,,,,,,,,KHAMES MUSHAIT,Zone,,
Khamis Mushait,South,خميس مشيط,KHA002,AG00303,Mohamed khan,CS007992,تموينات نايف,"547,156,840",,,Traditional Trade,Medium Grocery,,2,TUE,18.29889,42.73918,"310,077,807,400,003","5,855,358,191","40,011,647,179",2024-09-15,9,Credit,19,500.0000000,ACTIVE,Approved by Finance,Potential,NOT Required,2025-01-18,2025-07-23,شارع,العزيزية,8360,64352,4321,KHAMES MUSHAIT,Zone,,
Khamis Mushait,South,ابها,KHA002,AG00303,Mohamed khan,CS008012,سوبر ماركت زاد,"530,934,755",0530934755,,Traditional Trade,Medium Grocery,,1,SAT,18.80106,42.87572,"310,393,924,800,003","5,850,124,612","41,012,543,615",2024-09-15,10,Credit,24,500.0000000,ACTIVE,Approved by Finance,Potential,Required,2025-04-26,2026-06-16,خيبر الجنوب 2077 - حي خيبر الجنوب,المروج,0,62685,0,KHAMES MUSHAIT,Zone,,
Khamis Mushait,South,,KHA002,AG00303,Mohamed khan,CS008013,مخازن الدانه,,,,,,,1,THU,18.32767,42.78169,"300,458,714,400,003","5,855,035,213",,2024-09-15,0,,0,500.0000000,ACTIVE,Missing Documents,Potential,Required,,,,,,,,KHAMES MUSHAIT,Zone,,
Khamis Mushait,South,خميس مشيط,KHA002,AG00303,Mohamed khan,CS008018,تموينات مزهره عوض ابن مسفر القحطاني للمواد الغذائية,"538,803,514",,,Traditional Trade,Medium Grocery,,1,THU,18.33242,42.77380,"310,620,797,500,003","5,855,366,434","441,012,044,863",2024-09-15,5,Credit,0,500.0000000,ACTIVE,Approved by Finance,Potential,Required,2025-04-15,2024-04-20,حي الشرف,الشرفية,4548,62463,8828,KHAMES MUSHAIT,Zone,,
Khamis Mushait,South,,KHA002,AG00303,Mohamed khan,CS008023,تموينات بن شيبان,,,,,,,1,SAT,18.81057,42.87996,"300,507,916,900,003","7,033,185,815",,2024-09-15,0,,0,500.0000000,ACTIVE,Missing Documents,Potential,Required,,,,,,,,KHAMES MUSHAIT,Zone,,
Khamis Mushait,South,خميس مشيط,KHA002,AG00303,Mohamed khan,CS008027,تموينات مسفر,"509,190,327",,,Traditional Trade,Medium Grocery,,1,SUN,18.32876,42.69633,"301,166,482,700,003","5,855,052,834","3,909,650,974",2024-09-15,9,Credit,24,500.0000000,ACTIVE,Approved by Finance,Potential,Required,2025-09-11,2025-12-12,اثيلة بنت الحارث,الواحة,3230,62456,8956,KHAMES MUSHAIT,Zone,,
Khamis Mushait,South,,KHA002,AG00303,Mohamed khan,CS008051,توفير الخميس,,,,,,,1,SUN,18.35658,42.71290,"311,473,228,400,003","5,855,351,366",,2024-09-15,0,,0,500.0000000,ACTIVE,Missing Documents,Potential,Required,,,,,,,,KHAMES MUSHAIT,Zone,,
Khamis Mushait,South,خميس مشيط,KHA002,AG00303,Mohamed khan,CS008058,تموينات عطيه الزهراني للمواد الغذائية,"577,826,517",,,Traditional Trade,Medium Grocery,,2,MON,18.30344,42.74572,"311,220,181,700,003","5,855,374,034","460,216,451,742",2024-09-15,0,,0,500.0000000,In-Active,Approved by Finance,Potential,Required,2025-06-08,2025-07-27,اسماعيل بن نصر الله,ام سرور,0,62413,0,KHAMES MUSHAIT,Zone,,
Khamis Mushait,South,خميس مشيط,KHA002,AG00303,Mohamed khan,CS008113,رواف الجنوب,"578,442,804",,,Traditional Trade,Medium Grocery,,1,WED,18.33662,42.75163,"311,473,822,800,003","5,855,368,946","450,915,286,657",2024-09-15,2,Credit,0,500.0000000,ACTIVE,Approved by Finance,Potential,Required,2025-09-20,2025-03-23,بشر بن انس,العرق الشمالي,6971,62481,4321,KHAMES MUSHAIT,Zone,,
Khamis Mushait,South,,KHA002,AG00303,Mohamed khan,CS008126,بحيره الدولفين,,,,,,,1,MON,18.31874,42.69152,"302,065,129,300,003","1,026,067,312",,2024-09-15,0,,0,500.0000000,ACTIVE,Missing Documents,Potential,Required,,,,,,,,KHAMES MUSHAIT,Zone,,
Khamis Mushait,South,,KHA002,AG00303,Mohamed khan,CS008127,تموينات مهره سعد,,,,,,,1,MON,18.32167,42.67509,"311,053,267,500,003","5,855,046,662",,2024-09-15,0,,0,500.0000000,ACTIVE,Missing Documents,Potential,Required,,,,,,,,KHAMES MUSHAIT,Zone,,
Khamis Mushait,South,خميس مشيط,KHA002,AG00303,Mohamed khan,CS008149,أسواق السله المتميزة التجارية,"549,384,342",0549384342,,Traditional Trade,Medium Grocery,,1,SAT,18.58769,42.69590,"311,188,266,900,003","5,855,347,980","42,034,145,001",2024-09-15,5,Credit,30,1500.0000000,ACTIVE,Approved by Finance,Potential,Required,2025-01-21,2028-08-06,طريق الملك سعود,وادي ابن هشبل,8878,62461,2929,KHAMES MUSHAIT,Zone,,
Khamis Mushait,South,,KHA002,AG00303,Mohamed khan,CS008156,تموينات نايف محمد حمد حكمي للمواد الغذائية,,,,,,,1,THU,18.33791,42.76953,"310,868,681,800,003","5,855,351,273",,2024-09-15,0,,0,500.0000000,ACTIVE,Missing Documents,Potential,Required,,,,,,,,KHAMES MUSHAIT,Zone,,
Khamis Mushait,South,,KHA002,AG00303,Mohamed khan,CS008157,مؤسسة درة الراقي للمواد الغذائية,"534,545,690",,,,,,2,SAT,18.32163,42.74956,"310,497,908,700,003","5,855,346,563",,2024-09-15,0,,0,500.0000000,ACTIVE,Missing Documents,Potential,Required,,,,,,,,KHAMES MUSHAIT,Zone,,
Khamis Mushait,South,خميس مشيط,KHA002,AG00303,Mohamed khan,CS008173,تموينات قمم وشيم للمواد الغذائية,"552,738,472",,,Traditional Trade,Medium Grocery,,1,TUE,18.39197,42.88368,"311,931,041,800,003","5,850,133,502","3,909,128,240",2024-09-15,18,Credit,18,1091.0000000,ACTIVE,Approved by Finance,Potential,NOT Required,2027-09-17,2024-06-03,شارع ابن الرطبي,تندحه,1,62631,1,KHAMES MUSHAIT,Zone,,
Khamis Mushait,South,خميس مشيط,KHA002,AG00303,Mohamed khan,CS008198,تموينات ومخبز برج الجنوب,"567,850,055",,,Traditional Trade,Medium Grocery,,2,MON,18.29379,42.74799,"302,085,967,600,003","5,855,257,480","440,611,361,063",2024-09-15,2,,0,500.0000000,ACTIVE,Approved by Finance,Potential,Required,2025-09-19,2024-12-27,توبة بن ابي بركات,النخيل,6207,62462,2356,KHAMES MUSHAIT,Zone,,
Khamis Mushait,South,,KHA002,AG00303,Mohamed khan,CS008225,مؤسسة بريف للمواد الغذائية,,,,,,,1,SUN,18.36114,42.70829,"302,062,927,400,003","43,016,107,396",,2024-09-15,0,,0,500.0000000,ACTIVE,Missing Documents,Potential,Required,,,,,,,,KHAMES MUSHAIT,Zone,,
Khamis Mushait,South,,KHA002,AG00303,Mohamed khan,CS008226,تموينات الريف,,,,,,,2,MON,18.31018,42.74537,"311,212,192,300,003","5,855,362,900",,2024-09-15,0,,0,500.0000000,ACTIVE,Missing Documents,Potential,Required,,,,,,,,KHAMES MUSHAIT,Zone,,
Khamis Mushait,South,,KHA002,AG00303,Mohamed khan,CS008227,تموينات الشاطئ,,,,,,,2,MON,18.31167,42.74532,"302,079,280,300,003","5,855,065,905",,2024-09-15,0,,0,500.0000000,ACTIVE,Missing Documents,Potential,Required,,,,,,,,KHAMES MUSHAIT,Zone,,
Khamis Mushait,South,,KHA002,AG00303,Mohamed khan,CS008228,تموينات النهرين,,,,,,,2,MON,18.31270,42.74501,"305,001,278,900,003","5,855,008,695",,2024-09-15,0,,0,500.0000000,ACTIVE,Missing Documents,Potential,Required,,,,,,,,KHAMES MUSHAIT,Zone,,
Khamis Mushait,South,خميس مشيط,KHA002,AG00303,Mohamed khan,CS008230,شموخ الامجاد,"563,127,732",,,Traditional Trade,Medium Grocery,,2,WED,18.28919,42.76264,"311,144,059,300,003","5,855,357,494","43,079,298,070",2024-09-15,9,Credit,17,1019.6800000,ACTIVE,Approved by Finance,Potential,Required,2024-12-19,2025-01-06,هشام بن عبدالملك,النسيم,4845,62465,9151,KHAMES MUSHAIT,Zone,,
Khamis Mushait,South,خميس مشيط,KHA002,AG00303,Mohamed khan,CS008236,تموينات و مخابز النجوم لبيع المواد الغذائية,"502,465,821",,,Traditional Trade,Medium Grocery,,1,TUE,18.35243,42.82956,"310,714,563,300,003","5,855,348,779","460,316,775,684",2024-09-15,3,Credit,5,500.0000000,ACTIVE,Approved by Finance,Potential,Required,2025-05-15,2025-08-25,القاسم بن عيسى,تندحه,1,62621,1,KHAMES MUSHAIT,Zone,,
Khamis Mushait,South,خميس مشيط,KHA002,AG00303,Mohamed khan,CS008237,تموينات نخيل القرية المركزية للمواد الغذائية,"502,272,641",0502272641,,Traditional Trade,Medium Grocery,,1,WED,18.35496,42.82030,"311,227,178,500,003","5,855,359,210","43,099,575,132",2024-09-15,4,Credit,21,500.0000000,ACTIVE,Approved by Finance,Potential,Required,2025-02-21,2025-02-28,شارع ابن الرطبي,تندحه,1,62612,1,KHAMES MUSHAIT,Zone,,
Khamis Mushait,South,,KHA002,AG00303,Mohamed khan,CS008241,مؤسـسـة  سعيد صوفان للتجارة,,,,,,,2,MON,18.30715,42.75332,"310,156,991,100,003","5,855,037,517",,2024-09-15,0,,0,500.0000000,ACTIVE,Missing Documents,Potential,Required,,,,,,,,KHAMES MUSHAIT,Zone,,
Khamis Mushait,South,وادي ابن هشبل,KHA002,AG00303,Mohamed khan,CS008283,تموينات اغصان طارف,"500,918,156",,,Traditional Trade,Medium Grocery,,1,SAT,18.58728,42.69621,"300,000,000,000,003","7,034,929,906","450,413,580,034",2024-09-15,6,Credit,13,500.0000000,ACTIVE,Approved by Finance,Potential,Required,2025-11-04,2024-10-20,وادي ابن هشيل,وادي ابن هشبل,8378,62915,2490,KHAMES MUSHAIT,Zone,,
Khamis Mushait,South,خميس مشيط,KHA002,AG00303,Mohamed khan,CS008299,تموينات جود العربية,"557,234,233",,,Traditional Trade,Medium Grocery,,1,TUE,18.35434,42.82445,"300,490,718,800,003","5,855,349,954","42,055,081,519",2024-09-15,6,Credit,0,532.0800000,ACTIVE,Approved by Finance,Potential,NOT Required,2024-10-22,2025-11-28,شارع عام,تندحه,1,62621,1,KHAMES MUSHAIT,Zone,,
Khamis Mushait,South,,KHA002,AG00303,Mohamed khan,CS008300,مؤسسة عبدالله جابر مرعي ال عمره لبيع المواد الغذائ,,,,,,,2,SUN,18.31711,42.72469,"300,459,802,900,003","5,855,016,831",,2024-09-15,0,,0,500.0000000,ACTIVE,Missing Documents,Potential,Required,,,,,,,,KHAMES MUSHAIT,Zone,,
Khamis Mushait,South,خميس مشيط,KHA002,AG00303,Mohamed khan,CS008301,اسواق المدينة,"552,358,723",,,Traditional Trade,Medium Grocery,,2,MON,18.30839,42.75775,"311,773,378,600,003","5,855,358,354","43,109,847,054",2024-09-15,23,Credit,0,825.2500000,ACTIVE,Approved by Finance,Potential,NOT Required,2025-01-12,2025-04-15,العزيزية,العزيزية,4917,62465,8590,KHAMES MUSHAIT,Zone,,
Khamis Mushait,South,,KHA002,AG00303,Mohamed khan,CS008370,تموينات جلوي,,,,,,,1,TUE,18.83541,43.23573,"301,047,387,200,003","5,950,104,549",,2024-09-15,0,,0,500.0000000,ACTIVE,Missing Documents,Potential,Required,,,,,,,,KHAMES MUSHAIT,Zone,,
Khamis Mushait,South,,KHA002,AG00303,Mohamed khan,CS008373,اسواق النهضة,"507,727,422",0507727422,,,,,1,TUE,18.59075,43.20050,"311,220,841,600,003","5,855,342,197",,2024-09-15,0,,0,500.0000000,ACTIVE,Missing Documents,Potential,Required,,,,,,,,KHAMES MUSHAIT,Zone,,
Khamis Mushait,South,,KHA002,AG00303,Mohamed khan,CS008395,تموينات الصفاء الراقي للمواد الغذائية,,,,,,,1,WED,18.34275,42.74878,"311,090,489,400,003","5,855,356,121",,2024-09-15,0,,0,500.0000000,ACTIVE,Missing Documents,Potential,Required,,,,,,,,KHAMES MUSHAIT,Zone,,
Khamis Mushait,South,,KHA002,AG00303,Mohamed khan,CS008397,مؤسسه فجر الحضارة التجارية 1,"535,216,202",,,,,,2,THU,18.26851,42.74091,"302,052,954,500,003","5,855,345,690",,2024-09-15,0,,0,500.0000000,ACTIVE,Missing Documents,Potential,Required,,,,,,,,KHAMES MUSHAIT,Zone,,
Khamis Mushait,South,,KHA002,AG00303,Mohamed khan,CS008398,تموينات ريم سعيد بن علي القحطاني للمواد الغذائية,,,,,,,2,SAT,18.33441,42.74927,"310,596,519,100,003","43,026,446,564",,2024-09-15,0,,0,500.0000000,ACTIVE,Missing Documents,Potential,Required,,,,,,,,KHAMES MUSHAIT,Zone,,
Khamis Mushait,South,خميس مشيط,KHA002,AG00303,Mohamed khan,CS008416,تموينات جسر الخيمه للمواد الغذائية,"532,566,750",,,Traditional Trade,Small Grocery,,2,WED,18.28998,42.75459,"311,517,344,500,003","5,855,360,931","431,110,135,501",2024-09-15,6,Credit,15,500.0000000,ACTIVE,Approved by Finance,Potential,Required,2025-02-21,2025-05-29,زيد الخيل,النسيم,4824,62465,8694,KHAMES MUSHAIT,Zone,,
Khamis Mushait,South,خميس مشيط,KHA002,AG00303,Mohamed khan,CS008419,تموينات كنك للمواد الغذائية,"501,933,066",,,Traditional Trade,Medium Grocery,,1,MON,18.32315,42.69044,"302,073,311,200,003","5,855,365,999","440,811,818,138",2024-09-15,3,,0,500.0000000,ACTIVE,Approved by Finance,Potential,Required,2025-03-14,2025-02-22,ربيع بن سهل,العرق الشمالي,4315,62454,9301,KHAMES MUSHAIT,Zone,,
Khamis Mushait,South,,KHA002,AG00303,Mohamed khan,CS008425,محل دكان سعادة للمواد الغذائية,,,,,,,1,THU,18.32369,42.76888,"311,165,463,400,003","43,079,380,533",,2024-09-15,0,,0,500.0000000,ACTIVE,Missing Documents,Potential,Required,,,,,,,,KHAMES MUSHAIT,Zone,,
Khamis Mushait,South,,KHA002,AG00303,Mohamed khan,CS008446,تموينات صحاري,,,,,,,2,MON,18.30323,42.74404,"311,301,702,600,003","5,855,262,362",,2024-09-15,0,,0,500.0000000,ACTIVE,Missing Documents,Potential,Required,,,,,,,,KHAMES MUSHAIT,Zone,,
Khamis Mushait,South,,KHA002,AG00303,Mohamed khan,CS008459,تموينات موجان للمواد الغذائيه,,,,,,,1,SUN,18.32487,42.66579,"311,046,740,400,003","5,855,347,408",,2024-09-15,0,,0,500.0000000,ACTIVE,Missing Documents,Potential,Required,,,,,,,,KHAMES MUSHAIT,Zone,,
Khamis Mushait,South,,KHA002,AG00303,Mohamed khan,CS008460,تموينات ثمره الجنوب,,,,,,,1,MON,18.31453,42.67654,"300,727,393,300,003","5,850,233,987",,2024-09-15,0,,0,500.0000000,ACTIVE,Missing Documents,Potential,Required,,,,,,,,KHAMES MUSHAIT,Zone,,
Khamis Mushait,South,,KHA002,AG00303,Mohamed khan,CS008461,تموينات التوحيد,,,,,,,1,SUN,18.39665,42.69920,"310,795,322,800,003","5,855,356,656",,2024-09-15,0,,0,500.0000000,ACTIVE,Missing Documents,Potential,Required,,,,,,,,KHAMES MUSHAIT,Zone,,
Khamis Mushait,South,,KHA002,AG00303,Mohamed khan,CS008471,محل الصقر للمنتجات البلاستيكية,,,,,,,1,WED,18.33846,42.74660,"310,408,693,500,003","5,855,344,790",,2024-09-15,0,,0,500.0000000,ACTIVE,Missing Documents,Potential,Required,,,,,,,,KHAMES MUSHAIT,Zone,,
Khamis Mushait,South,,KHA002,AG00303,Mohamed khan,CS008506,تموينات سلة و عربة للتجارة,,,,,,,1,SUN,18.36861,42.70303,"311,299,814,700,003","43,111,014,189",,2024-09-15,0,,0,500.0000000,ACTIVE,Missing Documents,Potential,Required,,,,,,,,KHAMES MUSHAIT,Zone,,
Khamis Mushait,South,وادي ابن هشبل,KHA002,AG00303,Mohamed khan,CS008529,تموينات اركان خيبر الجنوب,"560,099,802",,,Traditional Trade,Small Grocery,,1,SAT,18.80515,42.87596,"302,133,316,100,003","5,855,058,014","40,021,708,953",2024-09-15,10,Credit,24,500.0000000,ACTIVE,Approved by Finance,Potential,Required,2026-08-15,2025-07-21,خيبر الجنوب,وادي ابن هشبل,1,62948,1,KHAMES MUSHAIT,Zone,,
Khamis Mushait,South,وادي ابن هشبل,KHA002,AG00303,Mohamed khan,CS008530,بقالة نوال علي مرعي الشهراني للمواد الغذائية,"533,659,166",,,Traditional Trade,Small Grocery,,1,SAT,18.79183,42.87217,"310,630,208,300,003","5,855,346,692","440,911,892,643",2024-09-15,5,Credit,11,500.0000000,ACTIVE,Approved by Finance,Potential,Required,2024-12-15,2026-02-22,خيبر الجنوب - طريق بيشة,وادي ابن هشبل,1,62972,1,KHAMES MUSHAIT,Zone,,
Khamis Mushait,South,,KHA002,AG00303,Mohamed khan,CS008555,مشغل شرعه محمد القحطاني,,,,,,,2,MON,18.31526,42.75325,"302,099,894,800,003","5,855,355,919",,2024-09-15,0,,0,500.0000000,ACTIVE,Missing Documents,Potential,Required,,,,,,,,KHAMES MUSHAIT,Zone,,
Khamis Mushait,South,,KHA002,AG00303,Mohamed khan,CS008578,مؤسسة الموردة للمواد الغذائية,,,,,,,1,MON,18.31101,42.67856,"311,193,549,500,003","43,089,450,771",,2024-09-15,0,,0,500.0000000,ACTIVE,Missing Documents,Potential,Required,,,,,,,,KHAMES MUSHAIT,Zone,,
Khamis Mushait,South,,KHA002,AG00303,Mohamed khan,CS008580,مؤسسة محمد هتان التجاريه,,,,,,,2,TUE,18.29720,42.72676,"310,000,228,800,003","42,034,174,954",,2024-09-15,0,,0,500.0000000,ACTIVE,Missing Documents,Potential,Required,,,,,,,,KHAMES MUSHAIT,Zone,,
Khamis Mushait,South,,KHA002,AG00303,Mohamed khan,CS008581,شركة شرفية للمواد الغذائية,,,,,,,2,TUE,18.29850,42.72333,"310,495,913,600,003","5,855,350,574",,2024-09-15,0,,0,500.0000000,ACTIVE,Missing Documents,Potential,Required,,,,,,,,KHAMES MUSHAIT,Zone,,
Khamis Mushait,South,تندحة,KHA002,AG00303,Mohamed khan,CS008583,تموينات نجمة الراقي للمواد الغذائية,"564,311,908",,,Traditional Trade,Small Grocery,,2,SAT,18.32146,42.74769,"311,103,627,200,003","5,855,356,439","440,110,293,916",2024-09-15,4,Credit,0,500.0000000,ACTIVE,Approved by Finance,Potential,Required,2024-11-03,2025-06-30,ابراهيم بن حمد بن عيسى,الفتح,2974,62612,6765,KHAMES MUSHAIT,Zone,,
Khamis Mushait,South,خميس مشيط,KHA002,AG00303,Mohamed khan,CS008584,تموينات العرفه,"551,037,598",,,Traditional Trade,Medium Grocery,,2,TUE,18.30438,42.72097,"300,458,714,400,003","5,855,035,213","450,814,916,281",2024-09-15,4,Credit,0,500.0000000,ACTIVE,Approved by Finance,Potential,Required,2025-06-28,2025-02-14,شارع,الخالدية,2679,62461,8157,KHAMES MUSHAIT,Zone,,
Khamis Mushait,South,,KHA002,AG00303,Mohamed khan,CS008585,مؤسسة عبدالاله عبدالله ابن سعيد ابن معتق,,,,,,,2,TUE,18.30381,42.72463,"310,766,164,700,003","43,119,985,975",,2024-09-15,0,,0,500.0000000,ACTIVE,Missing Documents,Potential,Required,,,,,,,,KHAMES MUSHAIT,Zone,,
Khamis Mushait,South,,KHA002,AG00303,Mohamed khan,CS008605,تموينات عبدالله,,,,,,,2,TUE,18.30940,42.72719,"310,612,358,700,003","5,855,341,149",,2024-09-15,0,,0,500.0000000,ACTIVE,Missing Documents,Potential,Required,,,,,,,,KHAMES MUSHAIT,Zone,,
Khamis Mushait,South,,KHA002,AG00303,Mohamed khan,CS008606,تموينات الازدهار,,,,,,,2,TUE,18.30889,42.72340,"311,009,808,300,003","5,855,354,226",,2024-09-15,0,,0,500.0000000,ACTIVE,Missing Documents,Potential,Required,,,,,,,,KHAMES MUSHAIT,Zone,,
Khamis Mushait,South,,KHA002,AG00303,Mohamed khan,CS008607,مؤسسة حسن محمد علي دوكل,,,,,,,2,TUE,18.30402,42.72463,"301,007,969,500,003","41,042,624,790",,2024-09-15,0,,0,500.0000000,ACTIVE,Missing Documents,Potential,Required,,,,,,,,KHAMES MUSHAIT,Zone,,
Khamis Mushait,South,خميس مشيط,KHA002,AG00303,Mohamed khan,CS008637,شركة ثمار الجودة التجارية,"503,291,064",,,Traditional Trade,Small Grocery,,2,WED,18.30073,42.76769,"311,504,375,500,003","7,008,155,298","40,102,464,822",2024-09-15,9,Credit,23,1719.0400000,ACTIVE,Approved by Finance,Potential,NOT Required,2025-04-29,2025-04-12,الامير سلطان,الصقور,1,00000,1,KHAMES MUSHAIT,Zone,,
