Area,Region,City,Zone,AgentId,AgentName,CusId,CusName,BuyerPhone,ReceiverPhone,FinancePhone,CH,SubChannel,F,StartWeeks,Days,Latitude,Longitude,VAT,CR,BL,createdDate,TotalDeliveredOrders,PaymentType,CreditDays,CreditLimit,Status,Validation,CreationType,CheckIn,CRExpiryDate,BLExpiryDate,StreetName,DistrictName,AdditionalNum,ZipCode,BuildingNumber,DC,AssignmentType,Geocode Quality,Full Corrected Address
,,,RID002,,,CS022035,اسواق ارزاق القصيم,,,,,,,2,THU,24.79166,46.70142,"311,218,108,800,003",,,2025-04-23,0,,0,500.0000000,ACTIVE,Missing Documents,Potential,Required,,,,,,,,RIYADH,Zone,,
,,,RID002,,,CS022074,شركة مسار الانماء للتجارة,,,,,,,1,THU,24.74835,46.76247,"311,432,691,200,003","7,031,005,916",,2025-04-23,0,,0,500.0000000,ACTIVE,Missing Documents,Potential,Required,,,,,,,,RIYADH,Zone,,
,,,RID002,,,CS022076,تموينات وناسة الحارة للمواد الغذائية,,,,,,,2,TUE,24.75516,46.80546,"311,325,409,100,003","7,029,609,661",,2025-04-23,0,,0,500.0000000,ACTIVE,Missing Documents,Potential,Required,,,,,,,,RIYADH,Zone,,
,,,RID002,,,CS022078,تامر الرويلي,,,,,,,2,MON,24.75120,46.80280,"300,761,059,400,003","7,028,622,236",,2025-04-23,0,,0,500.0000000,ACTIVE,Missing Documents,Potential,Required,,,,,,,,RIYADH,Zone,,
,,,RID002,,,CS022079,تموينات عبدالله محمد اللحيدان,,,,,,,2,THU,24.75128,46.80260,"300,761,059,400,003","7,028,622,236",,2025-04-23,0,,0,500.0000000,ACTIVE,Missing Documents,Potential,Required,,,,,,,,RIYADH,Zone,,
,,,RID002,,,CS022094,بقالة عبد المحسن علي العقيدي,,,,,,,1,MON,24.70990,46.77555,"300,408,217,100,003","7,025,418,976",,2025-04-23,0,,0,500.0000000,ACTIVE,Missing Documents,Potential,Required,,,,,,,,RIYADH,Zone,,
,,,RID002,,,CS022113,مؤسسة شيم العرب,,,,,,,1,MON,24.69316,46.78880,"310,102,745,900,003","7,010,325,152",,2025-04-23,0,,0,500.0000000,ACTIVE,Missing Documents,Potential,Required,,,,,,,,RIYADH,Zone,,
,,,RID002,,,CS022168,تموينات المطيري,,,,,,,2,MON,24.75733,46.79064,"311,322,040,500,003","2,051,237,321",,2025-04-23,0,,0,500.0000000,ACTIVE,Missing Documents,Potential,Required,,,,,,,,RIYADH,Zone,,
,,,RID002,,,CS022193,اسواق محاصيل التوت المركزية,,,,,,,1,MON,24.70701,46.81139,"311,273,064,700,003","1,110,100,450",,2025-04-23,0,,0,500.0000000,ACTIVE,Missing Documents,Potential,Required,,,,,,,,RIYADH,Zone,,
,,,RID002,,,CS022228,تموينات شبه الصحراء,,,,,,,2,SAT,24.73180,46.77870,"311,174,981,500,003","1,011,148,774",,2025-04-23,0,,0,500.0000000,ACTIVE,Missing Documents,Potential,Required,,,,,,,,RIYADH,Zone,,
,,,RID002,,,CS022289,تموينات انس فريح العنزي للمواد الغذائية 3,,,,,,,1,WED,24.73602,46.78229,"301,234,065,800,003","1,010,997,155",,2025-04-23,0,,0,500.0000000,ACTIVE,Missing Documents,Potential,Required,,,,,,,,RIYADH,Zone,,
,,,RID002,,,CS022291,تموينات انس فريح العنزي للمواد الغذائية 10,,,,,,,2,TUE,24.75055,46.79456,"301,234,065,800,003","1,010,997,155",,2025-04-23,0,,0,500.0000000,ACTIVE,Missing Documents,Potential,Required,,,,,,,,RIYADH,Zone,,
,,,RID002,,,CS022298,تموينات رياض الخير,,,,,,,1,MON,24.70999,46.78971,"300,256,099,700,003","1,010,996,818",,2025-04-23,0,,0,500.0000000,ACTIVE,Missing Documents,Potential,Required,,,,,,,,RIYADH,Zone,,
,,,RID002,,,CS022299,تموينات شمال العاصمة للمواد الغذائية,,,,,,,2,TUE,24.75868,46.73309,"302,066,778,700,003","1,010,994,156",,2025-04-23,0,,0,500.0000000,ACTIVE,Missing Documents,Potential,Required,,,,,,,,RIYADH,Zone,,
,,,RID002,,,CS022303,تموينات معالم الخير,,,,,,,1,SAT,24.67019,46.80933,"312,066,309,200,003","1,010,984,028",,2025-04-23,0,,0,500.0000000,ACTIVE,Missing Documents,Potential,Required,,,,,,,,RIYADH,Zone,,
,,,RID002,,,CS022304,شركة معالم الخير المحدودة,,,,,,,1,MON,24.71609,46.80047,"312,066,309,200,003","1,010,984,028",,2025-04-23,0,,0,500.0000000,ACTIVE,Missing Documents,Potential,Required,,,,,,,,RIYADH,Zone,,
,,,RID002,,,CS022316,اسواق اولاد علي,,,,,,,1,WED,24.75220,46.74330,"310,191,373,800,003","1,010,949,813",,2025-04-23,0,,0,500.0000000,ACTIVE,Missing Documents,Potential,Required,,,,,,,,RIYADH,Zone,,
,,,RID002,,,CS022319,اسواق السلطان,,,,,,,1,THU,24.75226,46.74355,"310,191,373,800,003","1,010,949,813",,2025-04-23,0,,0,500.0000000,ACTIVE,Missing Documents,Potential,Required,,,,,,,,RIYADH,Zone,,
,,,RID002,,,CS022325,شركة جناين الازدهار للتجارة,,,,,,,2,THU,24.77830,46.78572,"310,304,941,100,003","1,010,946,124",,2025-04-23,0,,0,500.0000000,ACTIVE,Missing Documents,Potential,Required,,,,,,,,RIYADH,Zone,,
,,,RID002,,,CS022326,شركة جناين الازدهار للتجارة,,,,,,,2,MON,24.77325,46.72285,"310,304,941,100,003","1,010,946,124",,2025-04-23,0,,0,500.0000000,ACTIVE,Missing Documents,Potential,Required,,,,,,,,RIYADH,Zone,,
,,,RID002,,,CS022335,تموينات وادي الفيحاء للمواد الغذائية,,,,,,,1,SAT,24.67923,46.80024,"310,145,522,400,003","1,010,933,068",,2025-04-23,0,,0,500.0000000,ACTIVE,Missing Documents,Potential,Required,,,,,,,,RIYADH,Zone,,
,,,RID002,,,CS022336,تموينات زاوية الريان للمواد الغذائية,,,,,,,1,SAT,24.67394,46.80342,"310,145,522,400,003","1,010,933,068",,2025-04-23,0,,0,500.0000000,ACTIVE,Missing Documents,Potential,Required,,,,,,,,RIYADH,Zone,,
,,,RID002,,,CS022343,تموين الاسرة للمواد الغدائيه,,,,,,,2,MON,24.79516,46.73319,"300,278,981,500,003","1,010,923,813",,2025-04-23,0,,0,500.0000000,ACTIVE,Missing Documents,Potential,Required,,,,,,,,RIYADH,Zone,,
,,,RID002,,,CS022344,تموين الأسره للمواد الغذائية ١,,,,,,,2,WED,24.79505,46.73331,"300,278,981,500,003","1,010,923,813",,2025-04-23,0,,0,500.0000000,ACTIVE,Missing Documents,Potential,Required,,,,,,,,RIYADH,Zone,,
,,,RID002,,,CS022374,مؤسسه انوار العارض التجاريه 2,,,,,,,2,WED,24.77536,46.76279,"311,680,568,900,003","1,010,883,379",,2025-04-23,0,,0,500.0000000,ACTIVE,Missing Documents,Potential,Required,,,,,,,,RIYADH,Zone,,
,,,RID002,,,CS022376,تموينات الرياده 2,,,,,,,2,WED,24.78938,46.73991,"311,348,708,400,003","1,010,882,846",,2025-04-23,0,,0,500.0000000,ACTIVE,Missing Documents,Potential,Required,,,,,,,,RIYADH,Zone,,
,,,RID002,,,CS022387,كود الغذاء للمواد الغذائية,,,,,,,1,THU,24.72307,46.76218,"302,188,559,600,003","1,010,851,512",,2025-04-23,0,,0,500.0000000,ACTIVE,Missing Documents,Potential,Required,,,,,,,,RIYADH,Zone,,
,,,RID002,,,CS022396,تموينات الجاده الخضراء,,,,,,,1,TUE,24.71841,46.81413,"310,034,437,200,003","1,010,849,578",,2025-04-23,0,,0,500.0000000,ACTIVE,Missing Documents,Potential,Required,,,,,,,,RIYADH,Zone,,
,,,RID002,,,CS022397,تموينات الجادة الخضراء,,,,,,,1,MON,24.71899,46.80529,"310,034,437,200,003","1,010,849,578",,2025-04-23,0,,0,500.0000000,ACTIVE,Missing Documents,Potential,Required,,,,,,,,RIYADH,Zone,,
,,,RID002,,,CS022401,شركة مزارع العقيلات للمواد الغذائية,,,,,,,1,WED,24.74121,46.75110,"311,485,474,300,003","1,010,845,296",,2025-04-23,0,,0,500.0000000,ACTIVE,Missing Documents,Potential,Required,,,,,,,,RIYADH,Zone,,
,,,RID002,,,CS022402,شركة مزارع العقيلات للمواد الغذائية,,,,,,,2,SAT,24.74125,46.75065,"311,485,474,300,003","1,010,845,296",,2025-04-23,0,,0,500.0000000,ACTIVE,Missing Documents,Potential,Required,,,,,,,,RIYADH,Zone,,
,,,RID002,,,CS022410,شموع المنامه,,,,,,,2,SAT,24.74553,46.78966,"311,492,034,900,003","1,010,839,156",,2025-04-23,0,,0,500.0000000,ACTIVE,Missing Documents,Potential,Required,,,,,,,,RIYADH,Zone,,
,,,RID002,,,CS022411,مجمع مذاق السكرية التجاري 1,,,,,,,2,WED,24.75865,46.75551,"311,443,619,500,003","1,010,835,900",,2025-04-23,0,,0,500.0000000,ACTIVE,Missing Documents,Potential,Required,,,,,,,,RIYADH,Zone,,
,,,RID002,,,CS022417,اسواق بترو الطريق المركزية,,,,,,,1,WED,24.75348,46.74264,"300,417,058,100,003","1,010,833,002",,2025-04-23,0,,0,500.0000000,ACTIVE,Missing Documents,Potential,Required,,,,,,,,RIYADH,Zone,,
,,,RID002,,,CS022418,تموينات الدائري الشرقي,,,,,,,1,WED,24.75360,46.74266,"300,417,058,100,003","1,010,833,002",,2025-04-23,0,,0,500.0000000,ACTIVE,Missing Documents,Potential,Required,,,,,,,,RIYADH,Zone,,
,,,RID002,,,CS022428,تموينات زاد حلو للمواد الغذائية,,,,,,,2,WED,24.76074,46.72611,"302,095,583,400,003","1,010,827,383",,2025-04-23,0,,0,500.0000000,ACTIVE,Missing Documents,Potential,Required,,,,,,,,RIYADH,Zone,,
,,,RID002,,,CS022438,تموينات احتواء للمواد الغذائية,,,,,,,2,WED,24.79424,46.74854,"311,382,551,300,003","1,010,821,965",,2025-04-23,0,,0,500.0000000,ACTIVE,Missing Documents,Potential,Required,,,,,,,,RIYADH,Zone,,
,,,RID002,,,CS022447,تموينات سلام حمد حمود الشمري,,,,,,,1,WED,24.73159,46.76161,"310,184,739,400,003","1,010,813,275",,2025-04-23,0,,0,500.0000000,ACTIVE,Missing Documents,Potential,Required,,,,,,,,RIYADH,Zone,,
,,,RID002,,,CS022455,تموينات برج القمم,,,,,,,1,THU,24.73401,46.77031,"310,762,067,200,003","1,010,807,933",,2025-04-23,0,,0,500.0000000,ACTIVE,Missing Documents,Potential,Required,,,,,,,,RIYADH,Zone,,
,,,RID002,,,CS022458,تموينات واحه البيت للمواد الغذائيه,,,,,,,1,MON,24.70224,46.77082,"310,949,722,900,003","1,010,807,850",,2025-04-23,0,,0,500.0000000,ACTIVE,Missing Documents,Potential,Required,,,,,,,,RIYADH,Zone,,
,,,RID002,,,CS022467,مؤسسة زاد وقوت التجارية,,,,,,,1,SUN,24.68849,46.79823,"302,243,872,400,003","1,010,799,562",,2025-04-23,0,,0,500.0000000,ACTIVE,Missing Documents,Potential,Required,,,,,,,,RIYADH,Zone,,
,,,RID002,,,CS022474,تموينات توصل المهند للمواد الغذائية 4,,,,,,,2,TUE,24.76153,46.76179,"311,275,187,400,003","1,010,798,104",,2025-04-23,0,,0,500.0000000,ACTIVE,Missing Documents,Potential,Required,,,,,,,,RIYADH,Zone,,
,,,RID002,,,CS022475,تموينات توصل المهند للمواد الغذائية 3,,,,,,,2,MON,24.76402,46.76085,"311,275,187,400,003","1,010,798,104",,2025-04-23,0,,0,500.0000000,ACTIVE,Missing Documents,Potential,Required,,,,,,,,RIYADH,Zone,,
,,,RID002,,,CS022476,تموينات توصل المهند للمواد الغذائية 2,,,,,,,2,MON,24.76395,46.76074,"311,275,187,400,003","1,010,798,104",,2025-04-23,0,,0,500.0000000,ACTIVE,Missing Documents,Potential,Required,,,,,,,,RIYADH,Zone,,
,,,RID002,,,CS022477,تموينات توصل المهند للمواد الغذائية 1,,,,,,,2,MON,24.76183,46.76218,"311,275,187,400,003","1,010,798,104",,2025-04-23,0,,0,500.0000000,ACTIVE,Missing Documents,Potential,Required,,,,,,,,RIYADH,Zone,,
,,,RID002,,,CS022496,شركة جنان القصيم,,,,,,,1,WED,24.72976,46.76711,"310,626,404,600,003","1,010,786,211",,2025-04-23,0,,0,500.0000000,ACTIVE,Missing Documents,Potential,Required,,,,,,,,RIYADH,Zone,,
,,,RID002,,,CS022497,تموينات اهواك للمواد الغذائية,,,,,,,1,WED,24.72228,46.76858,"310,626,404,600,003","1,010,786,211",,2025-04-23,0,,0,500.0000000,ACTIVE,Missing Documents,Potential,Required,,,,,,,,RIYADH,Zone,,
,,,RID002,,,CS022516,شركة نجوم الجزيرة للمواد الغذائية1,,,,,,,1,WED,24.72068,46.80717,"311,109,439,800,003","1,010,776,725",,2025-04-23,0,,0,500.0000000,ACTIVE,Missing Documents,Potential,Required,,,,,,,,RIYADH,Zone,,
,,,RID002,,,CS022518,شركة نجوم الجزيرة للمواد الغذائية,,,,,,,1,WED,24.72316,46.80571,"311,109,439,800,003","1,010,776,725",,2025-04-23,0,,0,500.0000000,ACTIVE,Missing Documents,Potential,Required,,,,,,,,RIYADH,Zone,,
,,,RID002,,,CS022536,مؤسسة محمد علي سعيد القحطاني,,,,,,,2,SUN,24.74767,46.79767,"302,264,142,100,003","1,010,764,485",,2025-04-23,0,,0,500.0000000,ACTIVE,Missing Documents,Potential,Required,,,,,,,,RIYADH,Zone,,
,,,RID002,,,CS022546,مؤسسة اصالة الخيرات,,,,,,,1,SAT,24.67978,46.79991,"310,130,796,700,003","1,010,760,683",,2025-04-23,0,,0,500.0000000,ACTIVE,Missing Documents,Potential,Required,,,,,,,,RIYADH,Zone,,
,,,RID002,,,CS022562,تموينات ركن الندا للمواد الغذائية,,,,,,,1,MON,24.71036,46.78936,"311,086,144,500,003","1,010,756,203",,2025-04-23,0,,0,500.0000000,ACTIVE,Missing Documents,Potential,Required,,,,,,,,RIYADH,Zone,,
,,,RID002,,,CS022571,مؤسسة درة نجد للمواد الغذائية,,,,,,,1,SAT,24.68396,46.79904,"311,057,146,800,003","1,010,748,502",,2025-04-23,0,,0,500.0000000,ACTIVE,Missing Documents,Potential,Required,,,,,,,,RIYADH,Zone,,
,,,RID002,,,CS022572,تموينات غلة البادية للمواد الغذائية,,,,,,,1,SAT,24.68410,46.79901,"311,057,146,800,003","1,010,748,502",,2025-04-23,0,,0,500.0000000,ACTIVE,Missing Documents,Potential,Required,,,,,,,,RIYADH,Zone,,
,,,RID002,,,CS022585,شركة عزم الجزيره للمواد الغذائية 2 فرع الروضة,,,,,,,2,THU,24.76430,46.80237,"311,588,452,900,003","1,010,743,646",,2025-04-23,0,,0,500.0000000,ACTIVE,Missing Documents,Potential,Required,,,,,,,,RIYADH,Zone,,
,,,RID002,,,CS022600,تموينات ركن رامه للمواد الغذائية,,,,,,,2,SAT,24.76031,46.75091,"311,019,237,200,003","1,010,738,595",,2025-04-23,0,,0,500.0000000,ACTIVE,Missing Documents,Potential,Required,,,,,,,,RIYADH,Zone,,
,,,RID002,,,CS022601,تموينات ركن رامه 2,,,,,,,2,SAT,24.76080,46.75078,"311,019,237,200,003","1,010,738,595",,2025-04-23,0,,0,500.0000000,ACTIVE,Missing Documents,Potential,Required,,,,,,,,RIYADH,Zone,,
,,,RID002,,,CS022602,تموينات متعب محمد ابراهيم كعكم,,,,,,,2,SUN,24.74450,46.79142,"302,131,548,900,003","1,010,737,580",,2025-04-23,0,,0,500.0000000,ACTIVE,Missing Documents,Potential,Required,,,,,,,,RIYADH,Zone,,
,,,RID002,,,CS022614,تموينات مقبل علي المطيري,,,,,,,2,TUE,24.76391,46.76497,"310,998,797,300,003","1,010,733,462",,2025-04-23,0,,0,500.0000000,ACTIVE,Missing Documents,Potential,Required,,,,,,,,RIYADH,Zone,,
,,,RID002,,,CS022647,بوينت فرع غرناطة,,,,,,,2,MON,24.79740,46.73573,"310,945,024,800,003","1,010,720,224",,2025-04-23,0,,0,500.0000000,ACTIVE,Missing Documents,Potential,Required,,,,,,,,RIYADH,Zone,,
,,,RID002,,,CS022648,بوينت فرع الروضة,,,,,,,1,THU,24.72326,46.75918,"310,945,024,800,003","1,010,720,224",,2025-04-23,0,,0,500.0000000,ACTIVE,Missing Documents,Potential,Required,,,,,,,,RIYADH,Zone,,
,,,RID002,,,CS022655,مؤسسة سلة الصيف للمواد الغذائية,,,,,,,2,WED,24.79496,46.73347,"310,940,352,900,003","1,010,719,076",,2025-04-23,0,,0,500.0000000,ACTIVE,Missing Documents,Potential,Required,,,,,,,,RIYADH,Zone,,
,,,RID002,,,CS022672,شركة زهرة جنان القصيم الغذائية   1,,,,,,,1,THU,24.73488,46.76283,"311,227,300,300,003","1,010,715,936",,2025-04-23,0,,0,500.0000000,ACTIVE,Missing Documents,Potential,Required,,,,,,,,RIYADH,Zone,,
,,,RID002,,,CS022705,تموينات هياء عبدالله البقمي,,,,,,,1,SUN,24.68481,46.81318,"310,893,425,500,003","1,010,694,553",,2025-04-23,0,,0,500.0000000,ACTIVE,Missing Documents,Potential,Required,,,,,,,,RIYADH,Zone,,
,,,RID002,,,CS022771,شركة جوهرة الملقا للمواد الغذائية,,,,,,,1,TUE,24.70788,46.81245,"310,792,934,100,003","1,010,671,971",,2025-04-23,0,,0,500.0000000,ACTIVE,Missing Documents,Potential,Required,,,,,,,,RIYADH,Zone,,
,,,RID002,,,CS022776,اسواق تفاحة غرناطة,,,,,,,2,MON,24.77966,46.73807,"310,141,661,500,003","1,010,668,495",,2025-04-23,0,,0,500.0000000,ACTIVE,Missing Documents,Potential,Required,,,,,,,,RIYADH,Zone,,
,,,RID002,,,CS022778,تموينات اغذية المنار,,,,,,,1,TUE,24.71508,46.79869,"310,118,923,700,003","1,010,668,300",,2025-04-23,0,,0,500.0000000,ACTIVE,Missing Documents,Potential,Required,,,,,,,,RIYADH,Zone,,
,,,RID002,,,CS022780,بقالة عبد الله خالد العايد,,,,,,,1,SAT,24.68404,46.82100,"302,059,883,400,003","1,010,667,250",,2025-04-23,0,,0,500.0000000,ACTIVE,Missing Documents,Potential,Required,,,,,,,,RIYADH,Zone,,
,,,RID002,,,CS022781,تموينات عبدالله العايد,,,,,,,1,SAT,24.67195,46.80430,"302,059,883,400,003","1,010,667,250",,2025-04-23,0,,0,500.0000000,ACTIVE,Missing Documents,Potential,Required,,,,,,,,RIYADH,Zone,,
,,,RID002,,,CS022782,اسواق عبدالله العايد 3,,,,,,,2,WED,24.78942,46.73990,"302,059,883,400,003","1,010,667,250",,2025-04-23,0,,0,500.0000000,ACTIVE,Missing Documents,Potential,Required,,,,,,,,RIYADH,Zone,,
,,,RID002,,,CS022784,تموينات عصر النجوم للمواد الغذائية,,,,,,,2,TUE,24.77383,46.76255,"302,053,232,300,003","1,010,666,178",,2025-04-23,0,,0,500.0000000,ACTIVE,Missing Documents,Potential,Required,,,,,,,,RIYADH,Zone,,
,,,RID002,,,CS022793,تموينات جلوي خالد الجلوي الهويدي,,,,,,,2,TUE,24.76034,46.79554,"310,257,802,200,003","1,010,659,706",,2025-04-23,0,,0,500.0000000,ACTIVE,Missing Documents,Potential,Required,,,,,,,,RIYADH,Zone,,
,,,RID002,,,CS022797,تموينات العصيمي,,,,,,,2,THU,24.76632,46.79489,"302,131,599,900,003","1,010,657,223",,2025-04-23,0,,0,500.0000000,ACTIVE,Missing Documents,Potential,Required,,,,,,,,RIYADH,Zone,,
,,,RID002,,,CS022800,أسواق روابي الباحة للتجارة  2,,,,,,,1,MON,24.69304,46.78890,"310,726,205,800,003","1,010,657,140",,2025-04-23,0,,0,500.0000000,ACTIVE,Missing Documents,Potential,Required,,,,,,,,RIYADH,Zone,,
,,,RID002,,,CS022805,مؤسسة رؤية الوفاء للمواد الغذائية,,,,,,,1,TUE,24.70987,46.81508,"300,623,705,100,003","1,010,654,033",,2025-04-23,0,,0,500.0000000,ACTIVE,Missing Documents,Potential,Required,,,,,,,,RIYADH,Zone,,
,,,RID002,,,CS022812,اسواق ومخابز روكا,,,,,,,1,SUN,24.68357,46.79691,"310,707,631,100,003","1,010,652,423",,2025-04-23,0,,0,500.0000000,ACTIVE,Missing Documents,Potential,Required,,,,,,,,RIYADH,Zone,,
,,,RID002,,,CS022816,أسواق ذاد,,,,,,,2,MON,24.75608,46.75007,"310,458,806,900,003","1,010,651,469",,2025-04-23,0,,0,500.0000000,ACTIVE,Missing Documents,Potential,Required,,,,,,,,RIYADH,Zone,,
,,,RID002,,,CS022824,تموينات العنزي,,,,,,,2,SUN,24.74850,46.79860,"310,247,986,300,003","1,010,651,250",,2025-04-23,0,,0,500.0000000,ACTIVE,Missing Documents,Potential,Required,,,,,,,,RIYADH,Zone,,
,,,RID002,,,CS022829,سلطان الحربى,,,,,,,2,SUN,24.75818,46.73395,"310,665,709,800,003","1,010,647,264",,2025-04-23,0,,0,500.0000000,ACTIVE,Missing Documents,Potential,Required,,,,,,,,RIYADH,Zone,,
,,,RID002,,,CS022833,شركة أسواق طيف الجوهرة للمواد الغذائية,,,,,,,2,SUN,24.76348,46.76261,"311,687,509,800,003","1,010,647,263",,2025-04-23,0,,0,500.0000000,ACTIVE,Missing Documents,Potential,Required,,,,,,,,RIYADH,Zone,,
,,,RID002,,,CS022844,شركة جناين الخير التجارية,,,,,,,1,MON,24.69477,46.79373,"310,642,489,200,003","1,010,641,134",,2025-04-23,0,,0,500.0000000,ACTIVE,Missing Documents,Potential,Required,,,,,,,,RIYADH,Zone,,
,,,RID002,,,CS022846,شركة جناين الخير التجارية,,,,,,,2,THU,24.75087,46.80215,"310,642,489,200,003","1,010,641,134",,2025-04-23,0,,0,500.0000000,ACTIVE,Missing Documents,Potential,Required,,,,,,,,RIYADH,Zone,,
,,,RID002,,,CS022865,تموينات شروق المستهلك 1,,,,,,,2,THU,24.78475,46.75781,"310,584,709,600,003","1,010,638,643",,2025-04-23,0,,0,500.0000000,ACTIVE,Missing Documents,Potential,Required,,,,,,,,RIYADH,Zone,,
,,,RID002,,,CS022882,شركة أسواق لزوم للمواد الغذائية,,,,,,,1,THU,24.74072,46.75857,"311,236,646,800,003","1,010,635,571",,2025-04-23,0,,0,500.0000000,ACTIVE,Missing Documents,Potential,Required,,,,,,,,RIYADH,Zone,,
,,,RID002,,,CS022893,مؤسسة نشمي غازي حسين العمري الحربي للتجارة,,,,,,,1,THU,24.73802,46.79523,"302,267,064,100,003","1,010,634,299",,2025-04-23,0,,0,500.0000000,ACTIVE,Missing Documents,Potential,Required,,,,,,,,RIYADH,Zone,,
,,,RID002,,,CS022894,مؤسسة نشمي غازي الحربي,,,,,,,1,MON,24.70010,46.80016,"302,267,064,100,003","1,010,634,299",,2025-04-23,0,,0,500.0000000,ACTIVE,Missing Documents,Potential,Required,,,,,,,,RIYADH,Zone,,
,,,RID002,,,CS022914,اسواق ومخابز ميام,,,,,,,1,WED,24.73131,46.81080,"311,273,573,400,003","1,010,625,721",,2025-04-23,0,,0,500.0000000,ACTIVE,Missing Documents,Potential,Required,,,,,,,,RIYADH,Zone,,
,,,RID002,,,CS022926,أسواق راوئع  الرياض للمواد الغذائية,,,,,,,1,WED,24.72880,46.81252,"305,006,740,700,003","1,010,623,941",,2025-04-23,0,,0,500.0000000,ACTIVE,Missing Documents,Potential,Required,,,,,,,,RIYADH,Zone,,
,,,RID002,,,CS022948,عايض بن أبو شيبة السبيعي,,,,,,,2,TUE,24.75751,46.72815,"302,090,760,600,003","1,010,616,207",,2025-04-23,0,,0,500.0000000,ACTIVE,Missing Documents,Potential,Required,,,,,,,,RIYADH,Zone,,
,,,RID002,,,CS022949,تموينات عايض محمد عايض السبيعي,,,,,,,2,TUE,24.75925,46.79996,"302,090,760,600,003","1,010,616,207",,2025-04-23,0,,0,500.0000000,ACTIVE,Missing Documents,Potential,Required,,,,,,,,RIYADH,Zone,,
,,,RID002,,,CS022965,شركة زاد العوالي للمواد الغذائية,,,,,,,1,THU,24.74759,46.77449,"311,561,928,600,003","1,010,608,250",,2025-04-23,0,,0,500.0000000,ACTIVE,Missing Documents,Potential,Required,,,,,,,,RIYADH,Zone,,
,,,RID002,,,CS022974,شركة بيت الغذاء للتجارة,,,,,,,2,MON,24.75610,46.74975,"310,458,806,900,003","1,010,604,268",,2025-04-23,0,,0,500.0000000,ACTIVE,Missing Documents,Potential,Required,,,,,,,,RIYADH,Zone,,
,,,RID002,,,CS022982,اسواق اسيا فود المركزيه  1,,,,,,,2,SUN,24.74460,46.79190,"311,376,311,700,003","1,010,602,554",,2025-04-23,0,,0,500.0000000,ACTIVE,Missing Documents,Potential,Required,,,,,,,,RIYADH,Zone,,
,,,RID002,,,CS023003,شركة الزوايا الخمسة لخدمات السيارات,,,,,,,1,SUN,24.70686,46.79925,"311,287,259,600,003","1,010,591,803",,2025-04-23,0,,0,500.0000000,ACTIVE,Missing Documents,Potential,Required,,,,,,,,RIYADH,Zone,,
,,,RID002,,,CS023007,تموينات صندوق الفرحة,,,,,,,1,THU,24.73866,46.78044,"310,407,428,800,003","1,010,589,920",,2025-04-23,0,,0,500.0000000,ACTIVE,Missing Documents,Potential,Required,,,,,,,,RIYADH,Zone,,
,,,RID002,,,CS023011,تو ماركت,,,,,,,1,THU,24.74152,46.75839,"311,232,544,400,003","1,010,589,685",,2025-04-23,0,,0,500.0000000,ACTIVE,Missing Documents,Potential,Required,,,,,,,,RIYADH,Zone,,
,,,RID002,,,CS023031,تموينات محمد مفرح البقمي,,,,,,,2,SUN,24.75783,46.77825,"300,129,383,600,003","1,010,583,754",,2025-04-23,0,,0,500.0000000,ACTIVE,Missing Documents,Potential,Required,,,,,,,,RIYADH,Zone,,
,,,RID002,,,CS023048,تموينات المشرقى,,,,,,,1,WED,24.72899,46.76348,"310,359,811,800,003","1,010,575,795",,2025-04-23,0,,0,500.0000000,ACTIVE,Missing Documents,Potential,Required,,,,,,,,RIYADH,Zone,,
,,,RID002,,,CS023057,مؤسسة اغصان البساتين للتحارة,,,,,,,2,TUE,24.78076,46.74070,"300,141,168,700,003","1,010,574,292",,2025-04-23,0,,0,500.0000000,ACTIVE,Missing Documents,Potential,Required,,,,,,,,RIYADH,Zone,,
,,,RID002,,,CS023064,تموينات نورة,,,,,,,2,TUE,24.75893,46.75640,"310,353,562,400,003","1,010,574,037",,2025-04-23,0,,0,500.0000000,ACTIVE,Missing Documents,Potential,Required,,,,,,,,RIYADH,Zone,,
,,,RID002,,,CS023091,اسواق ومخابز وقت السله,,,,,,,2,TUE,24.76044,46.77914,"302,253,496,700,003","1,010,563,819",,2025-04-23,0,,0,500.0000000,ACTIVE,Missing Documents,Potential,Required,,,,,,,,RIYADH,Zone,,
,,,RID002,,,CS023092,تموينات وقت التخفيض,,,,,,,2,SAT,24.73555,46.77894,"302,253,496,700,003","1,010,563,819",,2025-04-23,0,,0,500.0000000,ACTIVE,Missing Documents,Potential,Required,,,,,,,,RIYADH,Zone,,
,,,RID002,,,CS023119,تموينات نغم الورد,,,,,,,1,MON,24.68930,46.78243,"311,241,874,400,003","1,010,544,448",,2025-04-23,0,,0,500.0000000,ACTIVE,Missing Documents,Potential,Required,,,,,,,,RIYADH,Zone,,
,,,RID002,,,CS023120,شركة نغم الورد التجارية,,,,,,,1,MON,24.69806,46.79676,"311,241,874,400,003","1,010,544,448",,2025-04-23,0,,0,500.0000000,ACTIVE,Missing Documents,Potential,Required,,,,,,,,RIYADH,Zone,,
,,,RID002,,,CS023127,مؤسسة خيرات يوسف للمواد الغذائية,,,,,,,2,WED,24.79998,46.74432,"300,277,169,700,003","1,010,543,570",,2025-04-23,0,,0,500.0000000,ACTIVE,Missing Documents,Potential,Required,,,,,,,,RIYADH,Zone,,
,,,RID002,,,CS023147,مؤسسة مهدي مران العنزي للتجارة,,,,,,,2,WED,24.75678,46.77288,"300,757,182,300,003","1,010,530,160",,2025-04-23,0,,0,500.0000000,ACTIVE,Missing Documents,Potential,Required,,,,,,,,RIYADH,Zone,,
,,,RID002,,,CS023152,شركة نظرة  التسوق للتجارة- الربوة,,,,,,,1,MON,24.69363,46.76971,"311,295,106,200,003","1,010,527,920",,2025-04-23,0,,0,500.0000000,ACTIVE,Missing Documents,Potential,Required,,,,,,,,RIYADH,Zone,,
,,,RID002,,,CS023158,تموينات روابى الكورنيش,,,,,,,1,THU,24.74130,46.75806,"302,083,368,800,003","1,010,527,433",,2025-04-23,0,,0,500.0000000,ACTIVE,Missing Documents,Potential,Required,,,,,,,,RIYADH,Zone,,
,,,RID002,,,CS023165,أسواق و مخابز الفيصل,,,,,,,1,WED,24.73233,46.76497,"310,303,284,500,003","1,010,519,422",,2025-04-23,0,,0,500.0000000,ACTIVE,Missing Documents,Potential,Required,,,,,,,,RIYADH,Zone,,
,,,RID002,,,CS023178,مؤسسه جبل ملكان,,,,,,,2,SAT,24.74510,46.79310,"301,271,561,600,003","1,010,516,357",,2025-04-23,0,,0,500.0000000,ACTIVE,Missing Documents,Potential,Required,,,,,,,,RIYADH,Zone,,
,,,RID002,,,CS023185,شركه عين الغيث التجاريه 1,,,,,,,1,WED,24.73042,46.76638,"311,230,512,400,003","1,010,509,527",,2025-04-23,0,,0,500.0000000,ACTIVE,Missing Documents,Potential,Required,,,,,,,,RIYADH,Zone,,
,,,RID002,,,CS023187,شركه فايز شبرين القرني التجاريه  2,,,,,,,2,MON,24.75796,46.75416,"311,326,422,900,003","1,010,509,391",,2025-04-23,0,,0,500.0000000,ACTIVE,Missing Documents,Potential,Required,,,,,,,,RIYADH,Zone,,
,,,RID002,,,CS023196,شركة أغذية السلطان 5,,,,,,,2,MON,24.77516,46.72756,"311,313,341,200,003","1,010,507,307",,2025-04-23,0,,0,500.0000000,ACTIVE,Missing Documents,Potential,Required,,,,,,,,RIYADH,Zone,,
,,,RID002,,,CS023208,شركة جنائن نجد للتجارة,,,,,,,2,WED,24.78896,46.74546,"311,316,035,700,003","1,010,501,477",,2025-04-23,0,,0,500.0000000,ACTIVE,Missing Documents,Potential,Required,,,,,,,,RIYADH,Zone,,
,,,RID002,,,CS023222,مؤسسة اوفو التجارية,,,,,,,1,MON,24.71614,46.80105,"302,175,686,800,003","1,010,487,550",,2025-04-23,0,,0,500.0000000,ACTIVE,Missing Documents,Potential,Required,,,,,,,,RIYADH,Zone,,
,,,RID002,,,CS023280,مؤسسه المهماز التجاريه,,,,,,,2,SAT,24.74390,46.78990,"310,367,046,400,003","1,010,455,467",,2025-04-23,0,,0,500.0000000,ACTIVE,Missing Documents,Potential,Required,,,,,,,,RIYADH,Zone,,
,,,RID002,,,CS023281,تموينات ومخبز حور,,,,,,,2,TUE,24.76408,46.76604,"310,367,046,400,003","1,010,455,467",,2025-04-23,0,,0,500.0000000,ACTIVE,Missing Documents,Potential,Required,,,,,,,,RIYADH,Zone,,
,,,RID002,,,CS023306,تموينات جنة القصيم,,,,,,,1,WED,24.72955,46.76692,"310,094,531,800,003","1,010,430,073",,2025-04-23,0,,0,500.0000000,ACTIVE,Missing Documents,Potential,Required,,,,,,,,RIYADH,Zone,,
,,,RID002,,,CS023329,تموينات زاوية وصاف,,,,,,,2,THU,24.76051,46.78344,"302,147,998,400,003","1,010,420,203",,2025-04-23,0,,0,500.0000000,ACTIVE,Missing Documents,Potential,Required,,,,,,,,RIYADH,Zone,,
,,,RID002,,,CS023346,شركه حبات اللوز التجاريه  2,,,,,,,1,TUE,24.72349,46.79754,"311,587,469,200,003","1,010,407,786",,2025-04-23,0,,0,500.0000000,ACTIVE,Missing Documents,Potential,Required,,,,,,,,RIYADH,Zone,,
,,,RID002,,,CS023354,تموينات انس فريح العنزي للمواد الغذائية 7,,,,,,,2,TUE,24.75085,46.79439,"301,234,065,800,003","1,010,404,404",,2025-04-23,0,,0,500.0000000,ACTIVE,Missing Documents,Potential,Required,,,,,,,,RIYADH,Zone,,
,,,RID002,,,CS023357,انس فريح محمد السبيعي,,,,,,,1,SUN,24.68338,46.79720,"301,234,065,800,003","1,010,404,404",,2025-04-23,0,,0,500.0000000,ACTIVE,Missing Documents,Potential,Required,,,,,,,,RIYADH,Zone,,
,,,RID002,,,CS023362,مؤسسة حسام عبدالله حلواني لتجارة الجملة,,,,,,,1,SAT,24.67822,46.80415,"300,502,967,500,003","1,010,397,843",,2025-04-23,0,,0,500.0000000,ACTIVE,Missing Documents,Potential,Required,,,,,,,,RIYADH,Zone,,
,,,RID002,,,CS023371,تموينات حي النهضه للمواد الغذائية,,,,,,,2,WED,24.75514,46.80457,"310,793,899,600,003","1,010,379,537",,2025-04-23,0,,0,500.0000000,ACTIVE,Missing Documents,Potential,Required,,,,,,,,RIYADH,Zone,,
,,,RID002,,,CS023380,بقالة ربوع الجوري,,,,,,,1,TUE,24.71844,46.81464,"302,018,748,900,003","1,010,374,834",,2025-04-23,0,,0,500.0000000,ACTIVE,Missing Documents,Potential,Required,,,,,,,,RIYADH,Zone,,
,,,RID002,,,CS023383,تموينات أغذية السلطان للمواد الغذائية,,,,,,,2,MON,24.75685,46.75166,"301,036,277,200,003","1,010,374,821",,2025-04-23,0,,0,500.0000000,ACTIVE,Missing Documents,Potential,Required,,,,,,,,RIYADH,Zone,,
,,,RID002,,,CS023384,تموينات سعد البقمي,,,,,,,2,MON,24.75673,46.75130,"301,036,277,200,003","1,010,374,821",,2025-04-23,0,,0,500.0000000,ACTIVE,Missing Documents,Potential,Required,,,,,,,,RIYADH,Zone,,
,,,RID002,,,CS023426,تموينات محمد عبدالعزيز صالح الصالحي  1,,,,,,,1,MON,24.69758,46.79159,"301,026,699,500,003","1,010,352,910",,2025-04-23,0,,0,500.0000000,ACTIVE,Missing Documents,Potential,Required,,,,,,,,RIYADH,Zone,,
,,,RID002,,,CS023427,تموينات محمد عبدالعزيز صالح الصالحي  2,,,,,,,1,MON,24.69977,46.79966,"301,026,699,500,003","1,010,352,910",,2025-04-23,0,,0,500.0000000,ACTIVE,Missing Documents,Potential,Required,,,,,,,,RIYADH,Zone,,
,,,RID002,,,CS023452,شركة أسواق البستان المركزية للتجارة,,,,,,,1,SUN,24.67797,46.81553,"311,500,303,500,003","1,010,340,040",,2025-04-23,0,,0,500.0000000,ACTIVE,Missing Documents,Potential,Required,,,,,,,,RIYADH,Zone,,
,,,RID002,,,CS023473,تموينات سدرة ماركت 9,,,,,,,1,TUE,24.72518,46.79614,"310,159,181,300,003","1,010,330,834",,2025-04-23,0,,0,500.0000000,ACTIVE,Missing Documents,Potential,Required,,,,,,,,RIYADH,Zone,,
,,,RID002,,,CS023475,تموينات سدرة ماركت 11,,,,,,,2,MON,24.76324,46.76213,"310,159,181,300,003","1,010,330,834",,2025-04-23,0,,0,500.0000000,ACTIVE,Missing Documents,Potential,Required,,,,,,,,RIYADH,Zone,,
,,,RID002,,,CS023501,بقالة بلال امين الحذيفي,,,,,,,1,TUE,24.72331,46.78717,"300,119,702,700,003","1,010,311,997",,2025-04-23,0,,0,500.0000000,ACTIVE,Missing Documents,Potential,Required,,,,,,,,RIYADH,Zone,,
,,,RID002,,,CS023502,تموينات بلال امين احمد الحذيفي,,,,,,,2,SAT,24.74546,46.78959,"300,119,702,700,003","1,010,311,997",,2025-04-23,0,,0,500.0000000,ACTIVE,Missing Documents,Potential,Required,,,,,,,,RIYADH,Zone,,
,,,RID002,,,CS023505,سالم الشهراني,,,,,,,2,THU,24.75988,46.71430,"300,040,949,300,003","1,010,309,265",,2025-04-23,0,,0,500.0000000,ACTIVE,Missing Documents,Potential,Required,,,,,,,,RIYADH,Zone,,
,,,RID002,,,CS023523,مؤسسة اغذية الشرق للتجاره,,,,,,,1,SUN,24.68615,46.81789,"310,121,212,300,003","1,010,295,748",,2025-04-23,0,,0,500.0000000,ACTIVE,Missing Documents,Potential,Required,,,,,,,,RIYADH,Zone,,
,,,RID002,,,CS023526,مؤسسةط اغذية الشرق للتجاره,,,,,,,1,SAT,24.65834,46.81130,"310,121,212,300,003","1,010,295,748",,2025-04-23,0,,0,500.0000000,ACTIVE,Missing Documents,Potential,Required,,,,,,,,RIYADH,Zone,,
,,,RID002,,,CS023530,تموينات الواحة,,,,,,,2,THU,24.74310,46.72525,"302,138,416,400,003","1,010,293,840",,2025-04-23,0,,0,500.0000000,ACTIVE,Missing Documents,Potential,Required,,,,,,,,RIYADH,Zone,,
,,,RID002,,,CS023531,اسواق سله الواحه,,,,,,,2,TUE,24.75101,46.72140,"302,138,416,400,003","1,010,293,840",,2025-04-23,0,,0,500.0000000,ACTIVE,Missing Documents,Potential,Required,,,,,,,,RIYADH,Zone,,
,,,RID002,,,CS023568,شركة عقلا خالد العنزي للتجارة 6,,,,,,,1,MON,24.68078,46.78237,"311,288,741,600,003","1,010,259,240",,2025-04-23,0,,0,500.0000000,ACTIVE,Missing Documents,Potential,Required,,,,,,,,RIYADH,Zone,,
,,,RID002,,,CS023584,تموينات ظل الياسمين,,,,,,,1,SUN,24.68182,46.81632,"300,137,062,900,003","1,010,256,371",,2025-04-23,0,,0,500.0000000,ACTIVE,Missing Documents,Potential,Required,,,,,,,,RIYADH,Zone,,
,,,RID002,,,CS023613,مؤسسة التموين الغذائي,,,,,,,2,WED,24.76495,46.72537,"300,052,723,700,003","1,010,241,582",,2025-04-23,0,,0,500.0000000,ACTIVE,Missing Documents,Potential,Required,,,,,,,,RIYADH,Zone,,
,,,RID002,,,CS023615,أسواق عادل بن محمد بن ابراهيم النجاشي  1,,,,,,,2,MON,24.76166,46.76140,"300,310,389,400,003","1,010,241,497",,2025-04-23,0,,0,500.0000000,ACTIVE,Missing Documents,Potential,Required,,,,,,,,RIYADH,Zone,,
,,,RID002,,,CS023622,شركة قمة السلة التجارية 2,,,,,,,2,SAT,24.73742,46.77464,"311,282,616,900,003","1,010,235,413",,2025-04-23,0,,0,500.0000000,ACTIVE,Missing Documents,Potential,Required,,,,,,,,RIYADH,Zone,,
,,,RID002,,,CS023642,شركة قلب الندوة للتجاره 8,,,,,,,2,THU,24.80576,46.75538,"311,201,832,800,003","1,010,213,870",,2025-04-23,0,,0,500.0000000,ACTIVE,Missing Documents,Potential,Required,,,,,,,,RIYADH,Zone,,
,,,RID002,,,CS023659,تموينات سلة القمم,,,,,,,1,SUN,24.67803,46.81005,"300,604,557,900,003","1,010,197,714",,2025-04-23,0,,0,500.0000000,ACTIVE,Missing Documents,Potential,Required,,,,,,,,RIYADH,Zone,,
,,,RID002,,,CS023660,مؤسسة عين تسنيم للتجارة  1,,,,,,,1,WED,24.72917,46.81219,"300,071,212,200,003","1,010,197,203",,2025-04-23,0,,0,500.0000000,ACTIVE,Missing Documents,Potential,Required,,,,,,,,RIYADH,Zone,,
,,,RID002,,,CS023661,مؤسسة عين تسنيم للتجارة  2,,,,,,,1,TUE,24.72097,46.80894,"300,071,212,200,003","1,010,197,203",,2025-04-23,0,,0,500.0000000,ACTIVE,Missing Documents,Potential,Required,,,,,,,,RIYADH,Zone,,
,,,RID002,,,CS023679,تموينات فمة الدوائر,,,,,,,2,THU,24.76044,46.72113,"302,212,321,200,003","1,010,175,992",,2025-04-23,0,,0,500.0000000,ACTIVE,Missing Documents,Potential,Required,,,,,,,,RIYADH,Zone,,
,,,RID002,,,CS023685,اسواق الشوذق,,,,,,,2,TUE,24.79329,46.74551,"300,028,346,600,003","1,010,172,204",,2025-04-23,0,,0,500.0000000,ACTIVE,Missing Documents,Potential,Required,,,,,,,,RIYADH,Zone,,
,,,RID002,,,CS023710,تموينات حسين مشفي,,,,,,,2,WED,24.76644,46.76979,"302,125,484,300,003","1,010,135,870",,2025-04-23,0,,0,500.0000000,ACTIVE,Missing Documents,Potential,Required,,,,,,,,RIYADH,Zone,,
,,,RID002,,,CS023711,تموبنات سناء سعد حسين 2,,,,,,,2,WED,24.76640,46.76961,"302,125,484,300,003","1,010,135,870",,2025-04-23,0,,0,500.0000000,ACTIVE,Missing Documents,Potential,Required,,,,,,,,RIYADH,Zone,,
,,,RID002,,,CS023712,شركة سماء الجزيرة  1,,,,,,,1,MON,24.70784,46.77421,"311,165,692,100,003","1,010,129,017",,2025-04-23,0,,0,500.0000000,ACTIVE,Missing Documents,Potential,Required,,,,,,,,RIYADH,Zone,,
,,,RID002,,,CS023733,تموينات سالم عبد الله احمد اليامي للمواد الغذائيه,,,,,,,1,THU,24.73436,46.80835,"311,247,031,800,003","1,010,052,785",,2025-04-23,0,,0,500.0000000,ACTIVE,Missing Documents,Potential,Required,,,,,,,,RIYADH,Zone,,
,,,RID002,,,CS023744,شركه لؤلؤة جمانة,,,,,,,2,WED,24.75892,46.75604,"312,238,443,300,003","460,116,309,941",,2025-04-23,0,,0,500.0000000,ACTIVE,Missing Documents,Potential,Required,,,,,,,,RIYADH,Zone,,
,,,RID002,,,CS023766,مؤسسة لمسات السلي,,,,,,,1,SAT,24.67620,46.82302,"312,125,930,900,003","450,815,034,435",,2025-04-23,0,,0,500.0000000,ACTIVE,Missing Documents,Potential,Required,,,,,,,,RIYADH,Zone,,
,,,RID002,,,CS023783,تموينات روان الحربي,,,,,,,1,SUN,24.69247,46.78596,"311,282,939,900,003","450,614,251,165",,2025-04-23,0,,0,500.0000000,ACTIVE,Missing Documents,Potential,Required,,,,,,,,RIYADH,Zone,,
,,,RID002,,,CS023787,مؤسسة نواطح التجارية,,,,,,,2,SUN,24.78910,46.72936,"310,378,215,700,003","450,614,000,000",,2025-04-23,0,,0,500.0000000,ACTIVE,Missing Documents,Potential,Required,,,,,,,,RIYADH,Zone,,
,,,RID002,,,CS023801,تموينات ركن حارتنا,,,,,,,1,SAT,24.67713,46.81088,"301,195,558,700,003","450,413,626,812",,2025-04-23,0,,0,500.0000000,ACTIVE,Missing Documents,Potential,Required,,,,,,,,RIYADH,Zone,,
,,,RID002,,,CS023834,مؤسسة جود بي للتجارة,,,,,,,1,TUE,24.72414,46.79742,"311,551,641,900,003","441,012,207,746",,2025-04-23,0,,0,500.0000000,ACTIVE,Missing Documents,Potential,Required,,,,,,,,RIYADH,Zone,,
,,,RID002,,,CS023840,اسواق مكعب الثلج المركزيه,,,,,,,1,SUN,24.69870,46.80470,"310,530,499,800,003","440,912,019,938",,2025-04-23,0,,0,500.0000000,ACTIVE,Missing Documents,Potential,Required,,,,,,,,RIYADH,Zone,,
,,,RID002,,,CS023842,أسواق ساره ثامر جمعه الخلف للمواد الغذائية,,,,,,,2,SUN,24.74636,46.79483,"311,621,861,900,003","440,911,987,341",,2025-04-23,0,,0,500.0000000,ACTIVE,Missing Documents,Potential,Required,,,,,,,,RIYADH,Zone,,
,,,RID002,,,CS023848,مؤسسه كاس الغذاء,,,,,,,1,TUE,24.71527,46.79864,"315,118,923,700,003","440,811,768,702",,2025-04-23,0,,0,500.0000000,ACTIVE,Missing Documents,Potential,Required,,,,,,,,RIYADH,Zone,,
,,,RID002,,,CS023862,تموينات سعد سعود محمد الدوسري,,,,,,,1,TUE,24.70611,46.77507,"311,692,345,800,003","440,511,167,925",,2025-04-23,0,,0,500.0000000,ACTIVE,Missing Documents,Potential,Required,,,,,,,,RIYADH,Zone,,
,,,RID002,,,CS023869,تموينات فاطمة احمد محمد القحطاني,,,,,,,1,MON,24.69949,46.80047,"310,256,243,100,003","440,410,953,271",,2025-04-23,0,,0,500.0000000,ACTIVE,Missing Documents,Potential,Required,,,,,,,,RIYADH,Zone,,
,,,RID002,,,CS023886,تموينات واحه البيت,,,,,,,1,TUE,24.70736,46.77092,"302,132,200,500,003","431,110,130,750",,2025-04-23,0,,0,500.0000000,ACTIVE,Missing Documents,Potential,Required,,,,,,,,RIYADH,Zone,,
,,,RID002,,,CS023924,تموينات علي حمدان المخلص,,,,,,,1,MON,24.69784,46.78195,"311,135,169,400,003","43,058,354,995",,2025-04-23,0,,0,500.0000000,ACTIVE,Missing Documents,Potential,Required,,,,,,,,RIYADH,Zone,,
,,,RID002,,,CS023969,بقالة طيف الورود,,,,,,,1,TUE,24.71649,46.77532,"300,582,371,700,003","42,044,265,798",,2025-04-23,0,,0,500.0000000,ACTIVE,Missing Documents,Potential,Required,,,,,,,,RIYADH,Zone,,
,,,RID002,,,CS023980,محامص انواع الكيف,,,,,,,1,SAT,24.66842,46.80810,"311,552,447,400,003","41,103,561,107",,2025-04-23,0,,0,500.0000000,ACTIVE,Missing Documents,Potential,Required,,,,,,,,RIYADH,Zone,,
,,,RID002,,,CS024037,مؤسسة فيضه المقناص,,,,,,,1,SAT,24.67087,46.81289,"302,112,728,300,003","40,092,185,630",,2025-04-23,0,,0,500.0000000,ACTIVE,Missing Documents,Potential,Required,,,,,,,,RIYADH,Zone,,
,,,RID002,,,CS024047,تموينات سلتي المتطورة,,,,,,,1,SUN,24.68782,46.77792,"311,599,514,400,003","40,092,176,106",,2025-04-23,0,,0,500.0000000,ACTIVE,Missing Documents,Potential,Required,,,,,,,,RIYADH,Zone,,
,,,RID002,,,CS024064,تموينات عبدالوهاب عبدالله مسيعيد المطيري للمواد ال,,,,,,,1,TUE,24.71406,46.80807,"311,072,508,900,003","40,031,921,499",,2025-04-23,0,,0,500.0000000,ACTIVE,Missing Documents,Potential,Required,,,,,,,,RIYADH,Zone,,
,,,RID002,,,CS024140,تموينات ابراهيم بن محمد الحمادي,,,,,,,1,MON,24.71886,46.80540,"300,926,682,900,003","40,031,763,583",,2025-04-23,0,,0,500.0000000,ACTIVE,Missing Documents,Potential,Required,,,,,,,,RIYADH,Zone,,
,,,RID002,,,CS024143,بلال امين الحذيفي حي الريان,,,,,,,1,TUE,24.72333,46.78721,"300,119,702,700,003","40,031,756,444",,2025-04-23,0,,0,500.0000000,ACTIVE,Missing Documents,Potential,Required,,,,,,,,RIYADH,Zone,,
,,,RID002,,,CS024149,تموينات لنا للمواد الغذائية,,,,,,,1,MON,24.69880,46.81068,"311,090,002,600,003","40,021,745,725",,2025-04-23,0,,0,500.0000000,ACTIVE,Missing Documents,Potential,Required,,,,,,,,RIYADH,Zone,,
,,,RID002,,,CS024152,تموينات ناصر العتزي,,,,,,,1,MON,24.71908,46.80552,"300,040,538,100,003","40,021,745,268",,2025-04-23,0,,0,500.0000000,ACTIVE,Missing Documents,Potential,Required,,,,,,,,RIYADH,Zone,,
,,,RID002,,,CS024153,مؤسسة احمد محمد الصقير للتجارة,,,,,,,1,MON,24.70579,46.78502,"300,032,882,700,003","40,021,744,016",,2025-04-23,0,,0,500.0000000,ACTIVE,Missing Documents,Potential,Required,,,,,,,,RIYADH,Zone,,
,,,RID002,,,CS024164,تموينات اريام محيسن,,,,,,,2,TUE,24.76044,46.78876,"311,163,816,200,003","40,021,721,034",,2025-04-23,0,,0,500.0000000,ACTIVE,Missing Documents,Potential,Required,,,,,,,,RIYADH,Zone,,
,,,RID002,,,CS024187,بقالة نبض العالم,,,,,,,1,TUE,24.72339,46.81253,"312,179,478,600,003","7,038,902,834",,2025-04-23,0,,0,500.0000000,ACTIVE,Missing Documents,Potential,Required,,,,,,,,RIYADH,Zone,,
,,,RID002,,,CS024203,تموينات بدور للتجارة,,,,,,,1,TUE,24.71820,46.80556,"311,966,410,900,003","7,037,593,576",,2025-04-23,0,,0,500.0000000,ACTIVE,Missing Documents,Potential,Required,,,,,,,,RIYADH,Zone,,
,,,RID002,,,CS024224,تموينات اسماء سعد للمواد الغذائية,,,,,,,1,THU,24.74011,46.81030,"302,134,575,200,003","7,035,477,533",,2025-04-23,0,,0,500.0000000,ACTIVE,Missing Documents,Potential,Required,,,,,,,,RIYADH,Zone,,
,,,RID002,,,CS024226,تموينات اسواق و مخابز ميسونة,,,,,,,1,MON,24.70393,46.78114,"310,949,722,900,003","7,034,859,574",,2025-04-23,0,,0,500.0000000,ACTIVE,Missing Documents,Potential,Required,,,,,,,,RIYADH,Zone,,
,,,RID002,,,CS024253,تموينات ضيحة عبدالحميد عويض المطيري,,,,,,,2,SAT,24.73796,46.76331,"300,131,165,700,003","7,033,214,995",,2025-04-23,0,,0,500.0000000,ACTIVE,Missing Documents,Potential,Required,,,,,,,,RIYADH,Zone,,
,,,RID002,,,CS024280,أسواق سلة ريما التجارية,,,,,,,2,SAT,24.76257,46.74171,"311,432,154,800,003","7,031,238,558",,2025-04-23,0,,0,500.0000000,ACTIVE,Missing Documents,Potential,Required,,,,,,,,RIYADH,Zone,,
,,,RID002,,,CS024313,تموينات نور غرناطة,,,,,,,2,THU,24.78674,46.74604,"310,801,639,800,003","7,028,409,048",,2025-04-23,0,,0,500.0000000,ACTIVE,Missing Documents,Potential,Required,,,,,,,,RIYADH,Zone,,
,,,RID002,,,CS024344,تموينات ثمار هنو للمواد الغذائية  2,,,,,,,1,SUN,24.67874,46.78817,"311,409,159,200,003","7,025,950,168",,2025-04-23,0,,0,500.0000000,ACTIVE,Missing Documents,Potential,Required,,,,,,,,RIYADH,Zone,,
,,,RID002,,,CS024351,تموينات الفتوح للمواد الغذائية 2,,,,,,,1,TUE,24.71377,46.78174,"310,210,494,500,003","7,025,394,839",,2025-04-23,0,,0,500.0000000,ACTIVE,Missing Documents,Potential,Required,,,,,,,,RIYADH,Zone,,
,,,RID002,,,CS024385,أسواق ومخابز روكا,,,,,,,1,SUN,24.68345,46.79698,"310,707,631,100,003","7,017,871,802",,2025-04-23,0,,0,500.0000000,ACTIVE,Missing Documents,Potential,Required,,,,,,,,RIYADH,Zone,,
,,,RID002,,,CS024394,تموينات حمد عبدالله مطلق المطلق,,,,,,,1,SAT,24.65085,46.81482,"300,375,409,500,003","7,017,410,676",,2025-04-23,0,,0,500.0000000,ACTIVE,Missing Documents,Potential,Required,,,,,,,,RIYADH,Zone,,
,,,RID002,,,CS024405,تموينات الواحة الحمراء للتجارة,,,,,,,1,TUE,24.72472,46.81016,"300,406,785,300,003","7,016,874,062",,2025-04-23,0,,0,500.0000000,ACTIVE,Missing Documents,Potential,Required,,,,,,,,RIYADH,Zone,,
,,,RID002,,,CS024406,تموينات زهرة جنائن 2,,,,,,,1,WED,24.72757,46.79905,"300,957,578,300,003","7,016,861,408",,2025-04-23,0,,0,500.0000000,ACTIVE,Missing Documents,Potential,Required,,,,,,,,RIYADH,Zone,,
,,,RID002,,,CS024458,اسواق النخلة الخضراء,,,,,,,1,SAT,24.68392,46.79755,"301,184,406,900,003","7,008,461,332",,2025-04-23,0,,0,500.0000000,ACTIVE,Missing Documents,Potential,Required,,,,,,,,RIYADH,Zone,,
,,,RID002,,,CS024461,تموينات فاطمه محمد عبد الله المشوح,,,,,,,2,SUN,24.74854,46.78728,"310,336,662,200,003","7,008,317,427",,2025-04-23,0,,0,500.0000000,ACTIVE,Missing Documents,Potential,Required,,,,,,,,RIYADH,Zone,,
,,,RID002,,,CS024501,تموينات زاد المنار للمواد الغذائية,,,,,,,2,THU,24.77070,46.76391,"311,396,641,400,003","7,003,384,059",,2025-04-23,0,,0,500.0000000,ACTIVE,Missing Documents,Potential,Required,,,,,,,,RIYADH,Zone,,
,,,RID002,,,CS024503,مؤسسة امجاد الافق للتجارة,,,,,,,2,WED,24.75585,46.80285,"310,525,012,900,003","7,003,324,964",,2025-04-23,0,,0,500.0000000,ACTIVE,Missing Documents,Potential,Required,,,,,,,,RIYADH,Zone,,
,,,RID002,,,CS024527,تموينات ناصر الاسمري,,,,,,,1,MON,24.70232,46.78545,"302,055,927,800,003","7,002,173,339",,2025-04-23,0,,0,500.0000000,ACTIVE,Missing Documents,Potential,Required,,,,,,,,RIYADH,Zone,,
,,,RID002,,,CS024540,تموينات حسن بن عبدالله الصيعري,,,,,,,2,SAT,24.73843,46.80562,"310,091,410,100,003","5,951,127,720",,2025-04-23,0,,0,500.0000000,ACTIVE,Missing Documents,Potential,Required,,,,,,,,RIYADH,Zone,,
,,,RID002,,,CS024547,شركة النفط المتجدد المحدودة,,,,,,,2,WED,24.79569,46.74309,"310,295,959,500,003","5,851,876,144",,2025-04-23,0,,0,500.0000000,ACTIVE,Missing Documents,Potential,Required,,,,,,,,RIYADH,Zone,,
,,,RID002,,,CS024553,بقاله ارياف العالية,,,,,,,1,SAT,24.67717,46.80181,"311,220,281,600,003","4,650,257,664",,2025-04-23,0,,0,500.0000000,ACTIVE,Missing Documents,Potential,Required,,,,,,,,RIYADH,Zone,,
,,,RID002,,,CS024571,تموينات افنان حسن المالكي,,,,,,,2,SAT,24.75155,46.77493,"310,957,569,700,003","4,211,593,343",,2025-04-23,0,,0,500.0000000,ACTIVE,Missing Documents,Potential,Required,,,,,,,,RIYADH,Zone,,
,,,RID002,,,CS024582,موسسه غيوم الندي للتجاره,,,,,,,2,THU,24.76777,46.77179,"302,161,535,300,003","4,092,378,875",,2025-04-23,0,,0,500.0000000,ACTIVE,Missing Documents,Potential,Required,,,,,,,,RIYADH,Zone,,
,,,RID002,,,CS024588,تموينات ماجد محمد عبد الرحمن الشهري,,,,,,,2,SUN,24.75128,46.77881,"302,093,816,600,003","4,031,868,137",,2025-04-23,0,,0,500.0000000,ACTIVE,Missing Documents,Potential,Required,,,,,,,,RIYADH,Zone,,
,,,RID002,,,CS024594,تموينات ندي العاصمه,,,,,,,2,TUE,24.75393,46.77651,,"4,030,436,727",,2025-04-23,0,,0,500.0000000,ACTIVE,Missing Documents,Potential,Required,,,,,,,,RIYADH,Zone,,
,,,RID002,,,CS024600,تموينات نور محمد حنتول,,,,,,,1,WED,24.74300,46.75682,"311,534,998,600,003","4,021,721,221",,2025-04-23,0,,0,500.0000000,ACTIVE,Missing Documents,Potential,Required,,,,,,,,RIYADH,Zone,,
,,,RID002,,,CS024602,مؤسسة تفاصيل الحلا للتجارة,,,,,,,1,THU,24.73494,46.76293,"310,459,560,500,003","4,007,207,578",,2025-04-23,0,,0,500.0000000,ACTIVE,Missing Documents,Potential,Required,,,,,,,,RIYADH,Zone,,
,,,RID002,,,CS024603,تموينات تركي عبد الهادي بن سليمان الدريوش,,,,,,,1,MON,24.69435,46.78900,"302,204,464,200,003","4,004,201,044",,2025-04-23,0,,0,500.0000000,ACTIVE,Missing Documents,Potential,Required,,,,,,,,RIYADH,Zone,,
,,,RID002,,,CS024607,قوت البلاد للمواد الغذائية,,,,,,,2,SUN,24.74534,46.78946,"301,264,661,900,003","4,003,189,201",,2025-04-23,0,,0,500.0000000,ACTIVE,Missing Documents,Potential,Required,,,,,,,,RIYADH,Zone,,
,,,RID002,,,CS024613,اسواق عكاظ,,,,,,,2,WED,24.79424,46.74312,"300,029,785,800,003","4,002,172,174",,2025-04-23,0,,0,500.0000000,ACTIVE,Missing Documents,Potential,Required,,,,,,,,RIYADH,Zone,,
,,,RID002,,,CS024620,موسسه طيبات الحمراء للمواد الغذائيه,,,,,,,2,SAT,24.76305,46.74149,"302,281,552,200,003","3,022,815,522",,2025-04-23,0,,0,500.0000000,ACTIVE,Missing Documents,Potential,Required,,,,,,,,RIYADH,Zone,,
,,,RID002,,,CS024621,سوق فيصل العنزي,,,,,,,2,MON,24.75771,46.79157,"310,782,895,100,003","2,511,002,735",,2025-04-23,0,,0,500.0000000,ACTIVE,Missing Documents,Potential,Required,,,,,,,,RIYADH,Zone,,
,,,RID002,,,CS024626,تموينات رياض,,,,,,,2,THU,24.75932,46.77556,0,"2,095,523,359",,2025-04-23,0,,0,500.0000000,ACTIVE,Missing Documents,Potential,Required,,,,,,,,RIYADH,Zone,,
,,,RID002,,,CS024628,مركز طلباتك للتسويق,,,,,,,1,SUN,24.69357,46.81080,"311,382,451,400,003","2,055,134,281",,2025-04-23,0,,0,500.0000000,ACTIVE,Missing Documents,Potential,Required,,,,,,,,RIYADH,Zone,,
,,,RID002,,,CS024637,شركة قلعة الوادي للتجارة,,,,,,,2,SUN,24.74407,46.79023,"311,253,104,500,003","2,050,150,177",,2025-04-23,0,,0,500.0000000,ACTIVE,Missing Documents,Potential,Required,,,,,,,,RIYADH,Zone,,
,,,RID002,,,CS024641,اسواق ومخابز ترولي كود,,,,,,,2,SAT,24.75467,46.74743,"300,417,058,100,003","2,050,131,955",,2025-04-23,0,,0,500.0000000,ACTIVE,Missing Documents,Potential,Required,,,,,,,,RIYADH,Zone,,
,,,RID002,,,CS024658,اسواق عبد العزيز محمد دبيان الدبيان,,,,,,,1,SUN,24.69071,46.79668,"310,170,072,700,003","1,131,299,729",,2025-04-23,0,,0,500.0000000,ACTIVE,Missing Documents,Potential,Required,,,,,,,,RIYADH,Zone,,
,,,RID002,,,CS024659,مؤسسة واجد للمواد الغذائية,,,,,,,1,WED,24.73643,46.78228,"302,057,154,600,003","1,131,281,334",,2025-04-23,0,,0,500.0000000,ACTIVE,Missing Documents,Potential,Required,,,,,,,,RIYADH,Zone,,
,,,RID002,,,CS024661,تموينات شركة سنام الغذاء التجارية,,,,,,,1,SUN,24.69534,46.80167,"301,311,766,400,003","1,131,025,188",,2025-04-23,0,,0,500.0000000,ACTIVE,Missing Documents,Potential,Required,,,,,,,,RIYADH,Zone,,
,,,RID002,,,CS024665,حمود المطيرى,,,,,,,2,THU,24.78665,46.74564,"301,236,082,500,003","1,130,100,010",,2025-04-23,0,,0,500.0000000,ACTIVE,Missing Documents,Potential,Required,,,,,,,,RIYADH,Zone,,
,,,RID002,,,CS024676,اسواق السبيعي المركزية,,,,,,,1,SUN,24.70021,46.80440,"300,286,663,300,003","1,120,001,965",,2025-04-23,0,,0,500.0000000,ACTIVE,Missing Documents,Potential,Required,,,,,,,,RIYADH,Zone,,
,,,RID002,,,CS024724,مؤسسة اضواء السلطان للتجارة,,,,,,,1,WED,24.72467,46.76073,"300,220,879,200,003","1,040,119,578",,2025-04-23,0,,0,500.0000000,ACTIVE,Missing Documents,Potential,Required,,,,,,,,RIYADH,Zone,,
,,,RID002,,,CS024734,تموينات البيع المزن للتجارة,,,,,,,1,THU,24.75424,46.74647,"311,644,967,600,003","1,017,101,860",,2025-04-23,0,,0,500.0000000,ACTIVE,Missing Documents,Potential,Required,,,,,,,,RIYADH,Zone,,
,,,RID002,,,CS024792,تموينات ركن فيف,,,,,,,2,THU,24.79243,46.74741,"310,766,486,500,003","1,011,150,777",,2025-04-23,0,,0,500.0000000,ACTIVE,Missing Documents,Potential,Required,,,,,,,,RIYADH,Zone,,
,,,RID002,,,CS024892,تموينات البقمي,,,,,,,2,SAT,24.74050,46.78530,"300,069,765,900,003","1,010,998,286",,2025-04-23,0,,0,500.0000000,ACTIVE,Missing Documents,Potential,Required,,,,,,,,RIYADH,Zone,,
,,,RID002,,,CS024905,شركه فود العالمية للتجاره,,,,,,,2,SUN,24.75703,46.77868,"312,072,397,500,003","1,010,985,133",,2025-04-23,0,,0,500.0000000,ACTIVE,Missing Documents,Potential,Required,,,,,,,,RIYADH,Zone,,
,,,RID002,,,CS024909,مؤسسه طيف النورس للتجاره 2,,,,,,,2,SUN,24.75051,46.78574,"300,585,367,500,003","1,010,980,878",,2025-04-23,0,,0,500.0000000,ACTIVE,Missing Documents,Potential,Required,,,,,,,,RIYADH,Zone,,
,,,RID002,,,CS024922,تموينات بلدنا الحبيبه,,,,,,,1,WED,24.73906,46.78030,"301,062,278,700,003","1,010,967,929",,2025-04-23,0,,0,500.0000000,ACTIVE,Missing Documents,Potential,Required,,,,,,,,RIYADH,Zone,,
,,,RID002,,,CS024925,تموينات ركن الحضاره للمواد الغذائية,,,,,,,2,THU,24.76444,46.79895,"311,667,580,100,003","1,010,965,482",,2025-04-23,0,,0,500.0000000,ACTIVE,Missing Documents,Potential,Required,,,,,,,,RIYADH,Zone,,
,,,RID002,,,CS024927,بقالة شهد المنار,,,,,,,1,WED,24.72137,46.80710,"311,956,859,100,003","1,010,961,753",,2025-04-23,0,,0,500.0000000,ACTIVE,Missing Documents,Potential,Required,,,,,,,,RIYADH,Zone,,
,,,RID002,,,CS024931,أسواق كوسا للتجارة,,,,,,,2,MON,24.77333,46.72291,"302,184,366,500,003","1,010,959,405",,2025-04-23,0,,0,500.0000000,ACTIVE,Missing Documents,Potential,Required,,,,,,,,RIYADH,Zone,,
,,,RID002,,,CS024976,تموينات نواف هزاع العتيبي,,,,,,,2,SUN,24.74530,46.76920,"310,166,774,600,003","1,010,933,829",,2025-04-23,0,,0,500.0000000,ACTIVE,Missing Documents,Potential,Required,,,,,,,,RIYADH,Zone,,
,,,RID002,,,CS024990,تموينات ركن الفيحاء للمواد الغذائية,,,,,,,1,SUN,24.68607,46.80334,"311,002,294,500,003","1,010,928,501",,2025-04-23,0,,0,500.0000000,ACTIVE,Missing Documents,Potential,Required,,,,,,,,RIYADH,Zone,,
,,,RID002,,,CS025001,تموينات سلة ديم,,,,,,,1,TUE,24.72504,46.80969,"311,830,914,300,003","1,010,925,148",,2025-04-23,0,,0,500.0000000,ACTIVE,Missing Documents,Potential,Required,,,,,,,,RIYADH,Zone,,
,,,RID002,,,CS025016,تموينات خير تالا,,,,,,,2,SAT,24.73874,46.80556,"311,151,645,300,003","1,010,916,384",,2025-04-23,0,,0,500.0000000,ACTIVE,Missing Documents,Potential,Required,,,,,,,,RIYADH,Zone,,
,,,RID002,,,CS025022,تموينات ربوة نجد,,,,,,,1,WED,24.70922,46.80487,"302,205,585,300,003","1,010,914,787",,2025-04-23,0,,0,500.0000000,ACTIVE,Missing Documents,Potential,Required,,,,,,,,RIYADH,Zone,,
,,,RID002,,,CS025026,تموينات محمد سعد العريفي,,,,,,,2,TUE,24.77514,46.72176,"302,255,723,900,003","1,010,912,764",,2025-04-23,0,,0,500.0000000,ACTIVE,Missing Documents,Potential,Required,,,,,,,,RIYADH,Zone,,
,,,RID002,,,CS025039,تموينات رياض الخير,,,,,,,2,SAT,24.73529,46.77188,"302,212,869,700,003","1,010,910,214",,2025-04-23,0,,0,500.0000000,ACTIVE,Missing Documents,Potential,Required,,,,,,,,RIYADH,Zone,,
,,,RID002,,,CS025051,مؤسسة نورة مشعل بن فهد جريس  التجارية,,,,,,,1,SUN,24.68925,46.81003,"311,720,670,800,003","1,010,904,488",,2025-04-23,0,,0,500.0000000,ACTIVE,Missing Documents,Potential,Required,,,,,,,,RIYADH,Zone,,
,,,RID002,,,CS025053,تموينات دوار الاندلس للمواد الغذائية,,,,,,,2,SUN,24.74762,46.79658,"310,074,081,100,003","1,010,904,409",,2025-04-23,0,,0,500.0000000,ACTIVE,Missing Documents,Potential,Required,,,,,,,,RIYADH,Zone,,
,,,RID002,,,CS025054,تموينات سلمان الحجاب,,,,,,,1,SUN,24.69973,46.80405,"312,645,522,600,003","1,010,904,380",,2025-04-23,0,,0,500.0000000,ACTIVE,Missing Documents,Potential,Required,,,,,,,,RIYADH,Zone,,
,,,RID002,,,CS025061,محل ثمار عذوق القصيم للتجاره,,,,,,,1,THU,24.73475,46.77703,"305,000,301,700,003","1,010,901,739",,2025-04-23,0,,0,500.0000000,ACTIVE,Missing Documents,Potential,Required,,,,,,,,RIYADH,Zone,,
,,,RID002,,,CS025076,أسواق لقمة,,,,,,,1,SAT,24.68329,46.81409,"310,122,346,300,003","1,010,893,269",,2025-04-23,0,,0,500.0000000,ACTIVE,Missing Documents,Potential,Required,,,,,,,,RIYADH,Zone,,
,,,RID002,,,CS025078,مؤسسه العذوق اليانعه للتجارة,,,,,,,2,SUN,24.76869,46.75856,"310,169,344,700,003","1,010,892,214",,2025-04-23,0,,0,500.0000000,ACTIVE,Missing Documents,Potential,Required,,,,,,,,RIYADH,Zone,,
,,,RID002,,,CS025080,تموينات ثمار نجد للمواد الغذائية,,,,,,,1,MON,24.70334,46.81737,"311,700,651,300,003","1,010,891,303",,2025-04-23,0,,0,500.0000000,ACTIVE,Missing Documents,Potential,Required,,,,,,,,RIYADH,Zone,,
,,,RID002,,,CS025088,تموينات فداء راشد فهد الخفر,,,,,,,2,THU,24.75671,46.80191,"311,689,951,300,003","1,010,889,339",,2025-04-23,0,,0,500.0000000,ACTIVE,Missing Documents,Potential,Required,,,,,,,,RIYADH,Zone,,
,,,RID002,,,CS025104,اسواق اطعمة الأفق المركزية,,,,,,,1,SAT,24.68259,46.81718,"311,671,494,100,003","1,010,885,145",,2025-04-23,0,,0,500.0000000,ACTIVE,Missing Documents,Potential,Required,,,,,,,,RIYADH,Zone,,
,,,RID002,,,CS025106,شركه قطاف البركه للمواد الغذائية فرع حي الشهداء,,,,,,,2,WED,24.78939,46.73971,"311,670,442,700,003","1,010,884,898",,2025-04-23,0,,0,500.0000000,ACTIVE,Missing Documents,Potential,Required,,,,,,,,RIYADH,Zone,,
,,,RID002,,,CS025108,دره المشاعل,,,,,,,2,SUN,24.74829,46.79815,"311,157,518,500,003","1,010,884,553",,2025-04-23,0,,0,500.0000000,ACTIVE,Missing Documents,Potential,Required,,,,,,,,RIYADH,Zone,,
,,,RID002,,,CS025116,تموينات باب طيبة للمواد الغذائية,,,,,,,1,THU,24.73574,46.80727,"311,783,245,500,003","1,010,881,963",,2025-04-23,0,,0,500.0000000,ACTIVE,Missing Documents,Potential,Required,,,,,,,,RIYADH,Zone,,
,,,RID002,,,CS025120,أسواق سمسم نجد المركزية,,,,,,,2,WED,24.77991,46.71917,"310,300,599,700,003","1,010,880,871",,2025-04-23,0,,0,500.0000000,ACTIVE,Missing Documents,Potential,Required,,,,,,,,RIYADH,Zone,,
,,,RID002,,,CS025173,بقالة نماء القمة,,,,,,,1,SUN,24.68612,46.79063,"311,636,184,600,003","1,010,869,858",,2025-04-23,0,,0,500.0000000,ACTIVE,Missing Documents,Potential,Required,,,,,,,,RIYADH,Zone,,
,,,RID002,,,CS025193,تموينات عيد عبدالله الكربي للمواد الغذائية,,,,,,,2,THU,24.76452,46.77436,"311,592,051,900,003","1,010,865,728",,2025-04-23,0,,0,500.0000000,ACTIVE,Missing Documents,Potential,Required,,,,,,,,RIYADH,Zone,,
,,,RID002,,,CS025196,تموينات ازهار البلسم,,,,,,,2,SAT,24.75557,46.76817,"311,058,429,600,003","1,010,864,399",,2025-04-23,0,,0,500.0000000,ACTIVE,Missing Documents,Potential,Required,,,,,,,,RIYADH,Zone,,
,,,RID002,,,CS025200,مؤسسة الأفق المشرق,,,,,,,2,WED,24.76994,46.75864,"311,579,381,700,003","1,010,864,021",,2025-04-23,0,,0,500.0000000,ACTIVE,Missing Documents,Potential,Required,,,,,,,,RIYADH,Zone,,
,,,RID002,,,CS025204,مؤسسة ثمار النوادر لتجارة,,,,,,,2,WED,24.75493,46.80353,"310,721,696,500,003","1,010,862,323",,2025-04-23,0,,0,500.0000000,ACTIVE,Missing Documents,Potential,Required,,,,,,,,RIYADH,Zone,,
,,,RID002,,,CS025207,أسواق رحيق نجد للمواد الغذائية,,,,,,,2,TUE,24.76029,46.79530,"310,519,258,900,003","1,010,861,819",,2025-04-23,0,,0,500.0000000,ACTIVE,Missing Documents,Potential,Required,,,,,,,,RIYADH,Zone,,
,,,RID002,,,CS025222,تموينات سطام بن مطر الشمري للمواد الغذائية,,,,,,,1,SAT,24.67670,46.82589,"310,527,385,200,003","1,010,857,829",,2025-04-23,0,,0,500.0000000,ACTIVE,Missing Documents,Potential,Required,,,,,,,,RIYADH,Zone,,
,,,RID002,,,CS025239,تموينات سلة اليوم,,,,,,,2,MON,24.76281,46.80040,"310,840,079,300,003","1,010,853,218",,2025-04-23,0,,0,500.0000000,ACTIVE,Missing Documents,Potential,Required,,,,,,,,RIYADH,Zone,,
,,,RID002,,,CS025241,تموينات ساره محمد بن علي قيسي للمواد الغذائية,,,,,,,1,SUN,24.68603,46.80344,"311,521,489,600,003","1,010,852,898",,2025-04-23,0,,0,500.0000000,ACTIVE,Missing Documents,Potential,Required,,,,,,,,RIYADH,Zone,,
,,,RID002,,,CS025242,اللنجاز الاول,,,,,,,1,TUE,24.71007,46.81345,"300,011,463,300,003","1,010,852,867",,2025-04-23,0,,0,500.0000000,ACTIVE,Missing Documents,Potential,Required,,,,,,,,RIYADH,Zone,,
,,,RID002,,,CS025246,تموينات العتيبى,,,,,,,2,MON,24.75791,46.75436,"311,516,161,600,003","1,010,851,873",,2025-04-23,0,,0,500.0000000,ACTIVE,Missing Documents,Potential,Required,,,,,,,,RIYADH,Zone,,
,,,RID002,,,CS025265,تموينات امتياز مليكة,,,,,,,1,THU,24.74197,46.80921,"311,510,856,900,003","1,010,845,272",,2025-04-23,0,,0,500.0000000,ACTIVE,Missing Documents,Potential,Required,,,,,,,,RIYADH,Zone,,
,,,RID002,,,CS025276,بقالة شاطئ السكر,,,,,,,1,TUE,24.71018,46.77616,"310,879,161,200,003","1,010,841,341",,2025-04-23,0,,0,500.0000000,ACTIVE,Missing Documents,Potential,Required,,,,,,,,RIYADH,Zone,,
,,,RID002,,,CS025288,تموينات خالد علي حسين شيبان للمواد الغذائية,,,,,,,2,WED,24.78767,46.70340,"310,253,119,400,003","1,010,838,677",,2025-04-23,0,,0,500.0000000,ACTIVE,Missing Documents,Potential,Required,,,,,,,,RIYADH,Zone,,
,,,RID002,,,CS025291,شركة الخطوط الخضراء للمواد الغذائية,,,,,,,2,SUN,24.74667,46.77135,"311,225,658,800,003","1,010,838,128",,2025-04-23,0,,0,500.0000000,ACTIVE,Missing Documents,Potential,Required,,,,,,,,RIYADH,Zone,,
,,,RID002,,,CS025301,مؤسسة بشير سعيد الجابري,,,,,,,1,TUE,24.70455,46.78155,"311,706,777,700,003","1,010,836,360",,2025-04-23,0,,0,500.0000000,ACTIVE,Missing Documents,Potential,Required,,,,,,,,RIYADH,Zone,,
,,,RID002,,,CS025323,تموينات الشدن الاصيل,,,,,,,2,SUN,24.74090,46.76700,,"1,010,831,248",,2025-04-23,0,,0,500.0000000,ACTIVE,Missing Documents,Potential,Required,,,,,,,,RIYADH,Zone,,
,,,RID002,,,CS025332,تموينات مبارك فلاح ال جرمان,,,,,,,1,THU,24.73787,46.80598,"300,820,101,800,003","1,010,829,476",,2025-04-23,0,,0,500.0000000,ACTIVE,Missing Documents,Potential,Required,,,,,,,,RIYADH,Zone,,
,,,RID002,,,CS025373,تموينات صالح خالد صالح الزعاقي للمواد الغذائية,,,,,,,2,TUE,24.75842,46.77611,"311,365,663,900,003","1,010,816,664",,2025-04-23,0,,0,500.0000000,ACTIVE,Missing Documents,Potential,Required,,,,,,,,RIYADH,Zone,,
,,,RID002,,,CS025382,مؤسسة جنى الأغصان لتجارة الجملة والتجزئة,,,,,,,2,MON,24.75801,46.77517,"311,408,028,800,003","1,010,814,494",,2025-04-23,0,,0,500.0000000,ACTIVE,Missing Documents,Potential,Required,,,,,,,,RIYADH,Zone,,
,,,RID002,,,CS025385,تموينات ركن العمارات للمواد الغذائية,,,,,,,1,MON,24.71080,46.81690,"310,704,014,700,003","1,010,813,708",,2025-04-23,0,,0,500.0000000,ACTIVE,Missing Documents,Potential,Required,,,,,,,,RIYADH,Zone,,
,,,RID002,,,CS025391,شركة كبار نجد التجارية,,,,,,,1,SAT,24.65376,46.81463,"311,430,603,800,003","1,010,812,710",,2025-04-23,0,,0,500.0000000,ACTIVE,Missing Documents,Potential,Required,,,,,,,,RIYADH,Zone,,
,,,RID002,,,CS025398,اسواق طيبات الأغذيه النهضه,,,,,,,2,THU,24.75951,46.79997,"310,227,823,800,003","1,010,811,207",,2025-04-23,0,,0,500.0000000,ACTIVE,Missing Documents,Potential,Required,,,,,,,,RIYADH,Zone,,
,,,RID002,,,CS025438,تموينات بستان الجوري للمواد الغذائية,,,,,,,1,WED,24.72685,46.81376,"311,287,254,700,003","1,010,800,145",,2025-04-23,0,,0,500.0000000,ACTIVE,Missing Documents,Potential,Required,,,,,,,,RIYADH,Zone,,
,,,RID002,,,CS025451,مؤسسه سكر ورد للحلويات والمكسرات,,,,,,,1,THU,24.73429,46.77615,"310,579,514,100,003","1,010,796,818",,2025-04-23,0,,0,500.0000000,ACTIVE,Missing Documents,Potential,Required,,,,,,,,RIYADH,Zone,,
,,,RID002,,,CS025474,مؤسسة قلعه الصخره  العامة,,,,,,,1,TUE,24.70456,46.78147,"311,226,928,700,003","1,010,788,706",,2025-04-23,0,,0,500.0000000,ACTIVE,Missing Documents,Potential,Required,,,,,,,,RIYADH,Zone,,
,,,RID002,,,CS025476,تموينات نسمة النخيل للمواد الغذائية,,,,,,,1,SUN,24.68062,46.80897,"311,170,117,700,003","1,010,788,195",,2025-04-23,0,,0,500.0000000,ACTIVE,Missing Documents,Potential,Required,,,,,,,,RIYADH,Zone,,
,,,RID002,,,CS025484,تموينات تموين المنزل للمواد الغذائية,,,,,,,2,TUE,24.77292,46.76124,"311,221,261,100,003","1,010,787,499",,2025-04-23,0,,0,500.0000000,ACTIVE,Missing Documents,Potential,Required,,,,,,,,RIYADH,Zone,,
,,,RID002,,,CS025498,مؤسسة المقداد للخضار والفواكه,,,,,,,1,SUN,24.67834,46.81647,"311,211,140,900,003","1,010,785,063",,2025-04-23,0,,0,500.0000000,ACTIVE,Missing Documents,Potential,Required,,,,,,,,RIYADH,Zone,,
,,,RID002,,,CS025529,مؤسسة عالم قوت العائله للمواد الغذائية,,,,,,,1,TUE,24.71781,46.80730,"311,176,111,200,003","1,010,778,052",,2025-04-23,0,,0,500.0000000,ACTIVE,Missing Documents,Potential,Required,,,,,,,,RIYADH,Zone,,
,,,RID002,,,CS025549,تموينات روف للمواد الغذائية,,,,,,,2,WED,24.77486,46.77359,"302,065,193,800,003","1,010,772,030",,2025-04-23,0,,0,500.0000000,ACTIVE,Missing Documents,Potential,Required,,,,,,,,RIYADH,Zone,,
,,,RID002,,,CS025565,تموينات حصة بنت زويد بن مزيد المطيري للمواد الغذائ,,,,,,,2,MON,24.75869,46.74698,"310,258,496,900,003","1,010,767,343",,2025-04-23,0,,0,500.0000000,ACTIVE,Missing Documents,Potential,Required,,,,,,,,RIYADH,Zone,,
,,,RID002,,,CS025587,تموينات عبد الكريم ابراهيم,,,,,,,1,THU,24.73705,46.80669,"302,212,856,800,003","1,010,762,976",,2025-04-23,0,,0,500.0000000,ACTIVE,Missing Documents,Potential,Required,,,,,,,,RIYADH,Zone,,
,,,RID002,,,CS025607,اسواق الزيتون والرمان,,,,,,,2,THU,24.78841,46.76046,"311,070,956,400,003","1,010,759,613",,2025-04-23,0,,0,500.0000000,ACTIVE,Missing Documents,Potential,Required,,,,,,,,RIYADH,Zone,,
,,,RID002,,,CS025608,تموينات سعيده مانع بن دهام اليامي للتجارة,,,,,,,2,SAT,24.73580,46.77950,"311,099,466,600,003","1,010,759,432",,2025-04-23,0,,0,500.0000000,ACTIVE,Missing Documents,Potential,Required,,,,,,,,RIYADH,Zone,,
,,,RID002,,,CS025611,تموينات ريحانة المنظر,,,,,,,2,MON,24.75944,46.77697,"311,098,712,500,003","1,010,759,235",,2025-04-23,0,,0,500.0000000,ACTIVE,Missing Documents,Potential,Required,,,,,,,,RIYADH,Zone,,
,,,RID002,,,CS025621,تموينات فاطمه بنت عتقان المطيرى,,,,,,,1,SAT,24.67625,46.81263,"310,881,230,100,003","1,010,757,090",,2025-04-23,0,,0,500.0000000,ACTIVE,Missing Documents,Potential,Required,,,,,,,,RIYADH,Zone,,
,,,RID002,,,CS025637,تموينات سادا,,,,,,,2,SAT,24.75050,46.75050,"310,531,068,100,003","1,010,753,609",,2025-04-23,0,,0,500.0000000,ACTIVE,Missing Documents,Potential,Required,,,,,,,,RIYADH,Zone,,
,,,RID002,,,CS025640,بقاله اعالي النيل للمواد الغذائية,,,,,,,1,THU,24.74740,46.76190,"311,896,956,500,003","1,010,753,270",,2025-04-23,0,,0,500.0000000,ACTIVE,Missing Documents,Potential,Required,,,,,,,,RIYADH,Zone,,
,,,RID002,,,CS025662,تموينات منى علي قاسم قرادي للمواد الغذائية,,,,,,,1,SUN,24.69409,46.81807,"302,181,527,200,003","1,010,749,514",,2025-04-23,0,,0,500.0000000,ACTIVE,Missing Documents,Potential,Required,,,,,,,,RIYADH,Zone,,
,,,RID002,,,CS025670,أسواق فيض القصيم للمواد الغذائية,,,,,,,1,THU,24.74466,46.75604,"310,186,410,900,003","1,010,746,964",,2025-04-23,0,,0,500.0000000,ACTIVE,Missing Documents,Potential,Required,,,,,,,,RIYADH,Zone,,
,,,RID002,,,CS025673,تموينات ثمار هنو للمواد الغذائية  1,,,,,,,1,SUN,24.67874,46.78816,"311,409,159,200,003","1,010,745,729",,2025-04-23,0,,0,500.0000000,ACTIVE,Missing Documents,Potential,Required,,,,,,,,RIYADH,Zone,,
,,,RID002,,,CS025684,تموينات قمر نجد للمواد الغذائية,,,,,,,2,TUE,24.75810,46.76090,"311,036,991,800,003","1,010,743,234",,2025-04-23,0,,0,500.0000000,ACTIVE,Missing Documents,Potential,Required,,,,,,,,RIYADH,Zone,,
,,,RID002,,,CS025692,تموينات سلة العاصمة للمواد الغذائية,,,,,,,2,SAT,24.74580,46.75300,"302,115,373,400,003","1,010,740,649",,2025-04-23,0,,0,500.0000000,ACTIVE,Missing Documents,Potential,Required,,,,,,,,RIYADH,Zone,,
,,,RID002,,,CS025702,الفصول الاربعه للمواد الغذائية,,,,,,,2,SUN,24.74792,46.75897,"311,125,475,300,003","1,010,738,000",,2025-04-23,0,,0,500.0000000,ACTIVE,Missing Documents,Potential,Required,,,,,,,,RIYADH,Zone,,
,,,RID002,,,CS025716,تموينات محمد سليمان محمد الفريج للمواد الغذائية,,,,,,,1,SUN,24.68817,46.78883,"310,765,565,200,003","1,010,735,707",,2025-04-23,0,,0,500.0000000,ACTIVE,Missing Documents,Potential,Required,,,,,,,,RIYADH,Zone,,
,,,RID002,,,CS025725,تموينات الفتوح,,,,,,,2,SUN,24.75363,46.78476,"310,210,494,500,003","1,010,734,499",,2025-04-23,0,,0,500.0000000,ACTIVE,Missing Documents,Potential,Required,,,,,,,,RIYADH,Zone,,
,,,RID002,,,CS025726,مؤسسة المخطط الذكي  العامة,,,,,,,1,SAT,24.67645,46.81602,"311,506,723,500,003","1,010,734,208",,2025-04-23,0,,0,500.0000000,ACTIVE,Missing Documents,Potential,Required,,,,,,,,RIYADH,Zone,,
,,,RID002,,,CS025727,تموينات سلطان,,,,,,,2,SUN,24.75471,46.78752,"301,162,371,100,003","1,010,734,174",,2025-04-23,0,,0,500.0000000,ACTIVE,Missing Documents,Potential,Required,,,,,,,,RIYADH,Zone,,
,,,RID002,,,CS025732,تموينات النهضة المتجددة للمواد الغذائية,,,,,,,2,MON,24.77580,46.72660,"310,249,560,400,003","1,010,733,002",,2025-04-23,0,,0,500.0000000,ACTIVE,Missing Documents,Potential,Required,,,,,,,,RIYADH,Zone,,
,,,RID002,,,CS025739,تموينات مريم محمد جريذي العنزي للمواد الغذائية,,,,,,,2,TUE,24.75310,46.80660,"310,988,579,700,003","1,010,731,085",,2025-04-23,0,,0,500.0000000,ACTIVE,Missing Documents,Potential,Required,,,,,,,,RIYADH,Zone,,
,,,RID002,,,CS025756,تموينات خير السعاده 3 فرع القدس,,,,,,,2,MON,24.75801,46.75421,"301,244,364,800,003","1,010,727,529",,2025-04-23,0,,0,500.0000000,ACTIVE,Missing Documents,Potential,Required,,,,,,,,RIYADH,Zone,,
,,,RID002,,,CS025759,اسواق تفاحه غرناطه 3,,,,,,,2,THU,24.79860,46.74558,"310,141,661,500,003","1,010,727,057",,2025-04-23,0,,0,500.0000000,ACTIVE,Missing Documents,Potential,Required,,,,,,,,RIYADH,Zone,,
,,,RID002,,,CS025781,شركة ميس الجود للمواد الغذائية,,,,,,,1,TUE,24.71511,46.78543,"310,952,870,800,003","1,010,722,111",,2025-04-23,0,,0,500.0000000,ACTIVE,Missing Documents,Potential,Required,,,,,,,,RIYADH,Zone,,
,,,RID002,,,CS025801,تموينات سارة سلمان العتيبي,,,,,,,2,MON,24.75421,46.79199,"310,930,025,100,003","1,010,716,448",,2025-04-23,0,,0,500.0000000,ACTIVE,Missing Documents,Potential,Required,,,,,,,,RIYADH,Zone,,
,,,RID002,,,CS025808,تموينات وقفة قصيرة للمواد الغذائية,,,,,,,2,TUE,24.78850,46.73374,"310,104,003,200,003","1,010,714,183",,2025-04-23,0,,0,500.0000000,ACTIVE,Missing Documents,Potential,Required,,,,,,,,RIYADH,Zone,,
,,,RID002,,,CS025830,تموينات سلة الاندلس للمواد الغذائية,,,,,,,2,SUN,24.75259,46.78431,"310,921,895,800,003","1,010,706,049",,2025-04-23,0,,0,500.0000000,ACTIVE,Missing Documents,Potential,Required,,,,,,,,RIYADH,Zone,,
,,,RID002,,,CS025836,شركة لؤلؤة الإقتصاد,,,,,,,2,THU,24.75755,46.71362,"311,201,838,900,003","1,010,701,814",,2025-04-23,0,,0,500.0000000,ACTIVE,Missing Documents,Potential,Required,,,,,,,,RIYADH,Zone,,
,,,RID002,,,CS025837,تموينات سالم بن عبد الله الدوسرى,,,,,,,2,THU,24.80121,46.74917,"310,914,796,400,003","1,010,701,297",,2025-04-23,0,,0,500.0000000,ACTIVE,Missing Documents,Potential,Required,,,,,,,,RIYADH,Zone,,
,,,RID002,,,CS025840,تموينات تلال الغذاء للمواد الغذائية,,,,,,,1,WED,24.72430,46.76744,"310,090,605,200,003","1,010,700,303",,2025-04-23,0,,0,500.0000000,ACTIVE,Missing Documents,Potential,Required,,,,,,,,RIYADH,Zone,,
,,,RID002,,,CS025846,تموينات غنى الرياض للمواد الغذائية,,,,,,,2,TUE,24.75289,46.80722,"311,648,435,700,003","1,010,699,407",,2025-04-23,0,,0,500.0000000,ACTIVE,Missing Documents,Potential,Required,,,,,,,,RIYADH,Zone,,
,,,RID002,,,CS025848,مؤسسة أنوار الرجبة للمواد الغذائية,,,,,,,2,SUN,24.75021,46.78570,"310,909,343,300,003","1,010,698,782",,2025-04-23,0,,0,500.0000000,ACTIVE,Missing Documents,Potential,Required,,,,,,,,RIYADH,Zone,,
,,,RID002,,,CS025864,هاله محمد عودة العطوي للمواد الغذائية,,,,,,,2,SAT,24.73656,46.79010,"310,239,418,700,003","1,010,695,580",,2025-04-23,0,,0,500.0000000,ACTIVE,Missing Documents,Potential,Required,,,,,,,,RIYADH,Zone,,
,,,RID002,,,CS025870,مؤسسة درع العروبه للتجاره,,,,,,,2,THU,24.75917,46.80072,"300,043,657,400,003","1,010,694,221",,2025-04-23,0,,0,500.0000000,ACTIVE,Missing Documents,Potential,Required,,,,,,,,RIYADH,Zone,,
,,,RID002,,,CS025881,تموينات امواج الاغذية للمواد الغذائية,,,,,,,2,MON,24.75971,46.77781,"310,880,203,300,003","1,010,690,972",,2025-04-23,0,,0,500.0000000,ACTIVE,Missing Documents,Potential,Required,,,,,,,,RIYADH,Zone,,
,,,RID002,,,CS025882,بقالة محمد أبا الخيل للمواد الغذائية,,,,,,,1,MON,24.70023,46.78228,"310,118,677,500,003","1,010,690,896",,2025-04-23,0,,0,500.0000000,ACTIVE,Missing Documents,Potential,Required,,,,,,,,RIYADH,Zone,,
,,,RID002,,,CS025897,اسواق سلمي الرياض  للمواد الغذائيه,,,,,,,1,SAT,24.68490,46.82193,"302,198,895,500,003","1,010,687,000",,2025-04-23,0,,0,500.0000000,ACTIVE,Missing Documents,Potential,Required,,,,,,,,RIYADH,Zone,,
,,,RID002,,,CS025908,تموينات سوده للمواد الغذائية,,,,,,,2,WED,24.76462,46.76833,"702,142,581,900,003","1,010,684,634",,2025-04-23,0,,0,500.0000000,ACTIVE,Missing Documents,Potential,Required,,,,,,,,RIYADH,Zone,,
,,,RID002,,,CS025911,تموينات كل الحارة,,,,,,,2,THU,24.76420,46.79633,"301,237,868,400,003","1,010,684,563",,2025-04-23,0,,0,500.0000000,ACTIVE,Missing Documents,Potential,Required,,,,,,,,RIYADH,Zone,,
,,,RID002,,,CS025917,مؤسسة توفير الشئ,,,,,,,2,MON,24.75679,46.75160,"310,909,344,500,003","1,010,682,356",,2025-04-23,0,,0,500.0000000,ACTIVE,Missing Documents,Potential,Required,,,,,,,,RIYADH,Zone,,
,,,RID002,,,CS025923,تموينات الاسمري,,,,,,,2,THU,24.79470,46.73890,"310,080,166,600,003","1,010,680,927",,2025-04-23,0,,0,500.0000000,ACTIVE,Missing Documents,Potential,Required,,,,,,,,RIYADH,Zone,,
,,,RID002,,,CS025932,بقالة دلال خالد حمود البلوي للمواد الغذائية,,,,,,,1,THU,24.74980,46.74950,"310,830,633,800,003","1,010,679,001",,2025-04-23,0,,0,500.0000000,ACTIVE,Missing Documents,Potential,Required,,,,,,,,RIYADH,Zone,,
,,,RID002,,,CS025949,تموينات دعم الشرق,,,,,,,2,SAT,24.74320,46.76520,"310,804,918,400,003","1,010,675,023",,2025-04-23,0,,0,500.0000000,ACTIVE,Missing Documents,Potential,Required,,,,,,,,RIYADH,Zone,,
,,,RID002,,,CS025952,تموينات نجد الهمم للمواد الغذائيه,,,,,,,2,SAT,24.73643,46.77289,"310,330,210,800,003","1,010,674,452",,2025-04-23,0,,0,500.0000000,ACTIVE,Missing Documents,Potential,Required,,,,,,,,RIYADH,Zone,,
,,,RID002,,,CS025958,تموينات نوال عيد رغيان الرشيدي,,,,,,,2,WED,24.76217,46.77398,,"1,010,673,600",,2025-04-23,0,,0,500.0000000,ACTIVE,Missing Documents,Potential,Required,,,,,,,,RIYADH,Zone,,
,,,RID002,,,CS025963,تموينات هلا هيل,,,,,,,2,THU,24.77416,46.72182,"310,743,663,300,003","1,010,672,389",,2025-04-23,0,,0,500.0000000,ACTIVE,Missing Documents,Potential,Required,,,,,,,,RIYADH,Zone,,
,,,RID002,,,CS025966,تموينات ركن العائله,,,,,,,1,WED,24.70583,46.76717,"310,795,578,500,003","1,010,672,182",,2025-04-23,0,,0,500.0000000,ACTIVE,Missing Documents,Potential,Required,,,,,,,,RIYADH,Zone,,
,,,RID002,,,CS025971,تموينات جوهرة حطين للمواد الغذائية,,,,,,,1,WED,24.72877,46.79125,"310,785,648,900,003","1,010,670,172",,2025-04-23,0,,0,500.0000000,ACTIVE,Missing Documents,Potential,Required,,,,,,,,RIYADH,Zone,,
,,,RID002,,,CS026006,شركة الاقليميه التجارية,,,,,,,2,WED,24.78008,46.71918,"310,738,534,400,003","1,010,659,577",,2025-04-23,0,,0,500.0000000,ACTIVE,Missing Documents,Potential,Required,,,,,,,,RIYADH,Zone,,
,,,RID002,,,CS026020,تموينات مقطوف نجد للمواد الغذائية,,,,,,,2,WED,24.80498,46.73915,"311,036,350,700,003","1,010,656,126",,2025-04-23,0,,0,500.0000000,ACTIVE,Missing Documents,Potential,Required,,,,,,,,RIYADH,Zone,,
,,,RID002,,,CS026022,اسواق و مخابز كوكب البدر,,,,,,,1,SUN,24.70283,46.80465,"310,723,390,200,003","1,010,655,976",,2025-04-23,0,,0,500.0000000,ACTIVE,Missing Documents,Potential,Required,,,,,,,,RIYADH,Zone,,
,,,RID002,,,CS026024,تموينات ورده احمد هادي شراحيلي للمواد الغذائية,,,,,,,1,SAT,24.66885,46.80773,"310,720,066,700,003","1,010,655,168",,2025-04-23,0,,0,500.0000000,ACTIVE,Missing Documents,Potential,Required,,,,,,,,RIYADH,Zone,,
,,,RID002,,,CS026025,العمة مزنة,,,,,,,1,SUN,24.68328,46.79693,"301,036,858,100,003","1,010,655,048",,2025-04-23,0,,0,500.0000000,ACTIVE,Missing Documents,Potential,Required,,,,,,,,RIYADH,Zone,,
,,,RID002,,,CS026041,تموينات تمنى الأطلال للمواد الغذائية  1,,,,,,,2,TUE,24.78658,46.73679,"310,329,660,200,003","1,010,651,370",,2025-04-23,0,,0,500.0000000,ACTIVE,Missing Documents,Potential,Required,,,,,,,,RIYADH,Zone,,
,,,RID002,,,CS026069,تموينات النهدى سالمين عايض النهدى,,,,,,,1,TUE,24.72382,46.79705,"302,160,802,100,003","1,010,644,838",,2025-04-23,0,,0,500.0000000,ACTIVE,Missing Documents,Potential,Required,,,,,,,,RIYADH,Zone,,
,,,RID002,,,CS026081,مؤسسة ابراهيم صالح عبدالله الجريس للمياه والمشروبا,,,,,,,1,WED,24.73988,46.77885,"302,196,219,300,003","1,010,642,174",,2025-04-23,0,,0,500.0000000,ACTIVE,Missing Documents,Potential,Required,,,,,,,,RIYADH,Zone,,
,,,RID002,,,CS026085,اسواق واجهة العائلة للمواد الغذائيه,,,,,,,2,SUN,24.75846,46.79371,"310,598,571,400,003","1,010,640,597",,2025-04-23,0,,0,500.0000000,ACTIVE,Missing Documents,Potential,Required,,,,,,,,RIYADH,Zone,,
,,,RID002,,,CS026087,تموينات محمد سعد العتيبي للمواد الغذائية,,,,,,,1,WED,24.72796,46.80773,"302,122,559,200,003","1,010,640,193",,2025-04-23,0,,0,500.0000000,ACTIVE,Missing Documents,Potential,Required,,,,,,,,RIYADH,Zone,,
,,,RID002,,,CS026094,تموينات زاوية السلام,,,,,,,1,TUE,24.70986,46.81583,"311,043,431,700,003","1,010,638,277",,2025-04-23,0,,0,500.0000000,ACTIVE,Missing Documents,Potential,Required,,,,,,,,RIYADH,Zone,,
,,,RID002,,,CS026100,تموينات ابراهيم عبد العزيز المطوع,,,,,,,2,THU,24.78442,46.69510,"300,753,983,700,003","1,010,636,756",,2025-04-23,0,,0,500.0000000,ACTIVE,Missing Documents,Potential,Required,,,,,,,,RIYADH,Zone,,
,,,RID002,,,CS026107,تموينات هياء بنت سعد بن سعيد القحطاني,,,,,,,2,WED,24.79375,46.74703,"300,130,476,700,003","1,010,635,636",,2025-04-23,0,,0,500.0000000,ACTIVE,Missing Documents,Potential,Required,,,,,,,,RIYADH,Zone,,
,,,RID002,,,CS026114,تموينات الحفلة الرائعة للمواد الغذائية,,,,,,,2,TUE,24.77058,46.75810,"311,024,362,400,003","1,010,634,756",,2025-04-23,0,,0,500.0000000,ACTIVE,Missing Documents,Potential,Required,,,,,,,,RIYADH,Zone,,
,,,RID002,,,CS026121,تموينات مدينة الحلوى للمواد الغذائية,,,,,,,2,MON,24.79157,46.73524,"310,822,464,300,003","1,010,633,556",,2025-04-23,0,,0,500.0000000,ACTIVE,Missing Documents,Potential,Required,,,,,,,,RIYADH,Zone,,
,,,RID002,,,CS026136,اسواق علي عمر الجعيدي,,,,,,,2,SUN,24.75086,46.78050,"302,183,064,100,003","1,010,629,825",,2025-04-23,0,,0,500.0000000,ACTIVE,Missing Documents,Potential,Required,,,,,,,,RIYADH,Zone,,
,,,RID002,,,CS026145,مؤسسة عبدالله حمد راشد السنيدي للتجارة,,,,,,,1,SUN,24.68055,46.81357,"310,629,979,400,003","1,010,628,954",,2025-04-23,0,,0,500.0000000,ACTIVE,Missing Documents,Potential,Required,,,,,,,,RIYADH,Zone,,
,,,RID002,,,CS026156,شركة ركن الغذاء التجارية,,,,,,,1,THU,24.73514,46.75933,"310,560,594,100,003","1,010,626,170",,2025-04-23,0,,0,500.0000000,ACTIVE,Missing Documents,Potential,Required,,,,,,,,RIYADH,Zone,,
,,,RID002,,,CS026213,تموينات ايمن صالح حمد العمري,,,,,,,2,SAT,24.75020,46.77997,"310,074,162,500,003","1,010,605,977",,2025-04-23,0,,0,500.0000000,ACTIVE,Missing Documents,Potential,Required,,,,,,,,RIYADH,Zone,,
,,,RID002,,,CS026227,تموينات ساره مفرح عويض العتيبي,,,,,,,2,TUE,24.75959,46.77557,"310,660,856,600,003","1,010,597,889",,2025-04-23,0,,0,500.0000000,ACTIVE,Missing Documents,Potential,Required,,,,,,,,RIYADH,Zone,,
,,,RID002,,,CS026228,تموينات لمياء فرحان منزل العنزي للمواد الغذائيه,,,,,,,1,TUE,24.70688,46.77044,"300,933,258,900,003","1,010,597,124",,2025-04-23,0,,0,500.0000000,ACTIVE,Missing Documents,Potential,Required,,,,,,,,RIYADH,Zone,,
,,,RID002,,,CS026251,مؤسسة جواهر ضافر حسن فقيهي للمواد الغذائية,,,,,,,2,MON,24.76127,46.76939,"310,431,373,500,003","1,010,590,425",,2025-04-23,0,,0,500.0000000,ACTIVE,Missing Documents,Potential,Required,,,,,,,,RIYADH,Zone,,
,,,RID002,,,CS026282,تموينات مشاعل حماد معيوف عنزي للتجارة,,,,,,,2,WED,24.79561,46.74311,"310,378,926,600,003","1,010,581,659",,2025-04-23,0,,0,500.0000000,ACTIVE,Missing Documents,Potential,Required,,,,,,,,RIYADH,Zone,,
,,,RID002,,,CS026289,شركة فودز للمواد الغذائية,,,,,,,2,WED,24.75505,46.80481,"311,441,804,500,003","1,010,580,078",,2025-04-23,0,,0,500.0000000,ACTIVE,Missing Documents,Potential,Required,,,,,,,,RIYADH,Zone,,
,,,RID002,,,CS026298,شركة الوان الفيصل,,,,,,,1,WED,24.72967,46.81233,"312,058,806,300,003","1,010,576,977",,2025-04-23,0,,0,500.0000000,ACTIVE,Missing Documents,Potential,Required,,,,,,,,RIYADH,Zone,,
,,,RID002,,,CS026299,تموينات انوار الهدوء,,,,,,,1,WED,24.72629,46.76354,"310,569,555,300,003","1,010,576,663",,2025-04-23,0,,0,500.0000000,ACTIVE,Missing Documents,Potential,Required,,,,,,,,RIYADH,Zone,,
,,,RID002,,,CS026312,تموينات عبد الرحمن الاسمري,,,,,,,2,MON,24.75360,46.76002,"310,349,466,400,003","1,010,572,897",,2025-04-23,0,,0,500.0000000,ACTIVE,Missing Documents,Potential,Required,,,,,,,,RIYADH,Zone,,
,,,RID002,,,CS026320,أسواق ركن سلة المستهلك للمواد الغذائية,,,,,,,2,THU,24.78005,46.76055,"310,345,547,700,003","1,010,570,147",,2025-04-23,0,,0,500.0000000,ACTIVE,Missing Documents,Potential,Required,,,,,,,,RIYADH,Zone,,
,,,RID002,,,CS026346,مؤسسة نوف مصلح صالح المطيري للمواد الغذائية,,,,,,,1,MON,24.71446,46.79355,"310,321,659,300,003","1,010,563,315",,2025-04-23,0,,0,500.0000000,ACTIVE,Missing Documents,Potential,Required,,,,,,,,RIYADH,Zone,,
,,,RID002,,,CS026347,تموينات مخزنك,,,,,,,1,SUN,24.69207,46.78710,"311,232,091,100,003","1,010,563,143",,2025-04-23,0,,0,500.0000000,ACTIVE,Missing Documents,Potential,Required,,,,,,,,RIYADH,Zone,,
,,,RID002,,,CS026353,مؤسسه معادنك التجاريه,,,,,,,2,SUN,24.74476,46.78982,"310,082,309,300,003","1,010,559,665",,2025-04-23,0,,0,500.0000000,ACTIVE,Missing Documents,Potential,Required,,,,,,,,RIYADH,Zone,,
,,,RID002,,,CS026356,مؤسسة نخلة القصيم التجاريه,,,,,,,1,SAT,24.67638,46.82452,"301,298,817,400,003","1,010,558,638",,2025-04-23,0,,0,500.0000000,ACTIVE,Missing Documents,Potential,Required,,,,,,,,RIYADH,Zone,,
,,,RID002,,,CS026362,تموينات مريم سعود حبشي الحنيني للمواد الغذائيه,,,,,,,1,SAT,24.67811,46.80359,"302,126,956,400,003","1,010,553,632",,2025-04-23,0,,0,500.0000000,ACTIVE,Missing Documents,Potential,Required,,,,,,,,RIYADH,Zone,,
,,,RID002,,,CS026395,تموينات ابتسام,,,,,,,1,SUN,24.68797,46.80724,"302,208,532,800,003","1,010,534,935",,2025-04-23,0,,0,500.0000000,ACTIVE,Missing Documents,Potential,Required,,,,,,,,RIYADH,Zone,,
,,,RID002,,,CS026397,تموينات عبدالحميد ابراهيم العيد,,,,,,,2,MON,24.75720,46.76669,,"1,010,534,867",,2025-04-23,0,,0,500.0000000,ACTIVE,Missing Documents,Potential,Required,,,,,,,,RIYADH,Zone,,
,,,RID002,,,CS026401,تموينات علي محمد احمد القرني,,,,,,,1,THU,24.72592,46.76246,"302,069,217,600,003","1,010,532,665",,2025-04-23,0,,0,500.0000000,ACTIVE,Missing Documents,Potential,Required,,,,,,,,RIYADH,Zone,,
,,,RID002,,,CS026416,تموينات الحسين,,,,,,,1,TUE,24.73160,46.75410,"301,032,257,400,003","1,010,526,425",,2025-04-23,0,,0,500.0000000,ACTIVE,Missing Documents,Potential,Required,,,,,,,,RIYADH,Zone,,
,,,RID002,,,CS026430,تموينات مشاعل مناور عليان المطيري للمواد الغذائيه,,,,,,,2,TUE,24.76060,46.76140,"302,155,295,400,003","1,010,522,022",,2025-04-23,0,,0,500.0000000,ACTIVE,Missing Documents,Potential,Required,,,,,,,,RIYADH,Zone,,
,,,RID002,,,CS026455,تموينات ولفان,,,,,,,1,SAT,24.67489,46.81185,"310,037,844,500,003","1,010,509,208",,2025-04-23,0,,0,500.0000000,ACTIVE,Missing Documents,Potential,Required,,,,,,,,RIYADH,Zone,,
,,,RID002,,,CS026480,بقاله احمد تركي بن راشد الخزرج,,,,,,,2,SAT,24.74577,46.75310,"310,256,487,900,003","1,010,501,039",,2025-04-23,0,,0,500.0000000,ACTIVE,Missing Documents,Potential,Required,,,,,,,,RIYADH,Zone,,
,,,RID002,,,CS026482,مؤسسة سهول الوديان للتجارة,,,,,,,1,SUN,24.68386,46.79178,"302,138,450,800,003","1,010,500,463",,2025-04-23,0,,0,500.0000000,ACTIVE,Missing Documents,Potential,Required,,,,,,,,RIYADH,Zone,,
,,,RID002,,,CS026484,مؤسسه تهاني ظافي هذال النتيفات 2 فرع الاندلس,,,,,,,2,MON,24.75800,46.75423,"310,279,780,300,003","1,010,499,864",,2025-04-23,0,,0,500.0000000,ACTIVE,Missing Documents,Potential,Required,,,,,,,,RIYADH,Zone,,
,,,RID002,,,CS026488,تموينات تموين المنازل,,,,,,,1,THU,24.73303,46.76817,"310,509,942,300,003","1,010,498,444",,2025-04-23,0,,0,500.0000000,ACTIVE,Missing Documents,Potential,Required,,,,,,,,RIYADH,Zone,,
,,,RID002,,,CS026505,مؤسسة يوسف ابراهيم البرجس,,,,,,,1,MON,24.70583,46.81509,"310,092,556,900,003","1,010,489,119",,2025-04-23,0,,0,500.0000000,ACTIVE,Missing Documents,Potential,Required,,,,,,,,RIYADH,Zone,,
,,,RID002,,,CS026515,شركة المدبر للمواد الغذائية,,,,,,,2,SUN,24.78689,46.73473,"311,467,342,600,003","1,010,481,282",,2025-04-23,0,,0,500.0000000,ACTIVE,Missing Documents,Potential,Required,,,,,,,,RIYADH,Zone,,
,,,RID002,,,CS026517,تموينات اوان الفيصل,,,,,,,2,SAT,24.74991,46.77951,"302,097,528,700,003","1,010,480,863",,2025-04-23,0,,0,500.0000000,ACTIVE,Missing Documents,Potential,Required,,,,,,,,RIYADH,Zone,,
,,,RID002,,,CS026525,تموينات ميما,,,,,,,2,SUN,24.75505,46.78832,"310,269,808,300,003","1,010,480,008",,2025-04-23,0,,0,500.0000000,ACTIVE,Missing Documents,Potential,Required,,,,,,,,RIYADH,Zone,,
,,,RID002,,,CS026531,تموينات زوار الحديقة المركزية,,,,,,,1,THU,24.73374,46.77602,"310,208,855,600,003","1,010,478,183",,2025-04-23,0,,0,500.0000000,ACTIVE,Missing Documents,Potential,Required,,,,,,,,RIYADH,Zone,,
,,,RID002,,,CS026544,مركز منتجات السلطان,,,,,,,2,SAT,24.74680,46.75950,"310,503,367,900,003","1,010,473,146",,2025-04-23,0,,0,500.0000000,ACTIVE,Missing Documents,Potential,Required,,,,,,,,RIYADH,Zone,,
,,,RID002,,,CS026554,تموينات سلة طيبين للمواد الغذائية,,,,,,,2,SUN,24.75117,46.75966,"302,079,652,200,003","1,010,470,377",,2025-04-23,0,,0,500.0000000,ACTIVE,Missing Documents,Potential,Required,,,,,,,,RIYADH,Zone,,
,,,RID002,,,CS026570,تموينات منهل الوادي,,,,,,,1,THU,24.73817,46.80560,"300,051,635,200,003","1,010,460,052",,2025-04-23,0,,0,500.0000000,ACTIVE,Missing Documents,Potential,Required,,,,,,,,RIYADH,Zone,,
,,,RID002,,,CS026581,محاصيل القصيم,,,,,,,2,WED,24.80431,46.75121,"301,234,875,400,003","1,010,455,053",,2025-04-23,0,,0,500.0000000,ACTIVE,Missing Documents,Potential,Required,,,,,,,,RIYADH,Zone,,
,,,RID002,,,CS026602,تموينات نوال الشمري,,,,,,,2,SUN,24.74810,46.79810,"302,188,214,500,003","1,010,444,228",,2025-04-23,0,,0,500.0000000,ACTIVE,Missing Documents,Potential,Required,,,,,,,,RIYADH,Zone,,
,,,RID002,,,CS026610,تموينات هاشم,,,,,,,1,TUE,24.70727,46.81123,"300,837,335,800,003","1,010,434,824",,2025-04-23,0,,0,500.0000000,ACTIVE,Missing Documents,Potential,Required,,,,,,,,RIYADH,Zone,,
,,,RID002,,,CS026617,تموينات باخشوين,,,,,,,1,MON,24.69000,46.78398,"310,017,658,900,003","1,010,425,632",,2025-04-23,0,,0,500.0000000,ACTIVE,Missing Documents,Potential,Required,,,,,,,,RIYADH,Zone,,
,,,RID002,,,CS026679,تموينات نبض الخيرات,,,,,,,2,WED,24.76145,46.71667,"310,052,816,300,003","1,010,388,960",,2025-04-23,0,,0,500.0000000,ACTIVE,Missing Documents,Potential,Required,,,,,,,,RIYADH,Zone,,
,,,RID002,,,CS026689,تموينات قمراء شافي حمد السبيعي,,,,,,,1,SAT,24.68714,46.82201,"300,961,685,900,003","1,010,380,349",,2025-04-23,0,,0,500.0000000,ACTIVE,Missing Documents,Potential,Required,,,,,,,,RIYADH,Zone,,
,,,RID002,,,CS026722,تموينات زاد المنار للمواد الغذائية,,,,,,,1,TUE,24.72141,46.79948,"311,396,641,400,003","1,010,370,810",,2025-04-23,0,,0,500.0000000,ACTIVE,Missing Documents,Potential,Required,,,,,,,,RIYADH,Zone,,
,,,RID002,,,CS026733,تموينات جبران محمد محسن غفه,,,,,,,1,SAT,24.66628,46.80749,"302,028,371,500,003","1,010,366,731",,2025-04-23,0,,0,500.0000000,ACTIVE,Missing Documents,Potential,Required,,,,,,,,RIYADH,Zone,,
,,,RID002,,,CS026737,بقاله سله المنزل,,,,,,,2,TUE,24.76835,46.76958,"302,109,267,500,003","1,010,365,150",,2025-04-23,0,,0,500.0000000,ACTIVE,Missing Documents,Potential,Required,,,,,,,,RIYADH,Zone,,
,,,RID002,,,CS026761,تموينات رقية الغنام,,,,,,,2,SAT,24.74030,46.76760,,"1,010,338,737",,2025-04-23,0,,0,500.0000000,ACTIVE,Missing Documents,Potential,Required,,,,,,,,RIYADH,Zone,,
,,,RID002,,,CS026766,تموينات حصه عبد الله محمد الغرير,,,,,,,1,TUE,24.71528,46.77621,"301,007,073,600,003","1,010,329,863",,2025-04-23,0,,0,500.0000000,ACTIVE,Missing Documents,Potential,Required,,,,,,,,RIYADH,Zone,,
,,,RID002,,,CS026792,تموينات جزيرة الكنز للمواد الغذائية,,,,,,,1,MON,24.69653,46.79407,"300,014,709,800,003","1,010,299,451",,2025-04-23,0,,0,500.0000000,ACTIVE,Missing Documents,Potential,Required,,,,,,,,RIYADH,Zone,,
,,,RID002,,,CS026798,مؤسسة نجوم هوازن للتجارة,,,,,,,1,WED,24.75281,46.74314,"311,105,699,700,003","1,010,291,954",,2025-04-23,0,,0,500.0000000,ACTIVE,Missing Documents,Potential,Required,,,,,,,,RIYADH,Zone,,
,,,RID002,,,CS026816,تموينات فهد الدوسرى,,,,,,,2,TUE,24.79301,46.73409,"300,982,357,600,003","1,010,274,558",,2025-04-23,0,,0,500.0000000,ACTIVE,Missing Documents,Potential,Required,,,,,,,,RIYADH,Zone,,
,,,RID002,,,CS026831,شركة دوحة الريف للتجارة,,,,,,,2,THU,24.79293,46.70082,"310,951,383,900,003","1,010,250,836",,2025-04-23,0,,0,500.0000000,ACTIVE,Missing Documents,Potential,Required,,,,,,,,RIYADH,Zone,,
,,,RID002,,,CS026837,مؤسسة روضة الاغذيه للتجارة,,,,,,,2,SAT,24.73750,46.77530,"300,803,062,100,003","1,010,243,089",,2025-04-23,0,,0,500.0000000,ACTIVE,Missing Documents,Potential,Required,,,,,,,,RIYADH,Zone,,
,,,RID002,,,CS026839,تموينات حسين عبدالله صالح الصالح,,,,,,,2,TUE,24.75521,46.77006,,"1,010,242,672",,2025-04-23,0,,0,500.0000000,ACTIVE,Missing Documents,Potential,Required,,,,,,,,RIYADH,Zone,,
,,,RID002,,,CS026842,حيالة البساتين,,,,,,,1,SAT,24.67141,46.81279,"300,353,672,100,003","1,010,236,301",,2025-04-23,0,,0,500.0000000,ACTIVE,Missing Documents,Potential,Required,,,,,,,,RIYADH,Zone,,
,,,RID002,,,CS026855,تموينات عبد الكريم سليمان عبدالكريم الدريبي,,,,,,,2,SAT,24.74220,46.75780,"300,365,991,400,003","1,010,224,159",,2025-04-23,0,,0,500.0000000,ACTIVE,Missing Documents,Potential,Required,,,,,,,,RIYADH,Zone,,
,,,RID002,,,CS026870,تموينات سلمان هادي,,,,,,,2,TUE,24.76305,46.75933,"311,401,308,900,003","1,010,215,092",,2025-04-23,0,,0,500.0000000,ACTIVE,Missing Documents,Potential,Required,,,,,,,,RIYADH,Zone,,
,,,RID002,,,CS026871,تموينات خالد النملة,,,,,,,2,SAT,24.74591,46.78911,"310,016,134,600,003","1,010,213,559",,2025-04-23,0,,0,500.0000000,ACTIVE,Missing Documents,Potential,Required,,,,,,,,RIYADH,Zone,,
,,,RID002,,,CS026884,ماركت سبع ثواني,,,,,,,1,SAT,24.67263,46.81523,"300,808,766,600,003","1,010,203,085",,2025-04-23,0,,0,500.0000000,ACTIVE,Missing Documents,Potential,Required,,,,,,,,RIYADH,Zone,,
,,,RID002,,,CS026886,تموينات هيفاء عبدالله حسن الشمري,,,,,,,2,THU,24.80102,46.74918,"310,859,562,700,003","1,010,202,056",,2025-04-23,0,,0,500.0000000,ACTIVE,Missing Documents,Potential,Required,,,,,,,,RIYADH,Zone,,
,,,RID002,,,CS026891,مجموعة فص لوز للتجارة,,,,,,,1,SAT,24.67738,46.81516,"310,971,385,100,003","1,010,199,833",,2025-04-23,0,,0,500.0000000,ACTIVE,Missing Documents,Potential,Required,,,,,,,,RIYADH,Zone,,
,,,RID002,,,CS026908,بقالة الامين,,,,,,,1,SAT,24.65064,46.81525,"311,253,817,800,003","1,010,181,126",,2025-04-23,0,,0,500.0000000,ACTIVE,Missing Documents,Potential,Required,,,,,,,,RIYADH,Zone,,
,,,RID002,,,CS026910,مركز السلطان,,,,,,,2,SAT,24.74881,46.77769,"311,227,552,300,003","1,010,179,026",,2025-04-23,0,,0,500.0000000,ACTIVE,Missing Documents,Potential,Required,,,,,,,,RIYADH,Zone,,
,,,RID002,,,CS026914,مؤسسة ركن الانجال للتجاره,,,,,,,1,WED,24.72431,46.76047,"300,774,477,700,003","1,010,170,467",,2025-04-23,0,,0,500.0000000,ACTIVE,Missing Documents,Potential,Required,,,,,,,,RIYADH,Zone,,
,,,RID002,,,CS026917,تموينات روز رماح,,,,,,,2,THU,24.76649,46.79481,"300,504,627,900,003","1,010,168,539",,2025-04-23,0,,0,500.0000000,ACTIVE,Missing Documents,Potential,Required,,,,,,,,RIYADH,Zone,,
,,,RID002,,,CS026922,تموينات المعالى,,,,,,,2,MON,24.76302,46.76406,"310,068,733,700,003","1,010,157,990",,2025-04-23,0,,0,500.0000000,ACTIVE,Missing Documents,Potential,Required,,,,,,,,RIYADH,Zone,,
,,,RID002,,,CS026931,تموينات بندر عبد الله ابراهيم العبيد,,,,,,,1,SUN,24.68742,46.79484,"300,040,664,400,003","1,010,152,827",,2025-04-23,0,,0,500.0000000,ACTIVE,Missing Documents,Potential,Required,,,,,,,,RIYADH,Zone,,
,,,RID002,,,CS026933,شركة سله الضاحية التجارية,,,,,,,1,THU,24.73770,46.79520,"311,253,782,500,003","1,010,146,084",,2025-04-23,0,,0,500.0000000,ACTIVE,Missing Documents,Potential,Required,,,,,,,,RIYADH,Zone,,
,,,RID002,,,CS026935,مؤسسه سلطان السفره الزهراني,,,,,,,2,SUN,24.76878,46.75857,"300,400,484,800,003","1,010,144,590",,2025-04-23,0,,0,500.0000000,ACTIVE,Missing Documents,Potential,Required,,,,,,,,RIYADH,Zone,,
,,,RID002,,,CS026936,تموينات طيف النورس,,,,,,,2,WED,24.77561,46.76284,"300,585,367,500,003","1,010,144,358",,2025-04-23,0,,0,500.0000000,ACTIVE,Missing Documents,Potential,Required,,,,,,,,RIYADH,Zone,,
,,,RID002,,,CS026938,تموينات ركن المرسلات,,,,,,,2,TUE,24.77746,46.72593,"300,287,992,200,003","1,010,142,267",,2025-04-23,0,,0,500.0000000,ACTIVE,Missing Documents,Potential,Required,,,,,,,,RIYADH,Zone,,
,,,RID002,,,CS026940,مؤسسة ماجده غزاي مشعان العتيبي للتجارة,,,,,,,1,THU,24.73453,46.77687,"300,841,268,300,003","1,010,140,269",,2025-04-23,0,,0,500.0000000,ACTIVE,Missing Documents,Potential,Required,,,,,,,,RIYADH,Zone,,
,,,RID002,,,CS026962,تموينات محمد عبد الله الراجحي,,,,,,,1,WED,24.70929,46.80484,"300,036,393,800,003","1,010,114,920",,2025-04-23,0,,0,500.0000000,ACTIVE,Missing Documents,Potential,Required,,,,,,,,RIYADH,Zone,,
,,,RID002,,,CS026971,تموينات الوسطي,,,,,,,1,THU,24.74063,46.80964,"300,054,502,500,003","1,010,100,289",,2025-04-23,0,,0,500.0000000,ACTIVE,Missing Documents,Potential,Required,,,,,,,,RIYADH,Zone,,
,,,RID002,,,CS026981,مؤسسه سالم محمد المزروع,,,,,,,1,THU,24.73374,46.77538,"311,483,958,300,003","1,010,081,327",,2025-04-23,0,,0,500.0000000,ACTIVE,Missing Documents,Potential,Required,,,,,,,,RIYADH,Zone,,
,,,RID002,,,CS026988,اسواق وسام سلتي للتموين  2,,,,,,,1,TUE,24.71559,46.78540,"300,270,162,500,003","1,010,073,379",,2025-04-23,0,,0,500.0000000,ACTIVE,Missing Documents,Potential,Required,,,,,,,,RIYADH,Zone,,
,,,RID002,,,CS026989,غرسة  شايع سلمان القحطاني,,,,,,,1,SAT,24.66794,46.80737,"310,276,807,800,003","1,010,072,973",,2025-04-23,0,,0,500.0000000,ACTIVE,Missing Documents,Potential,Required,,,,,,,,RIYADH,Zone,,
,,,RID002,,,CS027004,تموينات فجر المستقبل,,,,,,,1,THU,24.74959,46.76443,"310,183,263,600,003","1,010,037,900",,2025-04-23,0,,0,500.0000000,ACTIVE,Missing Documents,Potential,Required,,,,,,,,RIYADH,Zone,,
,,,RID002,,,CS027030,تموينات ضواحي نجد للمواد الغذائية,,,,,,,2,SUN,24.75669,46.78932,"301,129,712,900,003","1,009,003,282",,2025-04-23,0,,0,500.0000000,ACTIVE,Missing Documents,Potential,Required,,,,,,,,RIYADH,Zone,,
,,الرياض,RID002,,,CS027945,أسواق غصون العوالي للمواد الغذائية,"573,537,673",,,Traditional Trade,Large Grocery,,2,THU,24.55896,46.61930,"311,257,047,700,003","1,010,653,710","470,120,218,314",2025-08-23,0,Credit,0,500.0000000,ACTIVE,Approved by Finance,Agent Registration,Required,2026-02-21,2028-06-10,شارع,نمار,0,00000,0,RIYADH,Zone,,
,,الرياض,RID002,,,CS027986,مؤسسة سعود ردن ماجد الدويش للتجارة,"530,140,983",,,Traditional Trade,Large Grocery,,2,THU,24.55286,46.62596,"311,570,507,200,003","2,057,475,549","440,110,296,387",2025-08-27,0,Credit,0,500.0000000,ACTIVE,Approved by Finance,Agent Registration,Required,2025-02-21,2026-06-26,شارع,العوالي,0,37633,0,RIYADH,Zone,,
,,الرياض,RID002,AG00295,Abdulhakeem  chakkalakunnath,CS028039,تموينات سلطان البركة للمواد الغذائية,"574,845,210",,,Traditional Trade,Large Grocery,,2,MON,24.57339,46.58414,"313,102,512,500,003","7,050,599,344","470,220,483,934",2025-09-06,0,Credit,0,500.0000000,ACTIVE,Approved by Finance,Agent Registration,Required,2026-07-04,2026-07-26,شارع,طويق,0,0000,0,RIYADH,Assignment,,
