Area,Region,City,Zone,AgentId,AgentName,CusId,CusName,BuyerPhone,ReceiverPhone,FinancePhone,CH,SubChannel,F,StartWeeks,Days,Latitude,Longitude,VAT,CR,BL,createdDate,TotalDeliveredOrders,PaymentType,CreditDays,CreditLimit,Status,Validation,CreationType,CheckIn,CRExpiryDate,BLExpiryDate,StreetName,DistrictName,AdditionalNum,ZipCode,BuildingNumber,DC,AssignmentType,Geocode Quality,Full Corrected Address
,,,SKA002,,,CS019114,تموينات سنبلة العزيزية للمواد الغذائية,,,,,,,1,THU,29.94876,40.19407,"311,624,369,600,003","3,400,125,790",,2025-02-24,0,,0,500.0000000,ACTIVE,Missing Documents,Potential,Required,,,,,,,,SAKAKA,Zone,,
,,,SKA002,,,CS019132,تموينات جوهرة ريماس,,,,,,,1,MON,29.79533,39.87162,"311,144,829,500,003","441,212,623,299",,2025-02-24,0,,0,500.0000000,ACTIVE,Missing Documents,Potential,Required,,,,,,,,SAKAKA,Zone,,
,,,SKA002,,,CS019133,اسواق عبدالهادي عواد صبيح الشراري,,,,,,,1,SUN,29.79969,39.86208,"310,310,647,900,003","39,111,488,172",,2025-02-24,0,,0,500.0000000,ACTIVE,Missing Documents,Potential,Required,,,,,,,,SAKAKA,Zone,,
,,,SKA002,,,CS020361,2فنجان الكيف,,,,,,,2,MON,29.95938,40.21426,0,"3,400,118,352",,2025-02-24,0,,0,500.0000000,ACTIVE,Missing Documents,Potential,Required,,,,,,,,SAKAKA,Zone,,
,,,SKA002,,,CS020366,اسواق الجود للمواد الغذائية,,,,,,,1,MON,29.99238,40.14284,"311,414,502,900,003","1,009,753,631",,2025-02-24,0,,0,500.0000000,ACTIVE,Missing Documents,Potential,Required,,,,,,,,SAKAKA,Zone,,
,,,SKA002,,,CS020367,اسواق الحمود,,,,,,,1,THU,29.99350,40.22171,"301,177,275,800,003","3,011,772,758",,2025-02-24,0,,0,500.0000000,ACTIVE,Missing Documents,Potential,Required,,,,,,,,SAKAKA,Zone,,
,,,SKA002,,,CS020371,اسواق الشامل,,,,,,,1,SUN,29.79906,39.85969,"300,916,767,500,003","3,452,005,993",,2025-02-24,0,,0,500.0000000,ACTIVE,Missing Documents,Potential,Required,,,,,,,,SAKAKA,Zone,,
,,,SKA002,,,CS020372,اسواق الشايع,,,,,,,2,TUE,30.15379,40.26627,"300,654,963,400,003","4,011,249,299",,2025-02-24,0,,0,500.0000000,ACTIVE,Missing Documents,Potential,Required,,,,,,,,SAKAKA,Zone,,
,,,SKA002,,,CS020376,اسواق المهباش,,,,,,,2,TUE,30.16894,40.29560,"301,224,762,100,003","3,012,247,621",,2025-02-24,0,,0,500.0000000,ACTIVE,Missing Documents,Potential,Required,,,,,,,,SAKAKA,Zone,,
,,,SKA002,,,CS020379,اسواق بدر عبد الاله عيد المعتق,,,,,,,2,WED,29.99084,40.21256,,"1,024,715,441",,2025-02-24,0,,0,500.0000000,ACTIVE,Missing Documents,Potential,Required,,,,,,,,SAKAKA,Zone,,
,,,SKA002,,,CS020385,اسواق حي حارتنا,,,,,,,2,THU,29.88662,40.22694,"301,234,092,300,003","440,611,343,378",,2025-02-24,0,,0,500.0000000,ACTIVE,Missing Documents,Potential,Required,,,,,,,,SAKAKA,Zone,,
,,,SKA002,,,CS020386,اسواق دوار المبخرة,,,,,,,2,TUE,30.03169,40.22074,"311,535,619,400,003","3,401,102,349",,2025-02-24,0,,0,500.0000000,ACTIVE,Missing Documents,Potential,Required,,,,,,,,SAKAKA,Zone,,
,,,SKA002,,,CS020387,اسواق ذوق الخيال,,,,,,,1,TUE,29.85502,40.21775,"311,292,386,100,003","1,131,333,416",,2025-02-24,0,,0,500.0000000,ACTIVE,Missing Documents,Potential,Required,,,,,,,,SAKAKA,Zone,,
,,,SKA002,,,CS020391,اسواق ريف بيسان,,,,,,,2,THU,29.92949,40.21180,"302,117,009,800,003","3,021,170,098",,2025-02-24,0,,0,500.0000000,ACTIVE,Missing Documents,Potential,Required,,,,,,,,SAKAKA,Zone,,
,,,SKA002,,,CS020392,اسواق ريف قارا,,,,,,,1,MON,29.83908,40.18337,,"1,074,580,802",,2025-02-24,0,,0,500.0000000,ACTIVE,Missing Documents,Potential,Required,,,,,,,,SAKAKA,Zone,,
,,,SKA002,,,CS020394,اسواق سله راف التجاريه,,,,,,,2,THU,29.96766,40.27947,"310,859,446,200,003","450,814,869,446",,2025-02-24,0,,0,500.0000000,ACTIVE,Missing Documents,Potential,Required,,,,,,,,SAKAKA,Zone,,
,,,SKA002,,,CS020396,اسواق صالح ابراهيم محمد الدخيل,,,,,,,2,SAT,29.96097,40.20853,"310,483,604,700,003","441,012,098,854",,2025-02-24,0,,0,500.0000000,ACTIVE,Missing Documents,Potential,Required,,,,,,,,SAKAKA,Zone,,
,,,SKA002,,,CS020397,اسواق صفراء الغدير,,,,,,,1,SUN,29.82495,39.85981,"311,232,717,700,003","440,611,241,748",,2025-02-24,0,,0,500.0000000,ACTIVE,Missing Documents,Potential,Required,,,,,,,,SAKAKA,Zone,,
,,,SKA002,,,CS020400,اسواق قنديل,,,,,,,1,THU,29.96425,40.20330,,"702,524,273",,2025-02-24,0,,0,500.0000000,ACTIVE,Missing Documents,Potential,Required,,,,,,,,SAKAKA,Zone,,
,,,SKA002,,,CS020404,اسواق محمد عبد الله العرسان,,,,,,,1,TUE,29.94953,40.18342,"310,472,437,800,003","440,811,819,373",,2025-02-24,0,,0,500.0000000,ACTIVE,Missing Documents,Potential,Required,,,,,,,,SAKAKA,Zone,,
,,,SKA002,,,CS020406,اسواق منابع الاخلاص,,,,,,,2,WED,29.97155,40.20068,"300,943,765,700,003","7,014,438,324",,2025-02-24,0,,0,500.0000000,ACTIVE,Missing Documents,Potential,Required,,,,,,,,SAKAKA,Zone,,
,,,SKA002,,,CS020409,اسواق نسمة الشمال اثنين,,,,,,,2,MON,29.94731,40.20371,"311,265,532,900,003","7,017,798,583",,2025-02-24,0,,0,500.0000000,ACTIVE,Missing Documents,Potential,Required,,,,,,,,SAKAKA,Zone,,
,,,SKA002,,,CS020415,اسواق وسم الشمال المركزية,,,,,,,2,TUE,30.16739,40.29405,"311,637,634,600,003","441,112,231,920",,2025-02-24,0,,0,500.0000000,ACTIVE,Missing Documents,Potential,Required,,,,,,,,SAKAKA,Zone,,
,,,SKA002,,,CS020428,الفرسان اللقائط,,,,,,,2,THU,29.97556,40.26529,"302,274,674,600,003","3,910,687,133",,2025-02-24,0,,0,500.0000000,ACTIVE,Missing Documents,Potential,Required,,,,,,,,SAKAKA,Zone,,
,,,SKA002,,,CS020432,أسواق الحمد,,,,,,,2,SUN,29.93560,40.20566,"300,885,305,400,003","3,400,012,303",,2025-02-24,0,,0,500.0000000,ACTIVE,Missing Documents,Potential,Required,,,,,,,,SAKAKA,Zone,,
,,,SKA002,,,CS020433,أسواق الريم الدومه,,,,,,,1,MON,29.79076,39.87419,"300,717,783,100,003","7,015,929,529",,2025-02-24,0,,0,500.0000000,ACTIVE,Missing Documents,Potential,Required,,,,,,,,SAKAKA,Zone,,
,,,SKA002,,,CS020434,أسواق الريم الرديفه,,,,,,,1,SAT,29.81416,39.63919,"300,717,783,100,003","3,401,100,912",,2025-02-24,0,,0,500.0000000,ACTIVE,Missing Documents,Potential,Required,,,,,,,,SAKAKA,Zone,,
,,,SKA002,,,CS020438,أسواق المبخرة 1,,,,,,,1,SAT,29.86706,39.34232,"311,535,619,400,003","3,400,125,316",,2025-02-24,0,,0,500.0000000,ACTIVE,Missing Documents,Potential,Required,,,,,,,,SAKAKA,Zone,,
,,,SKA002,,,CS020439,أسواق الهادي للمواد الغذائية,,,,,,,2,SAT,29.93760,40.19077,"310,136,673,100,003","1,054,530,330",,2025-02-24,0,,0,500.0000000,ACTIVE,Missing Documents,Potential,Required,,,,,,,,SAKAKA,Zone,,
,,,SKA002,,,CS020443,أسواق توفير الشمال,,,,,,,1,SUN,29.83817,39.85135,"310,082,251,800,003","3,401,102,419",,2025-02-24,0,,0,500.0000000,ACTIVE,Missing Documents,Potential,Required,,,,,,,,SAKAKA,Zone,,
,,,SKA002,,,CS020453,بقالة ابداع الشمال,,,,,,,2,WED,29.97997,40.20584,"310,256,882,600,003","3,910,687,280",,2025-02-24,0,,0,500.0000000,ACTIVE,Missing Documents,Potential,Required,,,,,,,,SAKAKA,Zone,,
,,,SKA002,,,CS020454,بقالة ابراهيم ماجد عساف السرحاني للمواد الغذائية,,,,,,,2,MON,29.93212,40.19663,"310,376,731,700,003","41,113,614,520",,2025-02-24,0,,0,500.0000000,ACTIVE,Missing Documents,Potential,Required,,,,,,,,SAKAKA,Zone,,
,,,SKA002,,,CS020457,بقالة البدر,,,,,,,2,THU,29.95796,40.27231,"310,939,582,800,003","40,112,497,119",,2025-02-24,0,,0,500.0000000,ACTIVE,Missing Documents,Potential,Required,,,,,,,,SAKAKA,Zone,,
,,,SKA002,,,CS020458,بقالة الخالدية,,,,,,,1,SAT,29.90393,39.29363,"310,110,744,100,003","440,410,876,322",,2025-02-24,0,,0,500.0000000,ACTIVE,Missing Documents,Potential,Required,,,,,,,,SAKAKA,Zone,,
,,,SKA002,,,CS020465,بقالة جمانة,,,,,,,2,SAT,29.95358,40.20598,"300,046,652,300,003","41,093,530,339",,2025-02-24,0,,0,500.0000000,ACTIVE,Missing Documents,Potential,Required,,,,,,,,SAKAKA,Zone,,
,,,SKA002,,,CS020468,بقالة حمده مرمي ثاني الفهيقي,,,,,,,2,SAT,29.94436,40.19746,"310,082,233,400,003","3,910,681,565",,2025-02-24,0,,0,500.0000000,ACTIVE,Missing Documents,Potential,Required,,,,,,,,SAKAKA,Zone,,
,,,SKA002,,,CS020471,بقالة رهاف بدر كساب الضبعان للمواد الغذائية,,,,,,,2,MON,29.99440,40.23948,"310,932,816,800,003","3,109,328,168",,2025-02-24,0,,0,500.0000000,ACTIVE,Missing Documents,Potential,Required,,,,,,,,SAKAKA,Zone,,
,,,SKA002,,,CS020482,بقالة عبير حمود هلهول الصقر,,,,,,,1,SUN,29.80782,39.85470,"310,698,116,300,003","39,111,489,093",,2025-02-24,0,,0,500.0000000,ACTIVE,Missing Documents,Potential,Required,,,,,,,,SAKAKA,Zone,,
,,,SKA002,,,CS020484,بقالة ليزا,,,,,,,1,MON,29.80795,39.86586,,"1,028,912,671",,2025-02-24,0,,0,500.0000000,ACTIVE,Missing Documents,Potential,Required,,,,,,,,SAKAKA,Zone,,
,,,SKA002,,,CS020485,بقالة مبخوت محمد البريكي,,,,,,,2,TUE,30.15368,40.26631,"300,654,963,400,003","3,910,696,985",,2025-02-24,0,,0,500.0000000,ACTIVE,Missing Documents,Potential,Required,,,,,,,,SAKAKA,Zone,,
,,,SKA002,,,CS020490,بقالة موضي فرحان العنزي,,,,,,,2,TUE,30.13044,40.37387,"310,272,327,100,003","3,910,695,537",,2025-02-24,0,,0,500.0000000,ACTIVE,Missing Documents,Potential,Required,,,,,,,,SAKAKA,Zone,,
,,,SKA002,,,CS020496,بقالة هيام الريم,,,,,,,1,MON,29.85273,40.20289,"310,041,871,900,003","41,113,600,545",,2025-02-24,0,,0,500.0000000,ACTIVE,Missing Documents,Potential,Required,,,,,,,,SAKAKA,Zone,,
,,,SKA002,,,CS020497,بقالة وعد بدر منور العنزي التجارية,,,,,,,2,SAT,29.96543,40.21477,"310,890,224,700,003","440,511,197,196",,2025-02-24,0,,0,500.0000000,ACTIVE,Missing Documents,Potential,Required,,,,,,,,SAKAKA,Zone,,
,,,SKA002,,,CS020503,بقاله دارك,,,,,,,2,MON,29.94321,40.20271,"310,584,095,800,003","43,036,475,131",,2025-02-24,0,,0,500.0000000,ACTIVE,Missing Documents,Potential,Required,,,,,,,,SAKAKA,Zone,,
,,,SKA002,,,CS020505,بقاله منيرة,,,,,,,2,THU,29.89430,40.21342,"311,351,852,600,003","39,111,489,402",,2025-02-24,0,,0,500.0000000,ACTIVE,Missing Documents,Potential,Required,,,,,,,,SAKAKA,Zone,,
,,,SKA002,,,CS020506,بقاله هيام الريم2 للمواد الغذائيه,,,,,,,1,TUE,29.90432,40.20059,"310,041,871,900,003","3,910,689,127",,2025-02-24,0,,0,500.0000000,ACTIVE,Missing Documents,Potential,Required,,,,,,,,SAKAKA,Zone,,
,,,SKA002,,,CS020507,بقاله وتموينات غذائية,,,,,,,2,TUE,30.13095,40.37276,"310,992,487,600,003","3,910,696,045",,2025-02-24,0,,0,500.0000000,ACTIVE,Missing Documents,Potential,Required,,,,,,,,SAKAKA,Zone,,
,,,SKA002,,,CS020513,تموينات ابراج للمواد الغذائية,,,,,,,1,SAT,29.82099,38.92183,"302,187,453,300,003","1,089,190,365",,2025-02-24,0,,0,500.0000000,ACTIVE,Missing Documents,Potential,Required,,,,,,,,SAKAKA,Zone,,
,,,SKA002,,,CS020515,تموينات اجدا للمواد الغذائية,,,,,,,2,SUN,29.93558,40.20442,"311,078,280,200,003","3,912,153,209",,2025-02-24,0,,0,500.0000000,ACTIVE,Missing Documents,Potential,Required,,,,,,,,SAKAKA,Zone,,
,,,SKA002,,,CS020519,تموينات اشوق الجوغ للمواد الغذائية,,,,,,,2,THU,29.91762,40.20252,"310,891,824,400,003","3,910,691,475",,2025-02-24,0,,0,500.0000000,ACTIVE,Missing Documents,Potential,Required,,,,,,,,SAKAKA,Zone,,
,,,SKA002,,,CS020523,تموينات اكرم للمواد الغذائية,,,,,,,2,TUE,30.05566,40.34536,"311,971,894,200,003","3,910,687,133",,2025-02-24,0,,0,500.0000000,ACTIVE,Missing Documents,Potential,Required,,,,,,,,SAKAKA,Zone,,
,,,SKA002,,,CS020527,تموينات الاحبه للمواد الغذائيه,,,,,,,2,THU,29.90000,40.22768,"310,824,027,300,003","42,105,709,111",,2025-02-24,0,,0,500.0000000,ACTIVE,Missing Documents,Potential,Required,,,,,,,,SAKAKA,Zone,,
,,,SKA002,,,CS020531,تموينات الامل للمواد الغذائية,,,,,,,2,WED,29.97457,40.19975,"310,990,499,800,003","43,016,057,961",,2025-02-24,0,,0,500.0000000,ACTIVE,Missing Documents,Potential,Required,,,,,,,,SAKAKA,Zone,,
,,,SKA002,,,CS020532,تموينات البادي,,,,,,,1,MON,29.80871,39.86683,"300,809,356,900,003","3,401,006,781",,2025-02-24,0,,0,500.0000000,ACTIVE,Missing Documents,Potential,Required,,,,,,,,SAKAKA,Zone,,
,,,SKA002,,,CS020533,تموينات الباسل,,,,,,,2,MON,29.97973,40.23661,"311,121,550,500,003","3,910,736,146",,2025-02-24,0,,0,500.0000000,ACTIVE,Missing Documents,Potential,Required,,,,,,,,SAKAKA,Zone,,
,,,SKA002,,,CS020534,تموينات البرج,,,,,,,2,SAT,29.94954,40.19547,"310,045,691,900,003","3,910,695,574",,2025-02-24,0,,0,500.0000000,ACTIVE,Missing Documents,Potential,Required,,,,,,,,SAKAKA,Zone,,
,,,SKA002,,,CS020535,تموينات البركة,,,,,,,1,SAT,29.81592,38.91786,"311,462,872,900,003","1,086,938,816",,2025-02-24,0,,0,500.0000000,ACTIVE,Missing Documents,Potential,Required,,,,,,,,SAKAKA,Zone,,
,,,SKA002,,,CS020540,تموينات التاج,,,,,,,1,SAT,29.89218,39.30470,"310,110,276,300,003","431,210,256,666",,2025-02-24,0,,0,500.0000000,ACTIVE,Missing Documents,Potential,Required,,,,,,,,SAKAKA,Zone,,
,,,SKA002,,,CS020542,تموينات الجباية للمواد الغذائية,,,,,,,2,TUE,30.01894,40.24099,"311,366,050,800,003","41,083,508,565",,2025-02-24,0,,0,500.0000000,ACTIVE,Missing Documents,Potential,Required,,,,,,,,SAKAKA,Zone,,
,,,SKA002,,,CS020546,تموينات الجوهرة,,,,,,,1,MON,29.85667,40.20910,"310,621,322,700,003","4,401,104,121",,2025-02-24,0,,0,500.0000000,ACTIVE,Missing Documents,Potential,Required,,,,,,,,SAKAKA,Zone,,
,,,SKA002,,,CS020547,تموينات الحبوب,,,,,,,1,MON,29.80817,39.86818,"300,809,356,900,003","1,028,912,671",,2025-02-24,0,,0,500.0000000,ACTIVE,Missing Documents,Potential,Required,,,,,,,,SAKAKA,Zone,,
,,,SKA002,,,CS020548,تموينات الحرمين,,,,,,,1,SUN,29.83213,39.85389,"302,037,640,100,003","3,401,100,333",,2025-02-24,0,,0,500.0000000,ACTIVE,Missing Documents,Potential,Required,,,,,,,,SAKAKA,Zone,,
,,,SKA002,,,CS020549,تموينات الحزم للمواد الغذائية,,,,,,,1,WED,29.98255,40.19189,"310,245,637,400,003","7,004,884,602",,2025-02-24,0,,0,500.0000000,ACTIVE,Missing Documents,Potential,Required,,,,,,,,SAKAKA,Zone,,
,,,SKA002,,,CS020550,تموينات الحسام,,,,,,,2,TUE,30.11194,40.38709,"310,440,094,900,003","3,400,103,744",,2025-02-24,0,,0,500.0000000,ACTIVE,Missing Documents,Potential,Required,,,,,,,,SAKAKA,Zone,,
,,,SKA002,,,CS020555,تموينات الخدمه المستمرة للمواد الغذائية,,,,,,,1,TUE,29.87441,40.22004,"310,322,405,200,003","440,611,345,178",,2025-02-24,0,,0,500.0000000,ACTIVE,Missing Documents,Potential,Required,,,,,,,,SAKAKA,Zone,,
,,,SKA002,,,CS020556,تموينات الخدمه المستمره,,,,,,,2,THU,29.89120,40.21524,,"1,027,827,813",,2025-02-24,0,,0,500.0000000,ACTIVE,Missing Documents,Potential,Required,,,,,,,,SAKAKA,Zone,,
,,,SKA002,,,CS020559,تموينات الخير والزاد,,,,,,,2,WED,30.00592,40.22586,"311,621,152,300,003","7,034,897,848",,2025-02-24,0,,0,500.0000000,ACTIVE,Missing Documents,Potential,Required,,,,,,,,SAKAKA,Zone,,
,,,SKA002,,,CS020560,تموينات الدحلان,,,,,,,1,MON,29.79762,39.87439,,"1,093,071,569",,2025-02-24,0,,0,500.0000000,ACTIVE,Missing Documents,Potential,Required,,,,,,,,SAKAKA,Zone,,
,,,SKA002,,,CS020563,تموينات الدوحة,,,,,,,1,SAT,29.82432,39.59767,"310,233,529,500,003","43,089,547,171",,2025-02-24,0,,0,500.0000000,ACTIVE,Missing Documents,Potential,Required,,,,,,,,SAKAKA,Zone,,
,,,SKA002,,,CS020564,تموينات الذاهية,,,,,,,2,SUN,29.99908,40.25503,"300,899,253,500,003","1,036,978,151",,2025-02-24,0,,0,500.0000000,ACTIVE,Missing Documents,Potential,Required,,,,,,,,SAKAKA,Zone,,
,,,SKA002,,,CS020566,تموينات الرديفة,,,,,,,1,SAT,29.80840,39.68338,"310,098,067,500,003","39,111,154,383",,2025-02-24,0,,0,500.0000000,ACTIVE,Missing Documents,Potential,Required,,,,,,,,SAKAKA,Zone,,
,,,SKA002,,,CS020575,تموينات السفار,,,,,,,1,TUE,29.86283,40.21548,"300,966,176,500,003","1,021,641,707",,2025-02-24,0,,0,500.0000000,ACTIVE,Missing Documents,Potential,Required,,,,,,,,SAKAKA,Zone,,
,,,SKA002,,,CS020581,تموينات الشامل,,,,,,,2,THU,29.88536,40.24113,"310,920,045,400,003","7,023,245,025",,2025-02-24,0,,0,500.0000000,ACTIVE,Missing Documents,Potential,Required,,,,,,,,SAKAKA,Zone,,
,,,SKA002,,,CS020585,تموينات الضحيان الرويلي,,,,,,,2,MON,29.93369,40.19300,"301,239,565,700,003","3,910,681,427",,2025-02-24,0,,0,500.0000000,ACTIVE,Missing Documents,Potential,Required,,,,,,,,SAKAKA,Zone,,
,,,SKA002,,,CS020587,تموينات الظهرة,,,,,,,1,SUN,29.81187,39.86062,,"1,013,165,400",,2025-02-24,0,,0,500.0000000,ACTIVE,Missing Documents,Potential,Required,,,,,,,,SAKAKA,Zone,,
,,,SKA002,,,CS020588,تموينات العايد,,,,,,,1,TUE,29.81412,40.23630,"310,090,776,900,003","3,100,907,769",,2025-02-24,0,,0,500.0000000,ACTIVE,Missing Documents,Potential,Required,,,,,,,,SAKAKA,Zone,,
,,,SKA002,,,CS020589,تموينات العذريه للمواد الغذائيه,,,,,,,1,WED,30.01256,40.18682,"311,085,345,200,003","3,110,853,452",,2025-02-24,0,,0,500.0000000,ACTIVE,Missing Documents,Potential,Required,,,,,,,,SAKAKA,Zone,,
,,,SKA002,,,CS020591,تموينات العقيل,,,,,,,1,SUN,29.80444,39.85677,"300,475,715,700,003","3,400,101,787",,2025-02-24,0,,0,500.0000000,ACTIVE,Missing Documents,Potential,Required,,,,,,,,SAKAKA,Zone,,
,,,SKA002,,,CS020593,تموينات العنود سلطان عذال الدرعان للمواد الغذائيه,,,,,,,2,SUN,29.97827,40.25169,"311,066,076,100,003","440,310,786,987",,2025-02-24,0,,0,500.0000000,ACTIVE,Missing Documents,Potential,Required,,,,,,,,SAKAKA,Zone,,
,,,SKA002,,,CS020597,تموينات الفيصلية,,,,,,,1,TUE,29.93142,40.18830,"311,608,400,900,003","3,400,018,943",,2025-02-24,0,,0,500.0000000,ACTIVE,Missing Documents,Potential,Required,,,,,,,,SAKAKA,Zone,,
,,,SKA002,,,CS020601,تموينات القائد,,,,,,,1,WED,29.99011,40.16434,"311,302,617,200,003","3,113,026,172",,2025-02-24,0,,0,500.0000000,ACTIVE,Missing Documents,Potential,Required,,,,,,,,SAKAKA,Zone,,
,,,SKA002,,,CS020605,تموينات الكادي,,,,,,,2,MON,29.95008,40.21155,"310,858,833,700,003","43,059,038,586",,2025-02-24,0,,0,500.0000000,ACTIVE,Missing Documents,Potential,Required,,,,,,,,SAKAKA,Zone,,
,,,SKA002,,,CS020606,تموينات الكوثر,,,,,,,1,WED,29.99485,40.20902,"310,268,425,600,003","3,910,664,163",,2025-02-24,0,,0,500.0000000,ACTIVE,Missing Documents,Potential,Required,,,,,,,,SAKAKA,Zone,,
,,,SKA002,,,CS020607,تموينات اللقائط,,,,,,,2,MON,29.99730,40.24118,"301,206,088,200,003","3,911,148,799",,2025-02-24,0,,0,500.0000000,ACTIVE,Missing Documents,Potential,Required,,,,,,,,SAKAKA,Zone,,
,,,SKA002,,,CS020608,تموينات الماجد,,,,,,,2,THU,29.88718,40.22388,,"70,717,069,837",,2025-02-24,0,,0,500.0000000,ACTIVE,Missing Documents,Potential,Required,,,,,,,,SAKAKA,Zone,,
,,,SKA002,,,CS020609,تموينات الماجد,,,,,,,1,WED,29.98254,40.17821,"310,046,048,100,003","7,017,069,837",,2025-02-24,0,,0,500.0000000,ACTIVE,Missing Documents,Potential,Required,,,,,,,,SAKAKA,Zone,,
,,,SKA002,,,CS020610,تموينات الماجد,,,,,,,1,WED,29.97907,40.18529,"310,077,522,500,003","1,088,171,937",,2025-02-24,0,,0,500.0000000,ACTIVE,Missing Documents,Potential,Required,,,,,,,,SAKAKA,Zone,,
,,,SKA002,,,CS020612,تموينات المجد للمواد الغذائية,,,,,,,1,SUN,29.80779,39.85164,"310,127,301,300,003","40,122,535,287",,2025-02-24,0,,0,500.0000000,ACTIVE,Missing Documents,Potential,Required,,,,,,,,SAKAKA,Zone,,
,,,SKA002,,,CS020613,تموينات المدار,,,,,,,1,TUE,29.93496,40.18983,"310,892,498,300,003","3,108,924,983",,2025-02-24,0,,0,500.0000000,ACTIVE,Missing Documents,Potential,Required,,,,,,,,SAKAKA,Zone,,
,,,SKA002,,,CS020615,تموينات المركزي الغذائيه,,,,,,,1,TUE,29.87100,40.20975,"310,548,460,700,003","43,109,876,281",,2025-02-24,0,,0,500.0000000,ACTIVE,Missing Documents,Potential,Required,,,,,,,,SAKAKA,Zone,,
,,,SKA002,,,CS020616,تموينات المزارع,,,,,,,1,WED,30.00544,40.20309,"300,879,111,900,003","3,911,148,834",,2025-02-24,0,,0,500.0000000,ACTIVE,Missing Documents,Potential,Required,,,,,,,,SAKAKA,Zone,,
,,,SKA002,,,CS020618,تموينات المقداع,,,,,,,1,SUN,29.80642,39.86009,"302,011,717,700,003","340,101,433",,2025-02-24,0,,0,500.0000000,ACTIVE,Missing Documents,Potential,Required,,,,,,,,SAKAKA,Zone,,
,,,SKA002,,,CS020620,تموينات الملعب,,,,,,,1,SAT,29.82923,39.57546,"310,212,696,200,003","39,121,565,789",,2025-02-24,0,,0,500.0000000,ACTIVE,Missing Documents,Potential,Required,,,,,,,,SAKAKA,Zone,,
,,,SKA002,,,CS020622,تموينات المنتزه,,,,,,,1,SUN,29.80283,39.85485,"310,110,224,200,003","41,032,593,962",,2025-02-24,0,,0,500.0000000,ACTIVE,Missing Documents,Potential,Required,,,,,,,,SAKAKA,Zone,,
,,,SKA002,,,CS020623,تموينات المهرجان,,,,,,,1,SAT,29.80896,39.69062,,"3,406,008,101",,2025-02-24,0,,0,500.0000000,ACTIVE,Missing Documents,Potential,Required,,,,,,,,SAKAKA,Zone,,
,,,SKA002,,,CS020625,تموينات النجمة والبدر للمواد الغذائية,,,,,,,2,SAT,29.95529,40.20671,"310,183,813,200,003","39,111,490,207",,2025-02-24,0,,0,500.0000000,ACTIVE,Missing Documents,Potential,Required,,,,,,,,SAKAKA,Zone,,
,,,SKA002,,,CS020627,تموينات النمرة للمواد الغذائيه,,,,,,,2,TUE,30.06127,40.23089,"311,066,770,400,003","3,400,122,294",,2025-02-24,0,,0,500.0000000,ACTIVE,Missing Documents,Potential,Required,,,,,,,,SAKAKA,Zone,,
,,,SKA002,,,CS020632,تموينات اليمامة,,,,,,,1,SUN,29.80065,39.84976,,"1,019,502,721",,2025-02-24,0,,0,500.0000000,ACTIVE,Missing Documents,Potential,Required,,,,,,,,SAKAKA,Zone,,
,,,SKA002,,,CS020634,تموينات امل الفيصليه للمواد الغذائيه,,,,,,,1,TUE,29.92595,40.18756,"310,635,889,200,003","4,408,117,122",,2025-02-24,0,,0,500.0000000,ACTIVE,Missing Documents,Potential,Required,,,,,,,,SAKAKA,Zone,,
,,,SKA002,,,CS020636,تموينات اميرة عطية الغامدي,,,,,,,1,THU,29.95277,40.19300,,"1,001,819,430",,2025-02-24,0,,0,500.0000000,ACTIVE,Missing Documents,Potential,Required,,,,,,,,SAKAKA,Zone,,
,,,SKA002,,,CS020640,تموينات أسماء رخي حمدان العرجان للمواد الغذائية,,,,,,,1,TUE,29.85674,40.21575,"311,260,183,900,003","40,021,693,106",,2025-02-24,0,,0,500.0000000,ACTIVE,Missing Documents,Potential,Required,,,,,,,,SAKAKA,Zone,,
,,,SKA002,,,CS020641,تموينات أماني خاتم نمر الرويلي للمواد الغذائية,,,,,,,2,TUE,30.16789,40.29474,"311,678,098,100,003","3,400,116,443",,2025-02-24,0,,0,500.0000000,ACTIVE,Missing Documents,Potential,Required,,,,,,,,SAKAKA,Zone,,
,,,SKA002,,,CS020642,تموينات أمينه شايم باصان الرويلي للمواد الغذائية,,,,,,,2,THU,29.92225,40.22614,"310,329,747,700,003","43,079,320,280",,2025-02-24,0,,0,500.0000000,ACTIVE,Missing Documents,Potential,Required,,,,,,,,SAKAKA,Zone,,
,,,SKA002,,,CS020645,تموينات بدرية محمد سالم العلي,,,,,,,2,SAT,29.98745,40.23107,"310,115,219,100,003","3,910,693,527",,2025-02-24,0,,0,500.0000000,ACTIVE,Missing Documents,Potential,Required,,,,,,,,SAKAKA,Zone,,
,,,SKA002,,,CS020650,تموينات بركه و سعاده,,,,,,,1,SUN,29.80126,39.85527,"310,389,318,900,003","3,401,102,337",,2025-02-24,0,,0,500.0000000,ACTIVE,Missing Documents,Potential,Required,,,,,,,,SAKAKA,Zone,,
,,,SKA002,,,CS020651,تموينات بسام عوده محمد الشمري للمواد الغذائية,,,,,,,2,MON,29.95535,40.21177,"310,892,920,900,003","3,400,125,546",,2025-02-24,0,,0,500.0000000,ACTIVE,Missing Documents,Potential,Required,,,,,,,,SAKAKA,Zone,,
,,,SKA002,,,CS020654,تموينات بيت المهند,,,,,,,2,SUN,29.99226,40.24924,"300,887,507,100,003","3,910,690,555",,2025-02-24,0,,0,500.0000000,ACTIVE,Missing Documents,Potential,Required,,,,,,,,SAKAKA,Zone,,
,,,SKA002,,,CS020656,تموينات تمام عقيل نازل العرجان,,,,,,,1,SUN,29.82654,39.85779,"310,651,689,200,003","7,017,580,411",,2025-02-24,0,,0,500.0000000,ACTIVE,Missing Documents,Potential,Required,,,,,,,,SAKAKA,Zone,,
,,,SKA002,,,CS020657,تموينات تميز البركة,,,,,,,2,TUE,30.06189,40.31994,"311,319,873,900,003","41,042,625,152",,2025-02-24,0,,0,500.0000000,ACTIVE,Missing Documents,Potential,Required,,,,,,,,SAKAKA,Zone,,
,,,SKA002,,,CS020658,تموينات تهاني,,,,,,,1,MON,29.92222,40.18370,,"1,067,087,203",,2025-02-24,0,,0,500.0000000,ACTIVE,Missing Documents,Potential,Required,,,,,,,,SAKAKA,Zone,,
,,,SKA002,,,CS020659,تموينات تهاني الأشعل مرجي الفهيقي للمواد الغذائية,,,,,,,1,MON,29.90715,40.16819,"310,215,516,200,003","41,042,620,766",,2025-02-24,0,,0,500.0000000,ACTIVE,Missing Documents,Potential,Required,,,,,,,,SAKAKA,Zone,,
,,,SKA002,,,CS020661,تموينات ثامر كاسب الفهيقي,,,,,,,2,TUE,30.28160,40.29900,"310,077,522,500,003","420,854,712,156",,2025-02-24,0,,0,500.0000000,ACTIVE,Missing Documents,Potential,Required,,,,,,,,SAKAKA,Zone,,
,,,SKA002,,,CS020662,تموينات ثامر كاسب للمواد الغذائيه,,,,,,,1,WED,29.97898,40.18521,"310,077,522,500,003","41,073,478,212",,2025-02-24,0,,0,500.0000000,ACTIVE,Missing Documents,Potential,Required,,,,,,,,SAKAKA,Zone,,
,,,SKA002,,,CS020667,تموينات جودات الخير,,,,,,,2,MON,29.95522,40.21179,"310,892,920,900,003","3,400,122,749",,2025-02-24,0,,0,500.0000000,ACTIVE,Missing Documents,Potential,Required,,,,,,,,SAKAKA,Zone,,
,,,SKA002,,,CS020668,تموينات جوف توفير للموادالغذائية,,,,,,,2,THU,29.91633,40.20978,"310,892,920,900,003","3,400,122,749",,2025-02-24,0,,0,500.0000000,ACTIVE,Missing Documents,Potential,Required,,,,,,,,SAKAKA,Zone,,
,,,SKA002,,,CS020669,تموينات جوف توفير للموادالغذائية,,,,,,,1,WED,29.97880,40.18329,"310,892,920,900,003","3,400,122,749",,2025-02-24,0,,0,500.0000000,ACTIVE,Missing Documents,Potential,Required,,,,,,,,SAKAKA,Zone,,
,,,SKA002,,,CS020670,تموينات جوفو التوفير 3,,,,,,,1,WED,30.00534,40.19178,"310,892,920,900,003","440,210,435,768",,2025-02-24,0,,0,500.0000000,ACTIVE,Missing Documents,Potential,Required,,,,,,,,SAKAKA,Zone,,
,,,SKA002,,,CS020672,تموينات جوهرة الزاوية للمواد الغذائية,,,,,,,2,MON,29.96606,40.22319,,"1,128,776,935",,2025-02-24,0,,0,500.0000000,ACTIVE,Missing Documents,Potential,Required,,,,,,,,SAKAKA,Zone,,
,,,SKA002,,,CS020674,تموينات جوهرة ريماس,,,,,,,2,MON,29.93462,40.19873,"311,144,829,500,003","441,212,623,299",,2025-02-24,0,,0,500.0000000,ACTIVE,Missing Documents,Potential,Required,,,,,,,,SAKAKA,Zone,,
,,,SKA002,,,CS020675,تموينات جوهره الربوه للمواد الغذائيه,,,,,,,1,SUN,29.80837,39.85952,"311,187,968,300,003","40,072,075,833",,2025-02-24,0,,0,500.0000000,ACTIVE,Missing Documents,Potential,Required,,,,,,,,SAKAKA,Zone,,
,,,SKA002,,,CS020679,تموينات حمد أحمد سليم الوديعه للمواد الغذائية,,,,,,,2,SAT,29.94648,40.20090,"310,187,737,900,003","3,910,691,145",,2025-02-24,0,,0,500.0000000,ACTIVE,Missing Documents,Potential,Required,,,,,,,,SAKAKA,Zone,,
,,,SKA002,,,CS020680,تموينات حمود عذال الرويلي,,,,,,,2,TUE,30.11183,40.38370,"310,057,671,100,003","42,044,705,959",,2025-02-24,0,,0,500.0000000,ACTIVE,Missing Documents,Potential,Required,,,,,,,,SAKAKA,Zone,,
,,,SKA002,,,CS020682,تموينات خالد صالف الرويلي,,,,,,,2,TUE,30.12890,40.37688,"310,791,113,700,003","440,511,164,541",,2025-02-24,0,,0,500.0000000,ACTIVE,Missing Documents,Potential,Required,,,,,,,,SAKAKA,Zone,,
,,,SKA002,,,CS020684,تموينات خلود صفوق صالح الخابور للمواد الغذائية,,,,,,,1,MON,29.80619,39.86401,"310,909,851,900,003","3,401,101,453",,2025-02-24,0,,0,500.0000000,ACTIVE,Missing Documents,Potential,Required,,,,,,,,SAKAKA,Zone,,
,,,SKA002,,,CS020686,تموينات خيال مكس,,,,,,,2,TUE,30.12958,40.37561,"311,183,846,200,003","3,910,682,748",,2025-02-24,0,,0,500.0000000,ACTIVE,Missing Documents,Potential,Required,,,,,,,,SAKAKA,Zone,,
,,,SKA002,,,CS020690,تموينات دايمة التجارية لصاحبها سالم مقبل العنزي,,,,,,,2,SUN,29.92894,40.20262,"300,927,772,700,003","3,910,681,244",,2025-02-24,0,,0,500.0000000,ACTIVE,Missing Documents,Potential,Required,,,,,,,,SAKAKA,Zone,,
,,,SKA002,,,CS020696,تموينات دوار التاج,,,,,,,2,THU,29.91578,40.20506,"301,056,577,100,003","4,301,602,322",,2025-02-24,0,,0,500.0000000,ACTIVE,Missing Documents,Potential,Required,,,,,,,,SAKAKA,Zone,,
,,,SKA002,,,CS020697,تموينات دوار التاج الثاني للمواد الغذائيه,,,,,,,2,THU,29.91002,40.20776,"301,056,577,900,003","4,403,107,258",,2025-02-24,0,,0,500.0000000,ACTIVE,Missing Documents,Potential,Required,,,,,,,,SAKAKA,Zone,,
,,,SKA002,,,CS020702,تموينات رذاذ,,,,,,,1,SAT,29.82683,39.57913,"310,210,771,700,003","440,811,791,866",,2025-02-24,0,,0,500.0000000,ACTIVE,Missing Documents,Potential,Required,,,,,,,,SAKAKA,Zone,,
,,,SKA002,,,CS020708,تموينات ركن حماده للمواد الغذائية,,,,,,,1,WED,29.97864,40.19099,"310,026,074,600,003","3,910,695,422",,2025-02-24,0,,0,500.0000000,ACTIVE,Missing Documents,Potential,Required,,,,,,,,SAKAKA,Zone,,
,,,SKA002,,,CS020709,تموينات ركن ريحانه للمواد الغذائيه,,,,,,,1,MON,29.79481,39.86750,"311,795,993,920,000","450,313,233,599",,2025-02-24,0,,0,500.0000000,ACTIVE,Missing Documents,Potential,Required,,,,,,,,SAKAKA,Zone,,
,,,SKA002,,,CS020711,تموينات ركن عالم وسام الجوف للمواد الغذائية,,,,,,,2,MON,29.93310,40.19824,"311,091,620,700,003","7,026,281,381",,2025-02-24,0,,0,500.0000000,ACTIVE,Missing Documents,Potential,Required,,,,,,,,SAKAKA,Zone,,
,,,SKA002,,,CS020713,تموينات رواء ايمن عافت الزيد للمواد الغذائية,,,,,,,1,THU,29.97326,40.21116,"311,451,469,400,003","440,411,009,397",,2025-02-24,0,,0,500.0000000,ACTIVE,Missing Documents,Potential,Required,,,,,,,,SAKAKA,Zone,,
,,,SKA002,,,CS020714,تموينات روابي للمواد الغذائيه,,,,,,,2,SAT,29.94483,40.19567,"320,743,267,400,003","440,410,940,192",,2025-02-24,0,,0,500.0000000,ACTIVE,Missing Documents,Potential,Required,,,,,,,,SAKAKA,Zone,,
,,,SKA002,,,CS020716,تموينات روان علي بركه الفهيقي للمواد الغذائية,,,,,,,2,MON,29.93225,40.19702,"311,503,468,300,003","4,406,113,412",,2025-02-24,0,,0,500.0000000,ACTIVE,Missing Documents,Potential,Required,,,,,,,,SAKAKA,Zone,,
,,,SKA002,,,CS020718,تموينات روزان عبد الرحمن صالح الحيزان غذا,,,,,,,2,WED,29.98213,40.20886,"310,287,013,900,003","43,069,074,089",,2025-02-24,0,,0,500.0000000,ACTIVE,Missing Documents,Potential,Required,,,,,,,,SAKAKA,Zone,,
,,,SKA002,,,CS020719,تموينات روعة الجوف للمواد الغذائية,,,,,,,2,MON,29.96332,40.22239,,"1,056,525,700",,2025-02-24,0,,0,500.0000000,ACTIVE,Missing Documents,Potential,Required,,,,,,,,SAKAKA,Zone,,
,,,SKA002,,,CS020725,تموينات ريم عايض فرزل الفرزل للمواد الغذائية,,,,,,,2,MON,29.93609,40.19972,"310,874,835,900,003","3,403,011,387",,2025-02-24,0,,0,500.0000000,ACTIVE,Missing Documents,Potential,Required,,,,,,,,SAKAKA,Zone,,
,,,SKA002,,,CS020728,تموينات زاوية اللؤلؤه  للمواد الغذائية,,,,,,,2,SUN,29.96037,40.22212,"301,315,466,800,003","3,400,126,692",,2025-02-24,0,,0,500.0000000,ACTIVE,Missing Documents,Potential,Required,,,,,,,,SAKAKA,Zone,,
,,,SKA002,,,CS020730,تموينات زهب بيتك,,,,,,,2,TUE,30.16489,40.29286,"300,883,588,100,003","43,058,022,622",,2025-02-24,0,,0,500.0000000,ACTIVE,Missing Documents,Potential,Required,,,,,,,,SAKAKA,Zone,,
,,,SKA002,,,CS020732,تموينات زيد عجلان فياض الخليف للمواد الغذائيه,,,,,,,1,SUN,29.82600,39.86020,"310,808,073,600,003","43,109,837,981",,2025-02-24,0,,0,500.0000000,ACTIVE,Missing Documents,Potential,Required,,,,,,,,SAKAKA,Zone,,
,,,SKA002,,,CS020734,تموينات زينة الخير,,,,,,,2,THU,29.96456,40.28250,"310,070,612,100,003","3,910,692,011",,2025-02-24,0,,0,500.0000000,ACTIVE,Missing Documents,Potential,Required,,,,,,,,SAKAKA,Zone,,
,,,SKA002,,,CS020737,تموينات سامي مضحي خميس الرويلي للمواد الغذائية,,,,,,,2,THU,29.90051,40.21118,"302,204,747,800,003","7,031,977,163",,2025-02-24,0,,0,500.0000000,ACTIVE,Missing Documents,Potential,Required,,,,,,,,SAKAKA,Zone,,
,,,SKA002,,,CS020739,تموينات سدة للمواد الغذائية,,,,,,,1,SAT,29.82617,39.57778,"300,812,459,900,003","103,178,834",,2025-02-24,0,,0,500.0000000,ACTIVE,Missing Documents,Potential,Required,,,,,,,,SAKAKA,Zone,,
,,,SKA002,,,CS020741,تموينات سعاد فيصل محمد الخناني,,,,,,,2,SAT,29.93495,40.19080,"310,976,239,500,003","431,110,030,096",,2025-02-24,0,,0,500.0000000,ACTIVE,Missing Documents,Potential,Required,,,,,,,,SAKAKA,Zone,,
,,,SKA002,,,CS020742,تموينات سعود فرزل عايض الفرزل للمواد الغذائية,,,,,,,1,TUE,29.87765,40.21900,"311,173,882,500,003","3,910,688,592",,2025-02-24,0,,0,500.0000000,ACTIVE,Missing Documents,Potential,Required,,,,,,,,SAKAKA,Zone,,
,,,SKA002,,,CS020747,تموينات سلة السليمانية,,,,,,,1,WED,29.97457,40.18129,"310,892,920,900,003","3,400,122,749",,2025-02-24,0,,0,500.0000000,ACTIVE,Missing Documents,Potential,Required,,,,,,,,SAKAKA,Zone,,
,,,SKA002,,,CS020748,تموينات سلة الشامل,,,,,,,2,SUN,29.98262,40.24524,"300,916,767,500,003","3,452,005,993",,2025-02-24,0,,0,500.0000000,ACTIVE,Missing Documents,Potential,Required,,,,,,,,SAKAKA,Zone,,
,,,SKA002,,,CS020751,تموينات سلة الهدهد,,,,,,,1,SAT,29.80733,39.84270,"310,110,888,400,003","440,310,782,560",,2025-02-24,0,,0,500.0000000,ACTIVE,Missing Documents,Potential,Required,,,,,,,,SAKAKA,Zone,,
,,,SKA002,,,CS020752,تموينات سلطان ربيع فنيخ الرويلي للمواد الغذائية,,,,,,,2,SAT,29.94681,40.19716,"310,212,142,100,003","4,401,103,302",,2025-02-24,0,,0,500.0000000,ACTIVE,Missing Documents,Potential,Required,,,,,,,,SAKAKA,Zone,,
,,,SKA002,,,CS020757,تموينات سنبله العزيزيه للمواد الغذائية,,,,,,,1,THU,29.94894,40.19405,"311,624,369,600,003","3,400,125,790",,2025-02-24,0,,0,500.0000000,ACTIVE,Missing Documents,Potential,Required,,,,,,,,SAKAKA,Zone,,
,,,SKA002,,,CS020760,تموينات سيف تاون,,,,,,,1,THU,29.95703,40.19342,"301,065,472,200,003","7,011,986,648",,2025-02-24,0,,0,500.0000000,ACTIVE,Missing Documents,Potential,Required,,,,,,,,SAKAKA,Zone,,
,,,SKA002,,,CS020763,تموينات شركه منى,,,,,,,1,THU,29.98175,40.21456,,"340,019,423",,2025-02-24,0,,0,500.0000000,ACTIVE,Missing Documents,Potential,Required,,,,,,,,SAKAKA,Zone,,
,,,SKA002,,,CS020764,تموينات شريفة للمواد الغذائية,,,,,,,2,THU,29.87622,40.21979,"310,965,040,700,003","3,910,680,185",,2025-02-24,0,,0,500.0000000,ACTIVE,Missing Documents,Potential,Required,,,,,,,,SAKAKA,Zone,,
,,,SKA002,,,CS020765,تموينات شلال العزيزيه للمواد الغذائيه,,,,,,,1,THU,29.94716,40.18876,"310,970,625,400,003","3,109,706,254",,2025-02-24,0,,0,500.0000000,ACTIVE,Missing Documents,Potential,Required,,,,,,,,SAKAKA,Zone,,
,,,SKA002,,,CS020767,تموينات شمعه الشمال,,,,,,,2,MON,29.93704,40.20068,"305,000,795,500,003","44,091,187,038",,2025-02-24,0,,0,500.0000000,ACTIVE,Missing Documents,Potential,Required,,,,,,,,SAKAKA,Zone,,
,,,SKA002,,,CS020768,تموينات شهد الشمال,,,,,,,2,MON,29.96626,40.21723,"310,203,489,400,003","6,536,852,471",,2025-02-24,0,,0,500.0000000,ACTIVE,Missing Documents,Potential,Required,,,,,,,,SAKAKA,Zone,,
,,,SKA002,,,CS020770,تموينات شوق حمود عواد الحواس,,,,,,,2,MON,29.98374,40.23246,,"1,014,945,453",,2025-02-24,0,,0,500.0000000,ACTIVE,Missing Documents,Potential,Required,,,,,,,,SAKAKA,Zone,,
,,,SKA002,,,CS020773,تموينات صغير دحلان الشراري,,,,,,,1,THU,29.96912,40.20045,"300,965,105,500,003","3,910,681,406",,2025-02-24,0,,0,500.0000000,ACTIVE,Missing Documents,Potential,Required,,,,,,,,SAKAKA,Zone,,
,,,SKA002,,,CS020774,تموينات ضلع الشمال,,,,,,,1,SAT,29.79558,39.83315,"310,268,475,400,003","1,065,015,784",,2025-02-24,0,,0,500.0000000,ACTIVE,Missing Documents,Potential,Required,,,,,,,,SAKAKA,Zone,,
,,,SKA002,,,CS020775,تموينات طيبات التلال,,,,,,,1,SAT,29.87930,39.31537,"310,216,492,800,003","1,008,776,971",,2025-02-24,0,,0,500.0000000,ACTIVE,Missing Documents,Potential,Required,,,,,,,,SAKAKA,Zone,,
,,,SKA002,,,CS020776,تموينات طيبات الرزق,,,,,,,1,WED,29.97416,40.18805,"300,966,419,600,003","7,002,268,220",,2025-02-24,0,,0,500.0000000,ACTIVE,Missing Documents,Potential,Required,,,,,,,,SAKAKA,Zone,,
,,,SKA002,,,CS020779,تموينات عامر شايش الهباد,,,,,,,1,TUE,29.93038,40.18956,"300,567,601,600,003","7,011,423,337",,2025-02-24,0,,0,500.0000000,ACTIVE,Missing Documents,Potential,Required,,,,,,,,SAKAKA,Zone,,
,,,SKA002,,,CS020781,تموينات عبد العزيز حمد القايد للمواد الغذائيه,,,,,,,1,WED,29.97589,40.17769,"310,108,695,400,003","1,097,013,336",,2025-02-24,0,,0,500.0000000,ACTIVE,Missing Documents,Potential,Required,,,,,,,,SAKAKA,Zone,,
,,,SKA002,,,CS020782,تموينات عبد الله هليل الرويلي,,,,,,,2,TUE,30.10209,40.38773,"310,005,864,300,003","39,111,489,289",,2025-02-24,0,,0,500.0000000,ACTIVE,Missing Documents,Potential,Required,,,,,,,,SAKAKA,Zone,,
,,,SKA002,,,CS020783,تموينات عبد المحسن نايف العنزي,,,,,,,1,MON,29.99277,40.14792,"310,013,365,900,003","3,910,685,895",,2025-02-24,0,,0,500.0000000,ACTIVE,Missing Documents,Potential,Required,,,,,,,,SAKAKA,Zone,,
,,,SKA002,,,CS020785,تموينات عبدالعزيز يوسف الكثيري,,,,,,,1,THU,29.97234,40.20552,"310,013,368,400,003","3,911,140,502",,2025-02-24,0,,0,500.0000000,ACTIVE,Missing Documents,Potential,Required,,,,,,,,SAKAKA,Zone,,
,,,SKA002,,,CS020788,تموينات عدي,,,,,,,2,WED,29.97769,40.20313,"310,114,884,200,003","39,111,508,694",,2025-02-24,0,,0,500.0000000,ACTIVE,Missing Documents,Potential,Required,,,,,,,,SAKAKA,Zone,,
,,,SKA002,,,CS020791,تموينات عزبه المعزاب للمواد الغذائية,,,,,,,2,MON,29.92991,40.19487,"311,403,575,200,003","4,403,106,886",,2025-02-24,0,,0,500.0000000,ACTIVE,Missing Documents,Potential,Required,,,,,,,,SAKAKA,Zone,,
,,,SKA002,,,CS020794,تموينات علي حجاج الرويلي للمواد الغذائية,,,,,,,2,TUE,30.13327,40.36891,"310,108,891,500,003","39,111,489,172",,2025-02-24,0,,0,500.0000000,ACTIVE,Missing Documents,Potential,Required,,,,,,,,SAKAKA,Zone,,
,,,SKA002,,,CS020795,تموينات عنود محمد ناوي العنزي للمواد الغذائية,,,,,,,2,WED,29.98774,40.21002,"311,235,870,300,003","43,099,702,193",,2025-02-24,0,,0,500.0000000,ACTIVE,Missing Documents,Potential,Required,,,,,,,,SAKAKA,Zone,,
,,,SKA002,,,CS020796,تموينات عيده جويعد عايد الفقيهي,,,,,,,1,MON,29.96307,40.09963,"310,317,696,400,003","3,400,117,494",,2025-02-24,0,,0,500.0000000,ACTIVE,Missing Documents,Potential,Required,,,,,,,,SAKAKA,Zone,,
,,,SKA002,,,CS020797,تموينات عين الجوف,,,,,,,2,MON,29.98380,40.23330,"310,021,234,600,003","40,062,059,141",,2025-02-24,0,,0,500.0000000,ACTIVE,Missing Documents,Potential,Required,,,,,,,,SAKAKA,Zone,,
,,,SKA002,,,CS020798,تموينات غذاء القوت,,,,,,,2,SUN,29.97030,40.24212,"310,019,739,800,003","43,079,328,310",,2025-02-24,0,,0,500.0000000,ACTIVE,Missing Documents,Potential,Required,,,,,,,,SAKAKA,Zone,,
,,,SKA002,,,CS020799,تموينات غذائية,,,,,,,1,THU,29.96395,40.19547,,"41,103,583,831",,2025-02-24,0,,0,500.0000000,ACTIVE,Missing Documents,Potential,Required,,,,,,,,SAKAKA,Zone,,
,,,SKA002,,,CS020803,تموينات غيث الشمال,,,,,,,2,SAT,29.95624,40.20242,"310,934,853,200,003","43,058,033,551",,2025-02-24,0,,0,500.0000000,ACTIVE,Missing Documents,Potential,Required,,,,,,,,SAKAKA,Zone,,
,,,SKA002,,,CS020809,تموينات فهد,,,,,,,1,MON,29.79854,39.86755,"310,275,133,500,003","3,102,751,335",,2025-02-24,0,,0,500.0000000,ACTIVE,Missing Documents,Potential,Required,,,,,,,,SAKAKA,Zone,,
,,,SKA002,,,CS020810,تموينات فهد جربوع نخيلان الرويلي للمواد الغذائية,,,,,,,2,SAT,29.94643,40.20100,"311,133,489,300,003","40,098,578,433",,2025-02-24,0,,0,500.0000000,ACTIVE,Missing Documents,Potential,Required,,,,,,,,SAKAKA,Zone,,
,,,SKA002,,,CS020812,تموينات فوز الغذاء للمواد الغذائية,,,,,,,2,SAT,29.95079,40.20135,"311,190,077,900,003","43,079,288,121",,2025-02-24,0,,0,500.0000000,ACTIVE,Missing Documents,Potential,Required,,,,,,,,SAKAKA,Zone,,
,,,SKA002,,,CS020813,تموينات فوزي الكويكبي,,,,,,,1,WED,30.00601,40.20037,"300,918,123,400,003","4,411,124,616",,2025-02-24,0,,0,500.0000000,ACTIVE,Missing Documents,Potential,Required,,,,,,,,SAKAKA,Zone,,
,,,SKA002,,,CS020814,تموينات قارا للمواد الغذائية,,,,,,,1,TUE,29.86214,40.21511,"310,020,027,700,003","3,910,685,651",,2025-02-24,0,,0,500.0000000,ACTIVE,Missing Documents,Potential,Required,,,,,,,,SAKAKA,Zone,,
,,,SKA002,,,CS020820,تموينات كيمو,,,,,,,1,SUN,29.82040,39.85790,"311,198,628,900,003","43,079,397,809",,2025-02-24,0,,0,500.0000000,ACTIVE,Missing Documents,Potential,Required,,,,,,,,SAKAKA,Zone,,
,,,SKA002,,,CS020822,تموينات لؤلؤة الجود للمواد الغذائية,,,,,,,2,SUN,29.93470,40.20700,"310,245,637,400,003","7,004,884,602",,2025-02-24,0,,0,500.0000000,ACTIVE,Missing Documents,Potential,Required,,,,,,,,SAKAKA,Zone,,
,,,SKA002,,,CS020823,تموينات لؤلؤة الجود للمواد الغذائية,,,,,,,1,WED,30.00701,40.21612,"310,245,637,400,003","3,400,116,835",,2025-02-24,0,,0,500.0000000,ACTIVE,Missing Documents,Potential,Required,,,,,,,,SAKAKA,Zone,,
,,,SKA002,,,CS020824,تموينات لؤلؤة الجود للمواد الغذائيه,,,,,,,1,MON,29.92887,40.17585,"310,245,637,400,003","7,004,884,602",,2025-02-24,0,,0,500.0000000,ACTIVE,Missing Documents,Potential,Required,,,,,,,,SAKAKA,Zone,,
,,,SKA002,,,CS020825,تموينات لؤلؤة الجود للمواد الغذائيه,,,,,,,1,TUE,29.85127,40.22144,"310,245,637,400,003","7,004,884,602",,2025-02-24,0,,0,500.0000000,ACTIVE,Missing Documents,Potential,Required,,,,,,,,SAKAKA,Zone,,
,,,SKA002,,,CS020826,تموينات لؤلؤة النجود,,,,,,,1,TUE,29.87143,40.21950,"310,721,592,900,003","42,065,166,450",,2025-02-24,0,,0,500.0000000,ACTIVE,Missing Documents,Potential,Required,,,,,,,,SAKAKA,Zone,,
,,,SKA002,,,CS020828,تموينات ماجده خليفه عزيز الفهيقي للمواد الغذائيه,,,,,,,1,MON,29.92967,40.17983,"302,036,342,500,003","450,915,252,330",,2025-02-24,0,,0,500.0000000,ACTIVE,Missing Documents,Potential,Required,,,,,,,,SAKAKA,Zone,,
,,,SKA002,,,CS020830,تموينات محامص العلي,,,,,,,2,MON,29.93068,40.19562,"310,314,124,100,003","41,022,589,922",,2025-02-24,0,,0,500.0000000,ACTIVE,Missing Documents,Potential,Required,,,,,,,,SAKAKA,Zone,,
,,,SKA002,,,CS020832,تموينات محطة العلى,,,,,,,1,SUN,29.79974,39.86206,"310,310,647,900,003","39,111,488,172",,2025-02-24,0,,0,500.0000000,ACTIVE,Missing Documents,Potential,Required,,,,,,,,SAKAKA,Zone,,
,,,SKA002,,,CS020834,تموينات محطة سالم,,,,,,,1,SAT,29.88065,39.32612,"301,152,559,200,003","1,092,203,262",,2025-02-24,0,,0,500.0000000,ACTIVE,Missing Documents,Potential,Required,,,,,,,,SAKAKA,Zone,,
,,,SKA002,,,CS020839,تموينات محمد مسلي التيماني للمواد الغذائية,,,,,,,1,WED,29.98439,40.17576,"302,142,522,800,003","1,064,378,290",,2025-02-24,0,,0,500.0000000,ACTIVE,Missing Documents,Potential,Required,,,,,,,,SAKAKA,Zone,,
,,,SKA002,,,CS020840,تموينات مدار اليوم للمواد الغذائية,,,,,,,2,MON,29.96058,40.21447,,"1,019,852,621",,2025-02-24,0,,0,500.0000000,ACTIVE,Missing Documents,Potential,Required,,,,,,,,SAKAKA,Zone,,
,,,SKA002,,,CS020851,تموينات منابع الشمال للمواد الغذائية,,,,,,,1,MON,29.90718,40.16983,"311,641,031,400,003","450,213,047,162",,2025-02-24,0,,0,500.0000000,ACTIVE,Missing Documents,Potential,Required,,,,,,,,SAKAKA,Zone,,
,,,SKA002,,,CS020852,تموينات منار الجوف,,,,,,,2,WED,29.95345,40.18391,,"1,082,551,944",,2025-02-24,0,,0,500.0000000,ACTIVE,Missing Documents,Potential,Required,,,,,,,,SAKAKA,Zone,,
,,,SKA002,,,CS020855,تموينات مهاء محمد طرد المعيقل,,,,,,,2,WED,29.95842,40.18042,"300,999,557,800,003","3,910,691,054",,2025-02-24,0,,0,500.0000000,ACTIVE,Missing Documents,Potential,Required,,,,,,,,SAKAKA,Zone,,
,,,SKA002,,,CS020857,تموينات ميسان,,,,,,,2,SUN,29.93078,40.19908,"310,289,188,800,003","41,042,624,549",,2025-02-24,0,,0,500.0000000,ACTIVE,Missing Documents,Potential,Required,,,,,,,,SAKAKA,Zone,,
,,,SKA002,,,CS020861,تموينات نجمه قارا للمواد الغذائية,,,,,,,2,THU,29.88641,40.22685,"300,883,588,100,003","42,105,710,688",,2025-02-24,0,,0,500.0000000,ACTIVE,Missing Documents,Potential,Required,,,,,,,,SAKAKA,Zone,,
,,,SKA002,,,CS020866,تموينات نسمة المخطط للمواد الغذائية,,,,,,,2,SAT,29.94749,40.20081,"302,040,825,700,003","441,112,452,697",,2025-02-24,0,,0,500.0000000,ACTIVE,Missing Documents,Potential,Required,,,,,,,,SAKAKA,Zone,,
,,,SKA002,,,CS020870,تموينات نور الجوف,,,,,,,1,TUE,29.94651,40.18058,"310,245,259,900,003","3,910,697,438",,2025-02-24,0,,0,500.0000000,ACTIVE,Missing Documents,Potential,Required,,,,,,,,SAKAKA,Zone,,
,,,SKA002,,,CS020871,تموينات نور الشمال,,,,,,,1,THU,29.98184,40.21411,"310,954,258,600,003","41,083,515,214",,2025-02-24,0,,0,500.0000000,ACTIVE,Missing Documents,Potential,Required,,,,,,,,SAKAKA,Zone,,
,,,SKA002,,,CS020872,تموينات نورة,,,,,,,2,THU,29.95708,40.27283,"310,696,373,200,003","3,910,697,588",,2025-02-24,0,,0,500.0000000,ACTIVE,Missing Documents,Potential,Required,,,,,,,,SAKAKA,Zone,,
,,,SKA002,,,CS020875,تموينات نوف,,,,,,,2,WED,29.99007,40.21311,"310,087,536,200,003","43,047,917,246",,2025-02-24,0,,0,500.0000000,ACTIVE,Missing Documents,Potential,Required,,,,,,,,SAKAKA,Zone,,
,,,SKA002,,,CS020878,تموينات هازع كعيبر الرويلي,,,,,,,2,THU,29.92127,40.23135,"301,215,189,500,003","440,511,073,264",,2025-02-24,0,,0,500.0000000,ACTIVE,Missing Documents,Potential,Required,,,,,,,,SAKAKA,Zone,,
,,,SKA002,,,CS020879,تموينات هلا وحلا للمواد الغذائية,,,,,,,1,SUN,29.81053,39.86076,"311,099,750,900,003","3,910,686,332",,2025-02-24,0,,0,500.0000000,ACTIVE,Missing Documents,Potential,Required,,,,,,,,SAKAKA,Zone,,
,,,SKA002,,,CS020884,تموينات ورود الوادي للمواد الغذائية,,,,,,,1,MON,29.82675,39.87884,"301,238,561,700,003","431,110,078,558",,2025-02-24,0,,0,500.0000000,ACTIVE,Missing Documents,Potential,Required,,,,,,,,SAKAKA,Zone,,
,,,SKA002,,,CS020892,تموينات يزيد,,,,,,,1,SUN,29.81249,39.84924,,"1,037,731,849",,2025-02-24,0,,0,500.0000000,ACTIVE,Missing Documents,Potential,Required,,,,,,,,SAKAKA,Zone,,
,,,SKA002,,,CS020895,تموينات يوسف صالح محمد الحزيم,,,,,,,2,SUN,29.97848,40.24565,"311,101,844,300,003","440,711,479,353",,2025-02-24,0,,0,500.0000000,ACTIVE,Missing Documents,Potential,Required,,,,,,,,SAKAKA,Zone,,
,,,SKA002,,,CS020897,تموینات الخدمه المستمره 2,,,,,,,1,TUE,29.91519,40.19210,"310,322,405,200,003","42,085,434,345",,2025-02-24,0,,0,500.0000000,ACTIVE,Missing Documents,Potential,Required,,,,,,,,SAKAKA,Zone,,
,,,SKA002,,,CS020900,جوف الشمال للمواد الغذائيه,,,,,,,2,SUN,29.93367,40.20907,"311,090,543,800,003","7,028,520,802",,2025-02-24,0,,0,500.0000000,ACTIVE,Missing Documents,Potential,Required,,,,,,,,SAKAKA,Zone,,
,,,SKA002,,,CS020903,ركن روابي الشام,,,,,,,2,SUN,29.93576,40.20420,"310,804,645,200,003","41,083,506,316",,2025-02-24,0,,0,500.0000000,ACTIVE,Missing Documents,Potential,Required,,,,,,,,SAKAKA,Zone,,
,,,SKA002,,,CS020905,رمز النهضه للمواد الغذائيه,,,,,,,1,TUE,29.85436,40.21797,"310,985,628,800,003","7,024,104,106",,2025-02-24,0,,0,500.0000000,ACTIVE,Missing Documents,Potential,Required,,,,,,,,SAKAKA,Zone,,
,,,SKA002,,,CS020910,زاد الجوف للمواد الغذائيه,,,,,,,2,WED,29.96189,40.18445,"310,579,252,500,003","450,213,002,285",,2025-02-24,0,,0,500.0000000,ACTIVE,Missing Documents,Potential,Required,,,,,,,,SAKAKA,Zone,,
,,,SKA002,,,CS020913,سنابل اليمامة,,,,,,,2,SUN,29.98529,40.25105,"301,075,896,800,003","340,001,561",,2025-02-24,0,,0,500.0000000,ACTIVE,Missing Documents,Potential,Required,,,,,,,,SAKAKA,Zone,,
,,,SKA002,,,CS020920,سوبر ماركت الجودي,,,,,,,1,SUN,29.80162,39.84474,"310,337,576,700,003","3,910,696,639",,2025-02-24,0,,0,500.0000000,ACTIVE,Missing Documents,Potential,Required,,,,,,,,SAKAKA,Zone,,
,,,SKA002,,,CS020924,سوبر ماركت الصفاه,,,,,,,1,SUN,29.84260,39.84986,"310,808,073,600,003","43,109,837,981",,2025-02-24,0,,0,500.0000000,ACTIVE,Missing Documents,Potential,Required,,,,,,,,SAKAKA,Zone,,
,,,SKA002,,,CS020925,سوبر ماركت الغرب,,,,,,,1,SUN,29.81781,39.85647,"311,259,178,400,003","3,401,101,983",,2025-02-24,0,,0,500.0000000,ACTIVE,Missing Documents,Potential,Required,,,,,,,,SAKAKA,Zone,,
,,,SKA002,,,CS020941,سوبر ماركت زهور المدينه,,,,,,,1,THU,29.96192,40.20430,"310,028,960,200,003","1,010,249,338",,2025-02-24,0,,0,500.0000000,ACTIVE,Missing Documents,Potential,Required,,,,,,,,SAKAKA,Zone,,
,,,SKA002,,,CS020944,سوبر ماركت سلة الغدير,,,,,,,1,SUN,29.83343,39.85298,"310,062,755,100,003","3,401,017,595",,2025-02-24,0,,0,500.0000000,ACTIVE,Missing Documents,Potential,Required,,,,,,,,SAKAKA,Zone,,
,,,SKA002,,,CS020952,سوبر ماركت قطاف الثمرات,,,,,,,2,SAT,29.95127,40.20103,"311,391,679,600,003","1,054,969,819",,2025-02-24,0,,0,500.0000000,ACTIVE,Missing Documents,Potential,Required,,,,,,,,SAKAKA,Zone,,
,,,SKA002,,,CS020956,سوبر ماركت ميغنا,,,,,,,1,MON,29.80847,39.86559,,"1,028,912,671",,2025-02-24,0,,0,500.0000000,ACTIVE,Missing Documents,Potential,Required,,,,,,,,SAKAKA,Zone,,
,,,SKA002,,,CS020957,سوبر ماركت هات معك,,,,,,,1,WED,30.00537,40.19137,,"104,074,750",,2025-02-24,0,,0,500.0000000,ACTIVE,Missing Documents,Potential,Required,,,,,,,,SAKAKA,Zone,,
,,,SKA002,,,CS020958,سوبر ماركت هديب,,,,,,,2,TUE,30.07538,40.39165,"310,151,471,500,003","7,005,213,447",,2025-02-24,0,,0,500.0000000,ACTIVE,Missing Documents,Potential,Required,,,,,,,,SAKAKA,Zone,,
,,,SKA002,,,CS020959,سوبر ماركت يزيد,,,,,,,2,MON,29.98406,40.23201,"310,641,436,600,003","3,910,682,074",,2025-02-24,0,,0,500.0000000,ACTIVE,Missing Documents,Potential,Required,,,,,,,,SAKAKA,Zone,,
,,,SKA002,,,CS020964,شركة اسواق الشمال المركزيه,,,,,,,2,TUE,30.10840,40.38563,"311,225,208,300,003","7,008,426,657",,2025-02-24,0,,0,500.0000000,ACTIVE,Missing Documents,Potential,Required,,,,,,,,SAKAKA,Zone,,
,,,SKA002,,,CS020966,شركة اسواق ركن الصالحية التجارية,,,,,,,2,THU,29.89331,40.21344,"311,368,324,700,003","3,910,688,130",,2025-02-24,0,,0,500.0000000,ACTIVE,Missing Documents,Potential,Required,,,,,,,,SAKAKA,Zone,,
,,,SKA002,,,CS020967,شركة اسواق وسط قارا,,,,,,,1,TUE,29.86850,40.21878,"311,249,989,800,003","7,036,864,564",,2025-02-24,0,,0,500.0000000,ACTIVE,Missing Documents,Potential,Required,,,,,,,,SAKAKA,Zone,,
,,,SKA002,,,CS020969,شركة اسواق ومحامص دار الشيوخ,,,,,,,1,THU,29.97278,40.20546,"310,935,596,800,003","7,021,871,624",,2025-02-24,0,,0,500.0000000,ACTIVE,Missing Documents,Potential,Required,,,,,,,,SAKAKA,Zone,,
,,,SKA002,,,CS020970,شركة اسواق ومحامص دار الشيوخ,,,,,,,2,TUE,30.11152,40.38755,"310,935,596,800,003","3,402,102,728",,2025-02-24,0,,0,500.0000000,ACTIVE,Missing Documents,Potential,Required,,,,,,,,SAKAKA,Zone,,
,,,SKA002,,,CS020974,شركة اسواق ومحامص دار الشيوخ التجاريه,,,,,,,1,MON,29.80759,39.86696,"310,935,596,800,003","3,401,101,432",,2025-02-24,0,,0,500.0000000,ACTIVE,Missing Documents,Potential,Required,,,,,,,,SAKAKA,Zone,,
,,,SKA002,,,CS020980,شركة الصرح واحد,,,,,,,2,TUE,30.33260,40.31200,,"340,016,221",,2025-02-24,0,,0,500.0000000,ACTIVE,Missing Documents,Potential,Required,,,,,,,,SAKAKA,Zone,,
,,,SKA002,,,CS020981,شركة الصرح واحد,,,,,,,1,MON,29.81653,40.11325,"310,197,272,300,003","3,400,116,221",,2025-02-24,0,,0,500.0000000,ACTIVE,Missing Documents,Potential,Required,,,,,,,,SAKAKA,Zone,,
,,,SKA002,,,CS020982,شركة الصرح واحد المحدودة,,,,,,,1,MON,29.83215,40.16889,,"340,016,221",,2025-02-24,0,,0,500.0000000,ACTIVE,Missing Documents,Potential,Required,,,,,,,,SAKAKA,Zone,,
,,,SKA002,,,CS020983,شركة المتكاملة للتجارة,,,,,,,2,THU,29.98328,40.26277,"311,435,877,200,003","440,911,876,669",,2025-02-24,0,,0,500.0000000,ACTIVE,Missing Documents,Potential,Required,,,,,,,,SAKAKA,Zone,,
,,,SKA002,,,CS020987,شركة أسواق وسط قارا للمواد الغذائية,,,,,,,2,SUN,29.93079,40.19932,"311,249,989,800,003","7,036,864,564",,2025-02-24,0,,0,500.0000000,ACTIVE,Missing Documents,Potential,Required,,,,,,,,SAKAKA,Zone,,
,,,SKA002,,,CS020989,شركة أسواق ومحامص دار الشيوخ التجارية,,,,,,,1,MON,29.80614,39.86399,"310,935,596,800,003","3,402,102,728",,2025-02-24,0,,0,500.0000000,ACTIVE,Missing Documents,Potential,Required,,,,,,,,SAKAKA,Zone,,
,,,SKA002,,,CS021002,شركة سواري الشمال,,,,,,,1,SAT,29.81491,39.83517,"311,305,486,600,003","3,401,101,790",,2025-02-24,0,,0,500.0000000,ACTIVE,Missing Documents,Potential,Required,,,,,,,,SAKAKA,Zone,,
,,,SKA002,,,CS021003,شركة سواري الشمال,,,,,,,1,MON,29.77343,39.88346,"311,305,486,600,003","3,401,101,790",,2025-02-24,0,,0,500.0000000,ACTIVE,Missing Documents,Potential,Required,,,,,,,,SAKAKA,Zone,,
,,,SKA002,,,CS021004,شركة سوق الغذاء التجارية,,,,,,,1,TUE,29.93216,40.18550,"311,238,492,600,003","7,015,591,675",,2025-02-24,0,,0,500.0000000,ACTIVE,Missing Documents,Potential,Required,,,,,,,,SAKAKA,Zone,,
,,,SKA002,,,CS021005,شركة سوق الغذاء التجاريه,,,,,,,1,THU,29.98194,40.21490,"311,238,492,600,003","7,015,591,675",,2025-02-24,0,,0,500.0000000,ACTIVE,Missing Documents,Potential,Required,,,,,,,,SAKAKA,Zone,,
,,,SKA002,,,CS021006,شركة سوق الغذاء التجاريه,,,,,,,1,SAT,29.80996,39.84223,"311,238,492,600,003","7,015,591,675",,2025-02-24,0,,0,500.0000000,ACTIVE,Missing Documents,Potential,Required,,,,,,,,SAKAKA,Zone,,
,,,SKA002,,,CS021007,شركة عمان العالمية للتجاره,,,,,,,2,SAT,29.96494,40.21403,"300,278,364,900,003","7,036,824,022",,2025-02-24,0,,0,500.0000000,ACTIVE,Missing Documents,Potential,Required,,,,,,,,SAKAKA,Zone,,
,,,SKA002,,,CS021008,شركة فن الفيصلية,,,,,,,2,TUE,30.11188,40.38676,"311,608,400,900,003","3,400,018,943",,2025-02-24,0,,0,500.0000000,ACTIVE,Missing Documents,Potential,Required,,,,,,,,SAKAKA,Zone,,
,,,SKA002,,,CS021012,شركة كيف بازل التجارية,,,,,,,2,SUN,29.98551,40.25107,"311,301,577,200,003","440,110,287,271",,2025-02-24,0,,0,500.0000000,ACTIVE,Missing Documents,Potential,Required,,,,,,,,SAKAKA,Zone,,
,,,SKA002,,,CS021015,شركة محل كيف الاكابر للتجارة,,,,,,,2,WED,29.97181,40.18874,"311,305,512,200,003","450,413,585,742",,2025-02-24,0,,0,500.0000000,ACTIVE,Missing Documents,Potential,Required,,,,,,,,SAKAKA,Zone,,
,,,SKA002,,,CS021017,شركة مفتاح الاعمال التجاريه,,,,,,,1,TUE,29.94954,40.18003,"310,795,965,200,003","7,009,335,881",,2025-02-24,0,,0,500.0000000,ACTIVE,Missing Documents,Potential,Required,,,,,,,,SAKAKA,Zone,,
,,,SKA002,,,CS021018,شركة مواقع النجوم,,,,,,,1,MON,29.95149,40.09153,"310,461,221,800,003","440,911,915,393",,2025-02-24,0,,0,500.0000000,ACTIVE,Missing Documents,Potential,Required,,,,,,,,SAKAKA,Zone,,
,,,SKA002,,,CS021024,شركه اسرار المستقبل,,,,,,,2,THU,29.96476,40.28184,"311,676,945,400,003","5,903,503,338",,2025-02-24,0,,0,500.0000000,ACTIVE,Missing Documents,Potential,Required,,,,,,,,SAKAKA,Zone,,
,,,SKA002,,,CS021025,شركه بركات الشام,,,,,,,2,WED,29.98213,40.20933,"311,301,469,300,003","2,031,110,727",,2025-02-24,0,,0,500.0000000,ACTIVE,Missing Documents,Potential,Required,,,,,,,,SAKAKA,Zone,,
,,,SKA002,,,CS021026,شركه بركات الشام للتجاره,,,,,,,2,WED,29.98193,40.20933,"311,301,469,300,003","2,031,110,727",,2025-02-24,0,,0,500.0000000,ACTIVE,Missing Documents,Potential,Required,,,,,,,,SAKAKA,Zone,,
,,,SKA002,,,CS021027,شركه حبه فسدق للتجارة,,,,,,,2,SAT,29.97017,40.21574,"311,998,459,900,003","42,075,360,198",,2025-02-24,0,,0,500.0000000,ACTIVE,Missing Documents,Potential,Required,,,,,,,,SAKAKA,Zone,,
,,,SKA002,,,CS021029,شركه رمز القايد التجاريه,,,,,,,2,WED,29.96480,40.19292,"311,302,617,200,003","440,811,848,195",,2025-02-24,0,,0,500.0000000,ACTIVE,Missing Documents,Potential,Required,,,,,,,,SAKAKA,Zone,,
,,,SKA002,,,CS021030,شركه زهوان للتجارة,,,,,,,2,THU,29.89047,40.21555,"311,022,914,900,003","3,400,121,796",,2025-02-24,0,,0,500.0000000,ACTIVE,Missing Documents,Potential,Required,,,,,,,,SAKAKA,Zone,,
,,,SKA002,,,CS021031,شركه سواري الشمال التجاريه,,,,,,,1,SUN,29.79793,39.85713,"311,305,486,600,003","3,400,120,164",,2025-02-24,0,,0,500.0000000,ACTIVE,Missing Documents,Potential,Required,,,,,,,,SAKAKA,Zone,,
,,,SKA002,,,CS021032,شركه سواري الشمال التجاريه ٢,,,,,,,1,SUN,29.81383,39.85921,"311,305,486,600,003","3,400,120,164",,2025-02-24,0,,0,500.0000000,ACTIVE,Missing Documents,Potential,Required,,,,,,,,SAKAKA,Zone,,
,,,SKA002,,,CS021033,شركه سواري الشمال التجاريه٨,,,,,,,1,MON,29.92070,40.17873,"311,305,486,600,003","3,400,120,164",,2025-02-24,0,,0,500.0000000,ACTIVE,Missing Documents,Potential,Required,,,,,,,,SAKAKA,Zone,,
,,,SKA002,,,CS021036,شركه فن الفيصليه التجاريه,,,,,,,1,WED,29.97740,40.18907,"311,608,400,900,003","7,011,820,789",,2025-02-24,0,,0,500.0000000,ACTIVE,Missing Documents,Potential,Required,,,,,,,,SAKAKA,Zone,,
,,,SKA002,,,CS021041,عالم الثنيان,,,,,,,2,WED,29.97159,40.19871,,"1,046,055,313",,2025-02-24,0,,0,500.0000000,ACTIVE,Missing Documents,Potential,Required,,,,,,,,SAKAKA,Zone,,
,,,SKA002,,,CS021043,عطاره ريم اليمن,,,,,,,1,THU,29.97122,40.20470,"310,078,935,300,003","3,910,686,939",,2025-02-24,0,,0,500.0000000,ACTIVE,Missing Documents,Potential,Required,,,,,,,,SAKAKA,Zone,,
,,,SKA002,,,CS021052,لؤةلؤة الجود للمواد الغذائية 7,,,,,,,1,THU,29.94949,40.18836,"310,245,637,400,003","7,004,884,602",,2025-02-24,0,,0,500.0000000,ACTIVE,Missing Documents,Potential,Required,,,,,,,,SAKAKA,Zone,,
,,,SKA002,,,CS021060,محامص المشاري,,,,,,,1,THU,29.97062,40.20468,"302,150,177,800,003","42,034,146,963",,2025-02-24,0,,0,500.0000000,ACTIVE,Missing Documents,Potential,Required,,,,,,,,SAKAKA,Zone,,
,,,SKA002,,,CS021061,محامص بصمه الكيف للمكسرات,,,,,,,2,SUN,29.93585,40.20324,"310,815,971,600,003","440,410,929,565",,2025-02-24,0,,0,500.0000000,ACTIVE,Missing Documents,Potential,Required,,,,,,,,SAKAKA,Zone,,
,,,SKA002,,,CS021062,محامص بصمه الكيف للمكسرات,,,,,,,2,SUN,29.93583,40.20325,"310,815,371,600,003","440,410,929,656",,2025-02-24,0,,0,500.0000000,ACTIVE,Missing Documents,Potential,Required,,,,,,,,SAKAKA,Zone,,
,,,SKA002,,,CS021066,محامص كيف الجوف,,,,,,,1,THU,29.97038,40.20430,"310,582,462,200,003","41,113,597,495",,2025-02-24,0,,0,500.0000000,ACTIVE,Missing Documents,Potential,Required,,,,,,,,SAKAKA,Zone,,
,,,SKA002,,,CS021067,محامص كيف الجوف للقهوة,,,,,,,2,SAT,29.93423,40.19204,"310,166,002,300,003","3,910,693,453",,2025-02-24,0,,0,500.0000000,ACTIVE,Missing Documents,Potential,Required,,,,,,,,SAKAKA,Zone,,
,,,SKA002,,,CS021069,محامص مزاق الجزيره,,,,,,,2,WED,29.98207,40.20959,"310,990,170,700,003","42,044,270,841",,2025-02-24,0,,0,500.0000000,ACTIVE,Missing Documents,Potential,Required,,,,,,,,SAKAKA,Zone,,
,,,SKA002,,,CS021074,محطة البادية,,,,,,,1,TUE,29.86572,40.21714,"310,813,669,900,003","4,411,124,723",,2025-02-24,0,,0,500.0000000,ACTIVE,Missing Documents,Potential,Required,,,,,,,,SAKAKA,Zone,,
,,,SKA002,,,CS021075,محطة البدر,,,,,,,1,SAT,29.82643,39.57876,"310,076,011,100,003","3,401,100,247",,2025-02-24,0,,0,500.0000000,ACTIVE,Missing Documents,Potential,Required,,,,,,,,SAKAKA,Zone,,
,,,SKA002,,,CS021078,محطة الخط الدولى,,,,,,,1,TUE,29.85296,40.22011,"311,557,864,600,003","3,403,016,551",,2025-02-24,0,,0,500.0000000,ACTIVE,Missing Documents,Potential,Required,,,,,,,,SAKAKA,Zone,,
,,,SKA002,,,CS021079,محطة الخطيب للمواد الغذائية,,,,,,,2,THU,29.92119,40.23598,"310,245,637,400,003","7,004,884,602",,2025-02-24,0,,0,500.0000000,ACTIVE,Missing Documents,Potential,Required,,,,,,,,SAKAKA,Zone,,
,,,SKA002,,,CS021080,محطة الخليف,,,,,,,1,SUN,29.79751,39.85184,"310,999,782,300,003","3,401,101,602",,2025-02-24,0,,0,500.0000000,ACTIVE,Missing Documents,Potential,Required,,,,,,,,SAKAKA,Zone,,
,,,SKA002,,,CS021081,محطة الدرباس,,,,,,,1,MON,29.76063,39.90757,,"701,475,472",,2025-02-24,0,,0,500.0000000,ACTIVE,Missing Documents,Potential,Required,,,,,,,,SAKAKA,Zone,,
,,,SKA002,,,CS021082,محطة الدلية,,,,,,,1,TUE,29.86325,40.21511,"311,301,330,700,003","3,400,123,845",,2025-02-24,0,,0,500.0000000,ACTIVE,Missing Documents,Potential,Required,,,,,,,,SAKAKA,Zone,,
,,,SKA002,,,CS021083,محطة الشلال,,,,,,,2,TUE,30.13378,40.25185,"302,046,410,400,003","1,017,149,384",,2025-02-24,0,,0,500.0000000,ACTIVE,Missing Documents,Potential,Required,,,,,,,,SAKAKA,Zone,,
,,,SKA002,,,CS021084,محطة الشمال,,,,,,,2,WED,29.99335,40.20939,"310,310,647,900,003","39,111,488,172",,2025-02-24,0,,0,500.0000000,ACTIVE,Missing Documents,Potential,Required,,,,,,,,SAKAKA,Zone,,
,,,SKA002,,,CS021087,محطة العيسى,,,,,,,2,WED,29.98404,40.20951,"310,211,896,800,003","42,024,012,753",,2025-02-24,0,,0,500.0000000,ACTIVE,Missing Documents,Potential,Required,,,,,,,,SAKAKA,Zone,,
,,,SKA002,,,CS021088,محطة الفلاح,,,,,,,2,TUE,30.13248,40.36952,"310,440,094,900,003","3,400,103,744",,2025-02-24,0,,0,500.0000000,ACTIVE,Missing Documents,Potential,Required,,,,,,,,SAKAKA,Zone,,
,,,SKA002,,,CS021089,محطة الكريم,,,,,,,1,MON,29.84633,40.19202,"310,241,043,500,003","4,212,602,130",,2025-02-24,0,,0,500.0000000,ACTIVE,Missing Documents,Potential,Required,,,,,,,,SAKAKA,Zone,,
,,,SKA002,,,CS021090,محطة اللقائط,,,,,,,2,SUN,29.98427,40.25084,"310,268,425,600,003","3,910,684,163",,2025-02-24,0,,0,500.0000000,ACTIVE,Missing Documents,Potential,Required,,,,,,,,SAKAKA,Zone,,
,,,SKA002,,,CS021091,محطة المحمدية,,,,,,,2,SAT,29.96304,40.21101,"311,557,487,200,003","4,103,261,185",,2025-02-24,0,,0,500.0000000,ACTIVE,Missing Documents,Potential,Required,,,,,,,,SAKAKA,Zone,,
,,,SKA002,,,CS021098,محطة جوفكو2,,,,,,,2,THU,29.88886,40.21612,"301,315,884,800,003","3,910,687,067",,2025-02-24,0,,0,500.0000000,ACTIVE,Missing Documents,Potential,Required,,,,,,,,SAKAKA,Zone,,
,,,SKA002,,,CS021107,محطه الريف الاتحاد,,,,,,,2,THU,29.89283,40.24361,"301,389,165,100,003","1,011,008,560",,2025-02-24,0,,0,500.0000000,ACTIVE,Missing Documents,Potential,Required,,,,,,,,SAKAKA,Zone,,
,,,SKA002,,,CS021109,محطه الشلال للمواد الغذائية,,,,,,,1,TUE,29.95345,40.17982,"310,220,065,400,003","3,910,697,602",,2025-02-24,0,,0,500.0000000,ACTIVE,Missing Documents,Potential,Required,,,,,,,,SAKAKA,Zone,,
,,,SKA002,,,CS021115,محطه ريف الشفاء,,,,,,,2,TUE,30.22081,40.31111,"311,271,672,600,003","7,021,176,230",,2025-02-24,0,,0,500.0000000,ACTIVE,Missing Documents,Potential,Required,,,,,,,,SAKAKA,Zone,,
,,,SKA002,,,CS021119,محل اطايب الشفا للمواد الغذائية,,,,,,,1,SAT,29.81629,39.84199,"311,148,588,900,003","3,401,102,271",,2025-02-24,0,,0,500.0000000,ACTIVE,Missing Documents,Potential,Required,,,,,,,,SAKAKA,Zone,,
,,,SKA002,,,CS021120,محل ايام المسافر,,,,,,,1,WED,29.99492,40.20899,"310,268,425,600,003","42,013,834,168",,2025-02-24,0,,0,500.0000000,ACTIVE,Missing Documents,Potential,Required,,,,,,,,SAKAKA,Zone,,
,,,SKA002,,,CS021128,محل سلة تسالي,,,,,,,1,WED,29.99494,40.20903,"310,268,425,600,003","42,085,406,112",,2025-02-24,0,,0,500.0000000,ACTIVE,Missing Documents,Potential,Required,,,,,,,,SAKAKA,Zone,,
,,,SKA002,,,CS021131,محل سله أيوب للمواد الغذائيه,,,,,,,1,TUE,29.86904,40.21314,"302,092,812,600,003","40,072,069,631",,2025-02-24,0,,0,500.0000000,ACTIVE,Missing Documents,Potential,Required,,,,,,,,SAKAKA,Zone,,
,,,SKA002,,,CS021134,محل صحاري الشمال للمواد الغذائية,,,,,,,1,SAT,29.82420,38.92392,"310,546,630,900,003","1,117,636,645",,2025-02-24,0,,0,500.0000000,ACTIVE,Missing Documents,Potential,Required,,,,,,,,SAKAKA,Zone,,
,,,SKA002,,,CS021135,محل عبدالحكيم عرسان جضان الخالدي للمواد الغذائية,,,,,,,1,WED,30.00010,40.21184,"310,319,733,100,003","4,009,238,426",,2025-02-24,0,,0,500.0000000,ACTIVE,Missing Documents,Potential,Required,,,,,,,,SAKAKA,Zone,,
,,,SKA002,,,CS021138,محل فنجان الكيف للتجارة,,,,,,,2,MON,29.95945,40.21436,"310,110,311,200,003","41,052,690,472",,2025-02-24,0,,0,500.0000000,ACTIVE,Missing Documents,Potential,Required,,,,,,,,SAKAKA,Zone,,
,,,SKA002,,,CS021139,محل قمر الشام,,,,,,,1,THU,29.96920,40.21060,"301,000,578,100,003","3,910,688,098",,2025-02-24,0,,0,500.0000000,ACTIVE,Missing Documents,Potential,Required,,,,,,,,SAKAKA,Zone,,
,,,SKA002,,,CS021143,محل نايفه حواس عواد السبيعي للخضار والفواكة,,,,,,,1,THU,29.96871,40.20066,"311,507,706,600,003","440,310,802,592",,2025-02-24,0,,0,500.0000000,ACTIVE,Missing Documents,Potential,Required,,,,,,,,SAKAKA,Zone,,
,,,SKA002,,,CS021145,محل نداء خلف صبر العنزي للمواد الغذائية,,,,,,,1,MON,29.92724,40.17654,"310,946,044,800,003","7,023,581,213",,2025-02-24,0,,0,500.0000000,ACTIVE,Missing Documents,Potential,Required,,,,,,,,SAKAKA,Zone,,
,,,SKA002,,,CS021147,محلات منيره خالد الرويلي التجاريه,,,,,,,2,SAT,29.94891,40.19820,"310,052,912,500,003","3,910,691,132",,2025-02-24,0,,0,500.0000000,ACTIVE,Missing Documents,Potential,Required,,,,,,,,SAKAKA,Zone,,
,,,SKA002,,,CS021157,مركز عبدالعزيز يوسف الكثيري التجاري,,,,,,,1,THU,29.97228,40.20558,"310,013,368,400,003","39,111,490,502",,2025-02-24,0,,0,500.0000000,ACTIVE,Missing Documents,Potential,Required,,,,,,,,SAKAKA,Zone,,
,,,SKA002,,,CS021169,موسسة روضان فهر روضان الحسن للمواد الغذائيه,,,,,,,1,SAT,29.80961,39.64556,"300,717,783,100,003","7,015,929,529",,2025-02-24,0,,0,500.0000000,ACTIVE,Missing Documents,Potential,Required,,,,,,,,SAKAKA,Zone,,
,,,SKA002,,,CS021173,موسسه لبلبه عيد فالح الحازمي التجاريه,,,,,,,2,WED,30.01897,40.23254,"302,113,806,400,003","3,910,688,491",,2025-02-24,0,,0,500.0000000,ACTIVE,Missing Documents,Potential,Required,,,,,,,,SAKAKA,Zone,,
,,,SKA002,,,CS021175,مؤسسة اركان تازة,,,,,,,1,THU,29.96618,40.20331,"311,854,546,100,003","3,400,115,686",,2025-02-24,0,,0,500.0000000,ACTIVE,Missing Documents,Potential,Required,,,,,,,,SAKAKA,Zone,,
,,,SKA002,,,CS021177,مؤسسة الحصني للتجاره,,,,,,,1,WED,29.99427,40.20860,"301,374,771,400,003","3,400,019,861",,2025-02-24,0,,0,500.0000000,ACTIVE,Missing Documents,Potential,Required,,,,,,,,SAKAKA,Zone,,
,,,SKA002,,,CS021181,مؤسسة بدور ابراهيم لقطان الرويلي للمواد الغذائية,,,,,,,2,TUE,30.13097,40.37276,"310,992,487,600,003","3,910,696,045",,2025-02-24,0,,0,500.0000000,ACTIVE,Missing Documents,Potential,Required,,,,,,,,SAKAKA,Zone,,
,,,SKA002,,,CS021187,مؤسسة حمده مهجع الرويلي لتجارة الجملة و التجزئة,,,,,,,2,TUE,30.06497,40.32319,"300,946,489,200,003","43,047,935,012",,2025-02-24,0,,0,500.0000000,ACTIVE,Missing Documents,Potential,Required,,,,,,,,SAKAKA,Zone,,
,,,SKA002,,,CS021189,مؤسسة خيرية فرحان الرويلي,,,,,,,2,TUE,30.06206,40.32313,"310,115,541,100,003","39,111,489,329",,2025-02-24,0,,0,500.0000000,ACTIVE,Missing Documents,Potential,Required,,,,,,,,SAKAKA,Zone,,
,,,SKA002,,,CS021192,مؤسسة زياد عوض الكويكبي,,,,,,,2,SAT,29.94813,40.20097,"302,249,930,100,003","40,073,058,163",,2025-02-24,0,,0,500.0000000,ACTIVE,Missing Documents,Potential,Required,,,,,,,,SAKAKA,Zone,,
,,,SKA002,,,CS021195,مؤسسة سلة الثمرات التجارية,,,,,,,1,SUN,29.80675,39.86003,"300,841,762,800,003","7,007,502,854",,2025-02-24,0,,0,500.0000000,ACTIVE,Missing Documents,Potential,Required,,,,,,,,SAKAKA,Zone,,
,,,SKA002,,,CS021204,مؤسسة شمال الجوف للمواد الغذائية,,,,,,,2,WED,29.98477,40.21133,"301,196,163,800,003","3,910,696,331",,2025-02-24,0,,0,500.0000000,ACTIVE,Missing Documents,Potential,Required,,,,,,,,SAKAKA,Zone,,
,,,SKA002,,,CS021205,مؤسسة صالحة عبد الله محمد الشهري,,,,,,,2,SAT,29.98093,40.22306,"311,417,687,400,003","7,031,009,603",,2025-02-24,0,,0,500.0000000,ACTIVE,Missing Documents,Potential,Required,,,,,,,,SAKAKA,Zone,,
,,,SKA002,,,CS021207,مؤسسة عالم الثنيان,,,,,,,1,WED,29.97704,40.19038,"301,134,789,800,003","4,405,111,768",,2025-02-24,0,,0,500.0000000,ACTIVE,Missing Documents,Potential,Required,,,,,,,,SAKAKA,Zone,,
,,,SKA002,,,CS021208,مؤسسة عبد العزيز صالح الضويحي,,,,,,,2,WED,29.99890,40.22249,"310,489,177,900,003","3,400,122,399",,2025-02-24,0,,0,500.0000000,ACTIVE,Missing Documents,Potential,Required,,,,,,,,SAKAKA,Zone,,
,,,SKA002,,,CS021209,مؤسسة عبد الله سعد محمد المهري,,,,,,,1,TUE,29.92299,40.19156,"302,134,091,700,003","7,003,974,313",,2025-02-24,0,,0,500.0000000,ACTIVE,Missing Documents,Potential,Required,,,,,,,,SAKAKA,Zone,,
,,,SKA002,,,CS021212,مؤسسة فارس نايف سالم الحسن التجارية,,,,,,,1,SUN,29.79924,39.84645,"310,366,174,800,003","7,038,453,317",,2025-02-24,0,,0,500.0000000,ACTIVE,Missing Documents,Potential,Required,,,,,,,,SAKAKA,Zone,,
,,,SKA002,,,CS021215,مؤسسة قطف الثمار,,,,,,,1,THU,29.96382,40.20343,"311,391,679,600,003","39,111,489,125",,2025-02-24,0,,0,500.0000000,ACTIVE,Missing Documents,Potential,Required,,,,,,,,SAKAKA,Zone,,
,,,SKA002,,,CS021216,مؤسسة قمة الخالدية,,,,,,,2,MON,29.94948,40.20655,"300,155,966,100,003","3,910,691,213",,2025-02-24,0,,0,500.0000000,ACTIVE,Missing Documents,Potential,Required,,,,,,,,SAKAKA,Zone,,
,,,SKA002,,,CS021218,مؤسسة محمد رجب يحي الزهراني التجارية,,,,,,,1,THU,29.96937,40.20986,,"1,034,854,925",,2025-02-24,0,,0,500.0000000,ACTIVE,Missing Documents,Potential,Required,,,,,,,,SAKAKA,Zone,,
,,,SKA002,,,CS021224,مؤسسة نوره احمد السرحاني,,,,,,,2,SUN,29.93217,40.20994,"310,043,121,100,003","431,110,092,205",,2025-02-24,0,,0,500.0000000,ACTIVE,Missing Documents,Potential,Required,,,,,,,,SAKAKA,Zone,,
,,,SKA002,,,CS021225,مؤسسة وزفاء محمد الدغمي التجارية,,,,,,,2,SUN,29.98322,40.24790,"310,023,817,400,003","3,910,694,203",,2025-02-24,0,,0,500.0000000,ACTIVE,Missing Documents,Potential,Required,,,,,,,,SAKAKA,Zone,,
,,,SKA002,,,CS021226,مؤسسه ارياف التموين لتجاره الجمله و التجزئه,,,,,,,1,SAT,29.80859,39.68460,"311,045,455,700,003","7,032,751,013",,2025-02-24,0,,0,500.0000000,ACTIVE,Missing Documents,Potential,Required,,,,,,,,SAKAKA,Zone,,
,,,SKA002,,,CS021227,مؤسسه النشمي فيصل محمد الحرفوش للتجارة,,,,,,,2,WED,29.97206,40.18964,"311,101,512,500,003","43,079,353,084",,2025-02-24,0,,0,500.0000000,ACTIVE,Missing Documents,Potential,Required,,,,,,,,SAKAKA,Zone,,
,,,SKA002,,,CS021230,مؤسسه بدور ابراهيم لقطان الرويلي,,,,,,,2,SUN,29.97236,40.24413,"310,992,487,600,003","440,711,412,049",,2025-02-24,0,,0,500.0000000,ACTIVE,Missing Documents,Potential,Required,,,,,,,,SAKAKA,Zone,,
,,,SKA002,,,CS021232,مؤسسه زين للمواد الغذائية,,,,,,,1,TUE,29.90514,40.20260,"310,999,273,600,003","43,089,558,836",,2025-02-24,0,,0,500.0000000,ACTIVE,Missing Documents,Potential,Required,,,,,,,,SAKAKA,Zone,,
,,,SKA002,,,CS021234,مؤسسه سلمى دمج الشمري التجاريه,,,,,,,2,SAT,29.99343,40.23429,"310,116,502,600,003","3,910,690,238",,2025-02-24,0,,0,500.0000000,ACTIVE,Missing Documents,Potential,Required,,,,,,,,SAKAKA,Zone,,
,,,SKA002,,,CS021235,مؤسسه شرياف للتجارة,,,,,,,2,TUE,30.12637,40.38150,"310,489,177,900,003","3,400,122,399",,2025-02-24,0,,0,500.0000000,ACTIVE,Missing Documents,Potential,Required,,,,,,,,SAKAKA,Zone,,
,,,SKA002,,,CS021236,مؤسسه عالي العال لتجارة الجمله والتجزئه,,,,,,,1,MON,29.79055,39.88318,"312,035,654,200,003","450,814,860,609",,2025-02-24,0,,0,500.0000000,ACTIVE,Missing Documents,Potential,Required,,,,,,,,SAKAKA,Zone,,
,,,SKA002,,,CS021238,مؤسسه وائل ثامر جزاع العنزي للتجارة,,,,,,,1,TUE,29.92304,40.18644,"310,455,293,300,003","3,910,682,705",,2025-02-24,0,,0,500.0000000,ACTIVE,Missing Documents,Potential,Required,,,,,,,,SAKAKA,Zone,,
,,,SKA002,,,CS021240,ميني ماركت الكثيرى,,,,,,,1,THU,29.97476,40.20464,"310,013,368,400,003","40,072,068,020",,2025-02-24,0,,0,500.0000000,ACTIVE,Missing Documents,Potential,Required,,,,,,,,SAKAKA,Zone,,
,,,SKA002,,,CS027437,محل شعبيات البركة للمواد الغذائية,,,,,,,1,SAT,29.80896,39.68948,"310,489,592,300,003","41,062,963,486",,2025-04-23,0,,0,500.0000000,ACTIVE,Missing Documents,Potential,Required,,,,,,,,SAKAKA,Zone,,
,,سكاكا,SKA002,AG00218,Mohamed Tammam,CS027564,SKAKA DC ASM,"5,432,556,311",,,Traditional Trade,Medium Grocery,,2,THU,29.94605,40.22821,"567,586,444,444,444","4,777,777,777,777,721","4,444,444,444,444,444,700",2025-05-05,0,,0,500.0000000,ACTIVE,Approved by Finance,Agent Registration,NOT Required,2048-07-11,2063-08-07,شارع,شمال سكاكا,0,478880,0,SAKAKA,Assignment,,
,,,SKA002,AG00272,Abdelhakim Awad,CS031342,شركة قمة الحلويات التجارية   سكاكا,,,,,,,1,THU,29.97666,40.21271,"302,006,551,100,003","2,050,206,847",,2025-10-08,0,,0,,ACTIVE,Missing Documents,Potential,,,,,,,,,,Assignment,,
,,,SKA002,AG00272,Abdelhakim Awad,CS031347,موسسة كاسر الاسعار التجاريه,,,,,,,1,THU,29.97018,40.20377,"311,197,499,500,003","2,031,108,645",,2025-10-08,0,,0,,ACTIVE,Missing Documents,Potential,,,,,,,,,,Assignment,,
,,,SKA002,AG00272,Abdelhakim Awad,CS031362,مؤسسة رمز البشائر للمواد الغذائية,,,,,,,2,SUN,29.95250,40.21660,"311,364,165,400,003","3,113,641,654",,2025-10-08,0,,0,,ACTIVE,Missing Documents,Potential,,,,,,,,,,Assignment,,
,,,SKA002,AG00272,Abdelhakim Awad,CS031363,شركة ناصريه الجوف لتجاره الجمله والتجزئه,,,,,,,2,WED,29.98176,40.20960,"311,295,765,700,003","7,010,912,363",,2025-10-08,0,,0,,ACTIVE,Missing Documents,Potential,,,,,,,,,,Assignment,,
,,,SKA002,AG00272,Abdelhakim Awad,CS031367,مؤسسة صالح عويند البلوي التجارية,,,,,,,2,SUN,29.95221,40.21711,"300,552,901,500,003","3,550,000,754",,2025-10-08,0,,0,,ACTIVE,Missing Documents,Potential,,,,,,,,,,Assignment,,
,,,SKA002,AG00272,Abdelhakim Awad,CS031377,شركة سوق الغذاء التجارية,,,,,,,1,TUE,29.85836,40.21375,"311,238,492,600,003","7,015,591,675",,2025-10-08,0,,0,,ACTIVE,Missing Documents,Potential,,,,,,,,,,Assignment,,
,,,SKA002,AG00272,Abdelhakim Awad,CS031383,شركه كيان العليا العربيه التجاريه,,,,,,,2,SUN,29.95098,40.21673,"310,572,354,900,003","7,001,832,596",,2025-10-08,0,,0,,ACTIVE,Missing Documents,Potential,,,,,,,,,,Assignment,,
,,,SKA002,AG00272,Abdelhakim Awad,CS031384,شركة خط الباسم للتجاره,,,,,,,1,THU,29.96919,40.20388,"311,240,558,400,003","3,400,119,033",,2025-10-08,0,,0,,ACTIVE,Missing Documents,Potential,,,,,,,,,,Assignment,,
,,,SKA002,AG00272,Abdelhakim Awad,CS031391,شركة الصخري العربيه التجاريه1,,,,,,,2,WED,29.98293,40.20757,"311,247,698,700,003","7,011,568,438",,2025-10-08,0,,0,,ACTIVE,Missing Documents,Potential,,,,,,,,,,Assignment,,
,,,SKA002,AG00272,Abdelhakim Awad,CS031392,شركة الصخري العربية التجارية,,,,,,,2,SUN,29.94566,40.21822,"311,247,698,700,003","7,011,568,438",,2025-10-08,0,,0,,ACTIVE,Missing Documents,Potential,,,,,,,,,,Assignment,,
,,,SKA002,AG00272,Abdelhakim Awad,CS031393,شركه فخر سكاكا التجاريه,,,,,,,2,SUN,29.94915,40.21314,0,"440,110,379,784",,2025-10-08,0,,0,,ACTIVE,Missing Documents,Potential,,,,,,,,,,Assignment,,
