Area,Region,City,Zone,AgentId,AgentName,CusId,CusName,BuyerPhone,ReceiverPhone,FinancePhone,CH,SubChannel,F,StartWeeks,Days,Latitude,Longitude,VAT,CR,BL,createdDate,TotalDeliveredOrders,PaymentType,CreditDays,CreditLimit,Status,Validation,CreationType,CheckIn,CRExpiryDate,BLExpiryDate,StreetName,DistrictName,AdditionalNum,ZipCode,BuildingNumber,DC,AssignmentType,Geocode Quality,Full Corrected Address
,,,HAS002,,,CS021250,Primo Talayah,,,,,,,2,SUN,25.36350,49.56861,"300,000,603,210,003","1,010,451,298",,2025-02-24,0,,0,500.0000000,ACTIVE,Missing Documents,Potential,Required,,,,,,,,,Zone,,
,,,HAS002,,,CS021251,ارسا الاحساء,,,,,,,2,THU,25.31414,49.56118,"310,073,846,600,003","40,102,477,986",,2025-02-24,0,,0,500.0000000,ACTIVE,Missing Documents,Potential,Required,,,,,,,,,Zone,,
,,,HAS002,,,CS021256,اسواق الامانة,,,,,,,2,MON,25.34686,49.56036,"311,372,526,700,003","2,250,053,619",,2025-02-24,0,,0,500.0000000,ACTIVE,Missing Documents,Potential,Required,,,,,,,,,Zone,,
,,,HAS002,,,CS021263,اسواق بيت الفريج للمواد الغذائية,,,,,,,1,THU,25.35770,49.74255,"300,443,782,800,003","4,006,206,038",,2025-02-24,0,,0,500.0000000,ACTIVE,Missing Documents,Potential,Required,,,,,,,,,Zone,,
,,,HAS002,,,CS021266,اسواق جنى,,,,,,,2,SAT,25.28421,49.77730,"300,555,471,300,003","2,250,050,852",,2025-02-24,0,,0,500.0000000,ACTIVE,Missing Documents,Potential,Required,,,,,,,,,Zone,,
,,,HAS002,,,CS021269,اسواق دانه الجامعين,,,,,,,2,WED,25.31152,49.58277,"300,682,685,600,003","450,112,871,429",,2025-02-24,0,,0,500.0000000,ACTIVE,Missing Documents,Potential,Required,,,,,,,,,Zone,,
,,,HAS002,,,CS021270,اسواق سلة الطريق,,,,,,,2,THU,25.30816,49.55700,"311,631,501,400,003","2,251,498,616",,2025-02-24,0,,0,500.0000000,ACTIVE,Missing Documents,Potential,Required,,,,,,,,,Zone,,
,,,HAS002,,,CS021271,اسواق سلة هجر,,,,,,,2,WED,25.33353,49.57621,"300,428,343,300,003","2,251,115,249",,2025-02-24,0,,0,500.0000000,ACTIVE,Missing Documents,Potential,Required,,,,,,,,,Zone,,
,,,HAS002,,,CS021272,اسواق سله الطريق,,,,,,,2,SAT,25.34231,49.61759,"311,631,501,400,003","2,251,498,616",,2025-02-24,0,,0,500.0000000,ACTIVE,Missing Documents,Potential,Required,,,,,,,,,Zone,,
,,,HAS002,,,CS021275,اسواق شموخ العربية,,,,,,,1,THU,25.38222,49.73082,"310,781,520,700,003","1,010,669,143",,2025-02-24,0,,0,500.0000000,ACTIVE,Missing Documents,Potential,Required,,,,,,,,,Zone,,
,,,HAS002,,,CS021276,اسواق صالح عوض الجعيدي التجاريه,,,,,,,2,MON,25.34188,49.55553,"302,195,742,400,003","3,909,455,945",,2025-02-24,0,,0,500.0000000,ACTIVE,Missing Documents,Potential,Required,,,,,,,,,Zone,,
,,,HAS002,,,CS021277,اسواق عالم الماس,,,,,,,2,TUE,25.34039,49.58435,"300,576,496,100,003","3,909,458,599",,2025-02-24,0,,0,500.0000000,ACTIVE,Missing Documents,Potential,Required,,,,,,,,,Zone,,
,,,HAS002,,,CS021281,اسواق محاسن المركزية  1,,,,,,,1,MON,25.36951,49.60293,"300,377,309,100,003","2,252,004,640",,2025-02-24,0,,0,500.0000000,ACTIVE,Missing Documents,Potential,Required,,,,,,,,,Zone,,
,,,HAS002,,,CS021286,اسواق مؤونه هجر المركزيه,,,,,,,1,SUN,25.35429,49.57754,"312,361,070,500,003","2,031,116,570",,2025-02-24,0,,0,500.0000000,ACTIVE,Missing Documents,Potential,Required,,,,,,,,,Zone,,
,,,HAS002,,,CS021288,اسواق ميدان الصفا التجارية ٢,,,,,,,1,WED,25.38048,49.67428,"311,265,646,900,003","2,031,106,300",,2025-02-24,0,,0,500.0000000,ACTIVE,Missing Documents,Potential,Required,,,,,,,,,Zone,,
,,,HAS002,,,CS021289,اسواق نجمة عواد,,,,,,,1,MON,25.35613,49.60637,"312,032,833,300,003","7,038,133,950",,2025-02-24,0,,0,500.0000000,ACTIVE,Missing Documents,Potential,Required,,,,,,,,,Zone,,
,,,HAS002,,,CS021290,اسواق نجمه عواد المركزيه,,,,,,,1,SAT,25.35683,49.59230,"312,032,833,300,003","7,038,133,950",,2025-02-24,0,,0,500.0000000,ACTIVE,Missing Documents,Potential,Required,,,,,,,,,Zone,,
,,,HAS002,,,CS021292,اسواق نجوم محاسن 3,,,,,,,2,THU,25.31131,49.56373,"311,345,637,600,003","2,251,496,845",,2025-02-24,0,,0,500.0000000,ACTIVE,Missing Documents,Potential,Required,,,,,,,,,Zone,,
,,,HAS002,,,CS021294,اسواق وتموينات نوره,,,,,,,2,MON,25.33993,49.56078,"311,072,954,600,003","7,026,310,727",,2025-02-24,0,,0,500.0000000,ACTIVE,Missing Documents,Potential,Required,,,,,,,,,Zone,,
,,,HAS002,,,CS021295,اسواق ومخابز كيف الاصالة,,,,,,,2,MON,25.34200,49.55559,"310,599,124,800,003","2,252,103,276",,2025-02-24,0,,0,500.0000000,ACTIVE,Missing Documents,Potential,Required,,,,,,,,,Zone,,
,,,HAS002,,,CS021296,الريف وان,,,,,,,1,MON,25.37060,49.61131,"311,417,280,500,003","450,614,250,003",,2025-02-24,0,,0,500.0000000,ACTIVE,Missing Documents,Potential,Required,,,,,,,,,Zone,,
,,,HAS002,,,CS021298,السلال النادرة,,,,,,,1,MON,25.35030,49.60636,"300,088,895,500,003","2,251,101,691",,2025-02-24,0,,0,500.0000000,ACTIVE,Missing Documents,Potential,Required,,,,,,,,,Zone,,
,,,HAS002,,,CS021299,الشامي للتموينات بالجملة - خيرية خليفه السعيد,,,,,,,1,SAT,25.36429,49.59209,"300,509,434,200,003","2,251,011,844",,2025-02-24,0,,0,500.0000000,ACTIVE,Missing Documents,Potential,Required,,,,,,,,,Zone,,
,,,HAS002,,,CS021300,العاصمة البندارية,,,,,,,2,WED,25.33531,49.56829,"300,428,343,300,003","2,251,115,249",,2025-02-24,0,,0,500.0000000,ACTIVE,Missing Documents,Potential,Required,,,,,,,,,Zone,,
,,,HAS002,,,CS021302,المركز الوطنى,,,,,,,1,THU,25.37649,49.72327,"300,601,767,200,003","2,250,051,381",,2025-02-24,0,,0,500.0000000,ACTIVE,Missing Documents,Potential,Required,,,,,,,,,Zone,,
,,,HAS002,,,CS021306,أسواق أنوار العاصمة للمواد الغذائية,,,,,,,2,WED,25.32064,49.57826,"300,428,343,300,003","2,251,115,249",,2025-02-24,0,,0,500.0000000,ACTIVE,Missing Documents,Potential,Required,,,,,,,,,Zone,,
,,,HAS002,,,CS021307,أسواق جراند العاصمه,,,,,,,1,SAT,25.35448,49.59724,"300,428,343,300,003","2,251,504,140",,2025-02-24,0,,0,500.0000000,ACTIVE,Missing Documents,Potential,Required,,,,,,,,,Zone,,
,,,HAS002,,,CS021311,أسواق زين العابدين للتجارة,,,,,,,1,THU,25.36301,49.72774,"310,710,514,600,003","3,909,473,292",,2025-02-24,0,,0,500.0000000,ACTIVE,Missing Documents,Potential,Required,,,,,,,,,Zone,,
,,,HAS002,,,CS021312,أسواق سما السعاده للمواد الغذائية,,,,,,,2,THU,25.29934,49.55374,"311,012,481,900,003","441,212,531,310",,2025-02-24,0,,0,500.0000000,ACTIVE,Missing Documents,Potential,Required,,,,,,,,,Zone,,
,,,HAS002,,,CS021313,أسواق نجمه غيوم للتجارة,,,,,,,2,THU,25.33314,49.56484,"311,598,489,700,003","2,251,503,996",,2025-02-24,0,,0,500.0000000,ACTIVE,Missing Documents,Potential,Required,,,,,,,,,Zone,,
,,,HAS002,,,CS021316,بفاله تولين للمواد الغذائيه,,,,,,,1,MON,25.36949,49.60298,"305,006,461,400,003","7,016,576,915",,2025-02-24,0,,0,500.0000000,ACTIVE,Missing Documents,Potential,Required,,,,,,,,,Zone,,
,,,HAS002,,,CS021330,بقالة خيرات الناس للمواد الغذائية,,,,,,,1,WED,25.38113,49.66486,"302,056,492,100,003","2,252,104,779",,2025-02-24,0,,0,500.0000000,ACTIVE,Missing Documents,Potential,Required,,,,,,,,,Zone,,
,,,HAS002,,,CS021331,بقالة دالة الطرف للمواد الغذائية,,,,,,,1,THU,25.35826,49.73781,"310,601,756,200,003","3,909,475,955",,2025-02-24,0,,0,500.0000000,ACTIVE,Missing Documents,Potential,Required,,,,,,,,,Zone,,
,,,HAS002,,,CS021336,بقالة رحمه مشرف الزهراني,,,,,,,2,MON,25.34489,49.56211,"300,502,026,700,003","1,038,912,133",,2025-02-24,0,,0,500.0000000,ACTIVE,Missing Documents,Potential,Required,,,,,,,,,Zone,,
,,,HAS002,,,CS021338,بقالة زهرة العزيزية للمواد الغذائية,,,,,,,2,WED,25.33409,49.57365,"311,353,459,800,003","2,251,492,021",,2025-02-24,0,,0,500.0000000,ACTIVE,Missing Documents,Potential,Required,,,,,,,,,Zone,,
,,,HAS002,,,CS021343,بقالة عدنان يوسف البطيان للمواد الغذائية,,,,,,,1,WED,25.35075,49.64029,"305,005,598,900,003","2,251,454,789",,2025-02-24,0,,0,500.0000000,ACTIVE,Missing Documents,Potential,Required,,,,,,,,,Zone,,
,,,HAS002,,,CS021348,بقالة فاطمة عيسي 2,,,,,,,2,WED,25.33708,49.56804,"311,157,068,800,003","2,251,504,689",,2025-02-24,0,,0,500.0000000,ACTIVE,Missing Documents,Potential,Required,,,,,,,,,Zone,,
,,,HAS002,,,CS021355,بقالة محمد عيسى الجمعان للمواد الغذائية,,,,,,,1,THU,25.37511,49.71995,"310,166,849,300,003","3,909,442,767",,2025-02-24,0,,0,500.0000000,ACTIVE,Missing Documents,Potential,Required,,,,,,,,,Zone,,
,,,HAS002,,,CS021357,بقالة مروج الاحساء,,,,,,,2,THU,25.31236,49.56324,"311,453,185,200,003","2,031,115,024",,2025-02-24,0,,0,500.0000000,ACTIVE,Missing Documents,Potential,Required,,,,,,,,,Zone,,
,,,HAS002,,,CS021365,بقالة نوال بنت عبدالله بن محمد الخميس للمواد الغذا,,,,,,,1,SUN,25.36156,49.58469,"310,219,216,600,003","4,006,204,873",,2025-02-24,0,,0,500.0000000,ACTIVE,Missing Documents,Potential,Required,,,,,,,,,Zone,,
,,,HAS002,,,CS021368,بقالة واحة غذاء للمواد الغذائية,,,,,,,2,SUN,25.35137,49.56004,"311,263,251,100,003","440,210,568,482",,2025-02-24,0,,0,500.0000000,ACTIVE,Missing Documents,Potential,Required,,,,,,,,,Zone,,
,,,HAS002,,,CS021371,بقاله الزاويه للمواد الغذائيه,,,,,,,2,TUE,25.33441,49.58889,"300,569,394,200,003","2,252,065,277",,2025-02-24,0,,0,500.0000000,ACTIVE,Missing Documents,Potential,Required,,,,,,,,,Zone,,
,,,HAS002,,,CS021372,بقاله النجمه ماهر,,,,,,,1,SAT,25.36547,49.59871,"305,000,704,500,003","1,029,877,857",,2025-02-24,0,,0,500.0000000,ACTIVE,Missing Documents,Potential,Required,,,,,,,,,Zone,,
,,,HAS002,,,CS021376,بقاله سائغ البدره للمواد الغذائيه,,,,,,,2,SUN,25.36335,49.56527,"300,392,877,400,003","40,102,480,061",,2025-02-24,0,,0,500.0000000,ACTIVE,Missing Documents,Potential,Required,,,,,,,,,Zone,,
,,,HAS002,,,CS021380,بقاله عدنان,,,,,,,1,MON,25.36138,49.60998,"311,220,294,500,003","2,251,500,901",,2025-02-24,0,,0,500.0000000,ACTIVE,Missing Documents,Potential,Required,,,,,,,,,Zone,,
,,,HAS002,,,CS021383,بقاله واحه سهله,,,,,,,1,THU,25.35647,49.74182,"310,057,636,600,003","3,909,445,744",,2025-02-24,0,,0,500.0000000,ACTIVE,Missing Documents,Potential,Required,,,,,,,,,Zone,,
,,,HAS002,,,CS021384,بقاله يوسف بن علي بن يوسف العلي,,,,,,,1,TUE,25.35795,49.63298,"300,506,944,300,003","7,026,653,998",,2025-02-24,0,,0,500.0000000,ACTIVE,Missing Documents,Potential,Required,,,,,,,,,Zone,,
,,,HAS002,,,CS021386,بوفية هيا سعد بن مهدي العجمي لتقديم الوجبات,,,,,,,2,WED,25.32127,49.58440,"310,386,163,100,003","2,031,105,151",,2025-02-24,0,,0,500.0000000,ACTIVE,Missing Documents,Potential,Required,,,,,,,,,Zone,,
,,,HAS002,,,CS021387,تابع لمؤسسة هلال الشرقية القطرية للمواد الغذائية 2,,,,,,,1,SAT,25.35067,49.59476,"300,690,995,600,003","2,251,051,902",,2025-02-24,0,,0,500.0000000,ACTIVE,Missing Documents,Potential,Required,,,,,,,,,Zone,,
,,,HAS002,,,CS021389,تمرينات الزهره,,,,,,,2,WED,25.32337,49.57787,"311,631,504,100,003","2,254,198,616",,2025-02-24,0,,0,500.0000000,ACTIVE,Missing Documents,Potential,Required,,,,,,,,,Zone,,
,,,HAS002,,,CS021390,تمرينات سله السلسلة للمواد الغذائية,,,,,,,2,TUE,25.33010,49.59414,"300,435,368,600,003","3,909,443,189",,2025-02-24,0,,0,500.0000000,ACTIVE,Missing Documents,Potential,Required,,,,,,,,,Zone,,
,,,HAS002,,,CS021391,تمرينات لؤلؤه الامتياز,,,,,,,2,WED,25.32429,49.57760,"310,790,961,100,003","2,251,503,522",,2025-02-24,0,,0,500.0000000,ACTIVE,Missing Documents,Potential,Required,,,,,,,,,Zone,,
,,,HAS002,,,CS021392,تموينات  خدمة الزبون,,,,,,,2,SAT,25.33631,49.61409,"310,033,811,800,003","2,050,219,309",,2025-02-24,0,,0,500.0000000,ACTIVE,Missing Documents,Potential,Required,,,,,,,,,Zone,,
,,,HAS002,,,CS021393,تموينات  دائرى السلمانية,,,,,,,2,MON,25.34536,49.54764,"300,518,585,300,003","2,251,493,021",,2025-02-24,0,,0,500.0000000,ACTIVE,Missing Documents,Potential,Required,,,,,,,,,Zone,,
,,,HAS002,,,CS021394,تموينات  دلال للمواد الغذائية,,,,,,,1,SUN,25.35047,49.57981,"311,664,992,700,003","1,109,509,982",,2025-02-24,0,,0,500.0000000,ACTIVE,Missing Documents,Potential,Required,,,,,,,,,Zone,,
,,,HAS002,,,CS021401,تموينات احمد بن ناصر,,,,,,,1,SUN,25.36300,49.58504,"301,373,779,600,003","43,047,935,201",,2025-02-24,0,,0,500.0000000,ACTIVE,Missing Documents,Potential,Required,,,,,,,,,Zone,,
,,,HAS002,,,CS021404,تموينات اصيلان,,,,,,,1,WED,25.35269,49.63835,"310,236,690,100,003","1,010,657,195",,2025-02-24,0,,0,500.0000000,ACTIVE,Missing Documents,Potential,Required,,,,,,,,,Zone,,
,,,HAS002,,,CS021408,تموينات الأجيال,,,,,,,1,SAT,25.36681,49.59154,"310,124,051,600,003","2,250,160,409",,2025-02-24,0,,0,500.0000000,ACTIVE,Missing Documents,Potential,Required,,,,,,,,,Zone,,
,,,HAS002,,,CS021410,تموينات البستان للمواد الغذائية,,,,,,,1,THU,25.35754,49.72463,"300,975,367,300,003","3,909,671,310",,2025-02-24,0,,0,500.0000000,ACTIVE,Missing Documents,Potential,Required,,,,,,,,,Zone,,
,,,HAS002,,,CS021414,تموينات الثريا مود للمواد الغذائية,,,,,,,1,WED,25.36686,49.66928,"310,491,609,500,003","1,122,102,399",,2025-02-24,0,,0,500.0000000,ACTIVE,Missing Documents,Potential,Required,,,,,,,,,Zone,,
,,,HAS002,,,CS021416,تموينات الجواد للمواد الغذائية,,,,,,,1,SAT,25.37261,49.59703,"310,358,720,800,003","2,031,103,565",,2025-02-24,0,,0,500.0000000,ACTIVE,Missing Documents,Potential,Required,,,,,,,,,Zone,,
,,,HAS002,,,CS021423,تموينات الدائري,,,,,,,2,SUN,25.35990,49.56042,"300,468,428,200,003","2,031,102,319",,2025-02-24,0,,0,500.0000000,ACTIVE,Missing Documents,Potential,Required,,,,,,,,,Zone,,
,,,HAS002,,,CS021428,تموينات السلمانية للمواد الغذائية,,,,,,,2,SUN,25.34967,49.55961,"311,666,016,900,003","44,121,511,095",,2025-02-24,0,,0,500.0000000,ACTIVE,Missing Documents,Potential,Required,,,,,,,,,Zone,,
,,,HAS002,,,CS021429,تموينات السواني للمواد الغذائية,,,,,,,2,TUE,25.33328,49.59542,"311,089,701,800,003","2,251,500,054",,2025-02-24,0,,0,500.0000000,ACTIVE,Missing Documents,Potential,Required,,,,,,,,,Zone,,
,,,HAS002,,,CS021430,تموينات الشراع الابيض للمواد الغذائية,,,,,,,2,TUE,25.34097,49.58584,"311,107,751,200,003","2,251,499,175",,2025-02-24,0,,0,500.0000000,ACTIVE,Missing Documents,Potential,Required,,,,,,,,,Zone,,
,,,HAS002,,,CS021431,تموينات الشراع الاخضر للمواد الغذائية,,,,,,,2,TUE,25.33654,49.58787,"301,291,783,400,003","2,251,044,802",,2025-02-24,0,,0,500.0000000,ACTIVE,Missing Documents,Potential,Required,,,,,,,,,Zone,,
,,,HAS002,,,CS021435,تموينات الفرسان خمسة للجارة,,,,,,,2,THU,25.29864,49.54512,"300,440,036,500,003","450,212,957,258",,2025-02-24,0,,0,500.0000000,ACTIVE,Missing Documents,Potential,Required,,,,,,,,,Zone,,
,,,HAS002,,,CS021437,تموينات الليالى للمواد الغذائية,,,,,,,2,SUN,25.35137,49.56987,"311,012,323,100,003","4,212,599,518",,2025-02-24,0,,0,500.0000000,ACTIVE,Missing Documents,Potential,Required,,,,,,,,,Zone,,
,,,HAS002,,,CS021442,تموينات المعالي للمواد الغذائية,,,,,,,1,WED,25.35564,49.63928,"300,486,923,200,003","2,251,068,359",,2025-02-24,0,,0,500.0000000,ACTIVE,Missing Documents,Potential,Required,,,,,,,,,Zone,,
,,,HAS002,,,CS021447,تموينات النجوم المضيئة للمواد الغذائية,,,,,,,1,TUE,25.35888,49.62966,"302,071,386,100,003","2,251,495,580",,2025-02-24,0,,0,500.0000000,ACTIVE,Missing Documents,Potential,Required,,,,,,,,,Zone,,
,,,HAS002,,,CS021448,تموينات الوطنية للمواد الغذائية,,,,,,,1,SUN,25.35925,49.57783,"300,601,767,200,003","2,031,100,988",,2025-02-24,0,,0,500.0000000,ACTIVE,Missing Documents,Potential,Required,,,,,,,,,Zone,,
,,,HAS002,,,CS021450,تموينات ايدام العافيه للمواد الغذائيه,,,,,,,1,SAT,25.36837,49.58975,"300,457,128,800,003","450,814,806,189",,2025-02-24,0,,0,500.0000000,ACTIVE,Missing Documents,Potential,Required,,,,,,,,,Zone,,
,,,HAS002,,,CS021451,تموينات ايناس الخير للمواد الغذائية,,,,,,,2,WED,25.30550,49.58319,"311,879,603,300,003","2,251,505,839",,2025-02-24,0,,0,500.0000000,ACTIVE,Missing Documents,Potential,Required,,,,,,,,,Zone,,
,,,HAS002,,,CS021453,تموينات أريج العارض,,,,,,,2,THU,25.32776,49.55281,"302,196,928,900,003","2,031,103,005",,2025-02-24,0,,0,500.0000000,ACTIVE,Missing Documents,Potential,Required,,,,,,,,,Zone,,
,,,HAS002,,,CS021457,تموينات باب الحوائج للمواد الغذائية,,,,,,,1,MON,25.36593,49.61050,"310,414,464,100,003","1,075,180,461",,2025-02-24,0,,0,500.0000000,ACTIVE,Missing Documents,Potential,Required,,,,,,,,,Zone,,
,,,HAS002,,,CS021458,تموينات باب الحوراء للمواد الغذائية,,,,,,,1,MON,25.34977,49.61575,"310,729,814,200,003","42,034,120,702",,2025-02-24,0,,0,500.0000000,ACTIVE,Missing Documents,Potential,Required,,,,,,,,,Zone,,
,,,HAS002,,,CS021459,تموينات بركة الارزاق للمواد الغذائية,,,,,,,2,WED,25.32363,49.57403,"311,554,137,900,003","2,031,103,777",,2025-02-24,0,,0,500.0000000,ACTIVE,Missing Documents,Potential,Required,,,,,,,,,Zone,,
,,,HAS002,,,CS021465,تموينات بوابة عابر للمواد الغذائية,,,,,,,2,MON,25.34435,49.55615,"310,378,911,300,003","2,251,501,559",,2025-02-24,0,,0,500.0000000,ACTIVE,Missing Documents,Potential,Required,,,,,,,,,Zone,,
,,,HAS002,,,CS021466,تموينات بيت الحارة,,,,,,,2,WED,25.32089,49.58616,"310,345,759,200,003","2,251,494,196",,2025-02-24,0,,0,500.0000000,ACTIVE,Missing Documents,Potential,Required,,,,,,,,,Zone,,
,,,HAS002,,,CS021468,تموينات بيتنا الجميل,,,,,,,1,WED,25.37870,49.67575,"300,566,773,100,003","2,250,160,822",,2025-02-24,0,,0,500.0000000,ACTIVE,Missing Documents,Potential,Required,,,,,,,,,Zone,,
,,,HAS002,,,CS021471,تموينات تموينات شهد للمواد الغذائية,,,,,,,2,THU,25.32753,49.55687,"311,371,948,100,003","2,251,504,312",,2025-02-24,0,,0,500.0000000,ACTIVE,Missing Documents,Potential,Required,,,,,,,,,Zone,,
,,,HAS002,,,CS021472,تموينات ثمانية وتسعين للمواد الغذائية,,,,,,,2,MON,25.34447,49.56904,"311,836,064,600,003","2,031,113,333",,2025-02-24,0,,0,500.0000000,ACTIVE,Missing Documents,Potential,Required,,,,,,,,,Zone,,
,,,HAS002,,,CS021473,تموينات ثمرات النسيم للمواد الغذائية,,,,,,,2,WED,25.32736,49.57849,"310,736,799,800,003","7,008,151,636",,2025-02-24,0,,0,500.0000000,ACTIVE,Missing Documents,Potential,Required,,,,,,,,,Zone,,
,,,HAS002,,,CS021474,تموينات جار الله عبدالله جار الله المري للمواد الغ,,,,,,,2,SAT,25.28372,49.77680,"311,501,226,100,003","2,250,376,204",,2025-02-24,0,,0,500.0000000,ACTIVE,Missing Documents,Potential,Required,,,,,,,,,Zone,,
,,,HAS002,,,CS021477,تموينات جود هجر للمواد الغذائية,,,,,,,2,WED,25.33198,49.58255,"310,245,073,700,003","2,031,113,646",,2025-02-24,0,,0,500.0000000,ACTIVE,Missing Documents,Potential,Required,,,,,,,,,Zone,,
,,,HAS002,,,CS021484,تموينات خدمة الطريق,,,,,,,1,SUN,25.34471,49.58237,"312,150,658,300,003","2,251,506,969",,2025-02-24,0,,0,500.0000000,ACTIVE,Missing Documents,Potential,Required,,,,,,,,,Zone,,
,,,HAS002,,,CS021487,تموينات درة الاهالي للمواد الغذائية,,,,,,,1,SAT,25.36226,49.58913,"310,866,043,700,003","2,031,103,836",,2025-02-24,0,,0,500.0000000,ACTIVE,Missing Documents,Potential,Required,,,,,,,,,Zone,,
,,,HAS002,,,CS021490,تموينات درة الطريق  1,,,,,,,2,MON,25.34176,49.54812,"302,173,816,500,003","2,251,502,665",,2025-02-24,0,,0,500.0000000,ACTIVE,Missing Documents,Potential,Required,,,,,,,,,Zone,,
,,,HAS002,,,CS021491,تموينات درة الطريق  2,,,,,,,2,MON,25.34182,49.54828,"302,173,816,500,003","2,251,502,665",,2025-02-24,0,,0,500.0000000,ACTIVE,Missing Documents,Potential,Required,,,,,,,,,Zone,,
,,,HAS002,,,CS021492,تموينات درة الظفرة للمواد الغذائية,,,,,,,2,THU,25.28377,49.56107,"310,414,497,800,003","2,251,493,543",,2025-02-24,0,,0,500.0000000,ACTIVE,Missing Documents,Potential,Required,,,,,,,,,Zone,,
,,,HAS002,,,CS021494,تموينات دره الدانه,,,,,,,1,SAT,25.36827,49.58769,"310,200,540,400,003","3,909,456,044",,2025-02-24,0,,0,500.0000000,ACTIVE,Missing Documents,Potential,Required,,,,,,,,,Zone,,
,,,HAS002,,,CS021498,تموينات ربيع الشهابيه للمواد الغذائية,,,,,,,1,TUE,25.36154,49.62357,0,"450,313,250,153",,2025-02-24,0,,0,500.0000000,ACTIVE,Missing Documents,Potential,Required,,,,,,,,,Zone,,
,,,HAS002,,,CS021502,تموينات ركن الطرف للمواد الغذائية,,,,,,,1,THU,25.35845,49.74323,"311,025,426,900,003","4,211,586,403",,2025-02-24,0,,0,500.0000000,ACTIVE,Missing Documents,Potential,Required,,,,,,,,,Zone,,
,,,HAS002,,,CS021503,تموينات ركن سعد للتجارة,,,,,,,2,MON,25.33931,49.54930,"300,510,602,600,003","2,251,048,236",,2025-02-24,0,,0,500.0000000,ACTIVE,Missing Documents,Potential,Required,,,,,,,,,Zone,,
,,,HAS002,,,CS021504,تموينات رهف,,,,,,,2,THU,25.32915,49.56365,"311,531,757,300,003","2,251,115,053",,2025-02-24,0,,0,500.0000000,ACTIVE,Missing Documents,Potential,Required,,,,,,,,,Zone,,
,,,HAS002,,,CS021505,تموينات رود مارت  1,,,,,,,2,THU,25.31214,49.55573,"310,470,397,500,003","7,016,392,636",,2025-02-24,0,,0,500.0000000,ACTIVE,Missing Documents,Potential,Required,,,,,,,,,Zone,,
,,,HAS002,,,CS021506,تموينات رود مارت  2,,,,,,,1,WED,25.34932,49.65238,"310,470,397,500,003","7,016,392,636",,2025-02-24,0,,0,500.0000000,ACTIVE,Missing Documents,Potential,Required,,,,,,,,,Zone,,
,,,HAS002,,,CS021509,تموينات ريبن ماركت,,,,,,,2,MON,25.34316,49.55763,"300,503,866,700,003","2,251,497,797",,2025-02-24,0,,0,500.0000000,ACTIVE,Missing Documents,Potential,Required,,,,,,,,,Zone,,
,,,HAS002,,,CS021511,تموينات زاوية سلة المحدود للمواد الغذائية,,,,,,,1,TUE,25.35397,49.63377,"311,610,646,500,003","2,251,504,187",,2025-02-24,0,,0,500.0000000,ACTIVE,Missing Documents,Potential,Required,,,,,,,,,Zone,,
,,,HAS002,,,CS021512,تموينات زكي منصور ابو حوهر,,,,,,,2,THU,25.32704,49.56027,"300,660,099,800,003","2,250,062,858",,2025-02-24,0,,0,500.0000000,ACTIVE,Missing Documents,Potential,Required,,,,,,,,,Zone,,
,,,HAS002,,,CS021515,تموينات سعيد العلي,,,,,,,1,MON,25.36821,49.60369,"311,600,033,700,003","2,031,111,642",,2025-02-24,0,,0,500.0000000,ACTIVE,Missing Documents,Potential,Required,,,,,,,,,Zone,,
,,,HAS002,,,CS021516,تموينات سعيد العلي للمواد الغذائية,,,,,,,1,MON,25.36889,49.60390,"311,600,033,700,003","2,031,111,642",,2025-02-24,0,,0,500.0000000,ACTIVE,Missing Documents,Potential,Required,,,,,,,,,Zone,,
,,,HAS002,,,CS021517,تموينات سكة الحارة للمواد الغذائية,,,,,,,2,TUE,25.33894,49.59260,"310,048,350,300,003","41,123,651,215",,2025-02-24,0,,0,500.0000000,ACTIVE,Missing Documents,Potential,Required,,,,,,,,,Zone,,
,,,HAS002,,,CS021519,تموينات سلة الاحساء التجارية,,,,,,,1,MON,25.35701,49.61004,"311,369,758,400,003","2,031,100,057",,2025-02-24,0,,0,500.0000000,ACTIVE,Missing Documents,Potential,Required,,,,,,,,,Zone,,
,,,HAS002,,,CS021521,تموينات سلة الغذاء الذهبية للمواد الغذائية,,,,,,,1,SUN,25.35991,49.57967,"310,344,353,200,003","3,909,443,281",,2025-02-24,0,,0,500.0000000,ACTIVE,Missing Documents,Potential,Required,,,,,,,,,Zone,,
,,,HAS002,,,CS021524,تموينات سله مهره للمواد الغذائية,,,,,,,1,TUE,25.35826,49.62777,"312,045,953,200,003","2,031,114,962",,2025-02-24,0,,0,500.0000000,ACTIVE,Missing Documents,Potential,Required,,,,,,,,,Zone,,
,,,HAS002,,,CS021525,تموينات سله نور للمواد الغذائية,,,,,,,1,WED,25.34927,49.65057,"300,626,584,900,003","440,711,536,610",,2025-02-24,0,,0,500.0000000,ACTIVE,Missing Documents,Potential,Required,,,,,,,,,Zone,,
,,,HAS002,,,CS021527,تموينات سماسم للمواد الغذائية,,,,,,,2,THU,25.33439,49.55502,0,"441,112,395,790",,2025-02-24,0,,0,500.0000000,ACTIVE,Missing Documents,Potential,Required,,,,,,,,,Zone,,
,,,HAS002,,,CS021531,تموينات شعاع المجد للمواد الغذائية,,,,,,,2,THU,25.33270,49.55115,"311,825,621,300,003","2,251,506,255",,2025-02-24,0,,0,500.0000000,ACTIVE,Missing Documents,Potential,Required,,,,,,,,,Zone,,
,,,HAS002,,,CS021537,تموينات طلائع هلا للمواد الغذائية,,,,,,,2,WED,25.30815,49.58832,"310,556,846,600,003","2,031,200,805",,2025-02-24,0,,0,500.0000000,ACTIVE,Missing Documents,Potential,Required,,,,,,,,,Zone,,
,,,HAS002,,,CS021538,تموينات طيبة  4,,,,,,,2,TUE,25.30828,49.60786,"310,349,118,200,003","2,251,495,286",,2025-02-24,0,,0,500.0000000,ACTIVE,Missing Documents,Potential,Required,,,,,,,,,Zone,,
,,,HAS002,,,CS021540,تموينات طيبة هجر,,,,,,,2,WED,25.33501,49.58273,"310,349,118,200,003","2,251,051,273",,2025-02-24,0,,0,500.0000000,ACTIVE,Missing Documents,Potential,Required,,,,,,,,,Zone,,
,,,HAS002,,,CS021541,تموينات طيبة هجر سوبر ماركت,,,,,,,2,THU,25.30512,49.54308,"310,349,118,200,003","2,251,493,598",,2025-02-24,0,,0,500.0000000,ACTIVE,Missing Documents,Potential,Required,,,,,,,,,Zone,,
,,,HAS002,,,CS021545,تموينات عربة الطريق,,,,,,,1,TUE,25.36015,49.63363,"311,108,091,600,003","2,250,069,050",,2025-02-24,0,,0,500.0000000,ACTIVE,Missing Documents,Potential,Required,,,,,,,,,Zone,,
,,,HAS002,,,CS021550,تموينات عزوز الزريق,,,,,,,1,TUE,25.35498,49.63043,0,"7,036,222,714",,2025-02-24,0,,0,500.0000000,ACTIVE,Missing Documents,Potential,Required,,,,,,,,,Zone,,
,,,HAS002,,,CS021555,تموينات علي عيسى احمد البدر,,,,,,,1,WED,25.35071,49.66037,0,"42,023,997,737",,2025-02-24,0,,0,500.0000000,ACTIVE,Missing Documents,Potential,Required,,,,,,,,,Zone,,
,,,HAS002,,,CS021557,تموينات غدير انور بن علي المبارك للمواد الغذائية,,,,,,,1,THU,25.37589,49.72410,"310,893,174,400,003","1,116,238,534",,2025-02-24,0,,0,500.0000000,ACTIVE,Missing Documents,Potential,Required,,,,,,,,,Zone,,
,,,HAS002,,,CS021558,تموينات غزيل سعود بن سعد الحربي للمواد الغذائية,,,,,,,1,SUN,25.35878,49.57967,"310,835,716,900,003","2,251,498,264",,2025-02-24,0,,0,500.0000000,ACTIVE,Missing Documents,Potential,Required,,,,,,,,,Zone,,
,,,HAS002,,,CS021559,تموينات غلة ثمار,,,,,,,2,SUN,25.34859,49.56007,"300,458,862,800,003","2,251,501,567",,2025-02-24,0,,0,500.0000000,ACTIVE,Missing Documents,Potential,Required,,,,,,,,,Zone,,
,,,HAS002,,,CS021564,تموينات فوز,,,,,,,1,MON,25.35818,49.61411,"300,999,382,100,003","2,251,494,794",,2025-02-24,0,,0,500.0000000,ACTIVE,Missing Documents,Potential,Required,,,,,,,,,Zone,,
,,,HAS002,,,CS021568,تموينات كرم السماء للمواد الغذائية,,,,,,,1,THU,25.35280,49.72465,"311,063,910,200,003","2,251,059,825",,2025-02-24,0,,0,500.0000000,ACTIVE,Missing Documents,Potential,Required,,,,,,,,,Zone,,
,,,HAS002,,,CS021570,تموينات كيان,,,,,,,2,WED,25.30832,49.59072,"311,196,556,100,003","2,050,141,257",,2025-02-24,0,,0,500.0000000,ACTIVE,Missing Documents,Potential,Required,,,,,,,,,Zone,,
,,,HAS002,,,CS021572,تموينات لطيفة عبد الله المسيلم,,,,,,,2,SUN,25.36183,49.56864,"311,323,902,900,003","2,031,100,231",,2025-02-24,0,,0,500.0000000,ACTIVE,Missing Documents,Potential,Required,,,,,,,,,Zone,,
,,,HAS002,,,CS021573,تموينات لؤلؤة الاحساء,,,,,,,2,WED,25.32203,49.58035,"310,275,588,900,003","2,050,031,336",,2025-02-24,0,,0,500.0000000,ACTIVE,Missing Documents,Potential,Required,,,,,,,,,Zone,,
,,,HAS002,,,CS021575,تموينات لؤلؤة الربوة,,,,,,,2,MON,25.34335,49.53364,"310,896,031,300,003","2,031,105,631",,2025-02-24,0,,0,500.0000000,ACTIVE,Missing Documents,Potential,Required,,,,,,,,,Zone,,
,,,HAS002,,,CS021580,تموينات مدينة رفيق,,,,,,,2,WED,25.31100,49.59713,"310,631,291,600,003","2,251,502,241",,2025-02-24,0,,0,500.0000000,ACTIVE,Missing Documents,Potential,Required,,,,,,,,,Zone,,
,,,HAS002,,,CS021581,تموينات مراسي الخيرات للمواد الغذائية,,,,,,,1,SAT,25.35969,49.59040,"311,100,894,200,003","2,251,053,693",,2025-02-24,0,,0,500.0000000,ACTIVE,Missing Documents,Potential,Required,,,,,,,,,Zone,,
,,,HAS002,,,CS021582,تموينات مركز صحارى,,,,,,,2,THU,25.32089,49.55382,"300,766,572,800,003","2,251,051,197",,2025-02-24,0,,0,500.0000000,ACTIVE,Missing Documents,Potential,Required,,,,,,,,,Zone,,
,,,HAS002,,,CS021583,تموينات مركز وقف,,,,,,,1,WED,25.37987,49.67483,"300,497,584,700,003","1,021,473,895",,2025-02-24,0,,0,500.0000000,ACTIVE,Missing Documents,Potential,Required,,,,,,,,,Zone,,
,,,HAS002,,,CS021584,تموينات مريم بنت عادل بن صالح الملحم للمواد الغذائ,,,,,,,2,THU,25.33897,49.56263,"310,476,515,700,003","2,031,102,569",,2025-02-24,0,,0,500.0000000,ACTIVE,Missing Documents,Potential,Required,,,,,,,,,Zone,,
,,,HAS002,,,CS021590,تموينات مقابل الحديقة,,,,,,,2,SUN,25.35232,49.56983,"310,467,615,400,003","1,010,615,058",,2025-02-24,0,,0,500.0000000,ACTIVE,Missing Documents,Potential,Required,,,,,,,,,Zone,,
,,,HAS002,,,CS021594,تموينات مؤونه بيتي للتجارة,,,,,,,2,MON,25.34155,49.53509,"311,080,876,700,003","43,089,490,073",,2025-02-24,0,,0,500.0000000,ACTIVE,Missing Documents,Potential,Required,,,,,,,,,Zone,,
,,,HAS002,,,CS021598,تموينات نايف عيسى بن فهد العويض,,,,,,,1,SUN,25.36234,49.57931,"300,831,098,100,003","3,909,455,596",,2025-02-24,0,,0,500.0000000,ACTIVE,Missing Documents,Potential,Required,,,,,,,,,Zone,,
,,,HAS002,,,CS021600,تموينات نجم السلام,,,,,,,2,SUN,25.35485,49.57228,"300,371,774,800,003","3,909,445,304",,2025-02-24,0,,0,500.0000000,ACTIVE,Missing Documents,Potential,Required,,,,,,,,,Zone,,
,,,HAS002,,,CS021601,تموينات نجم سلطان,,,,,,,1,SUN,25.34746,49.57998,"300,510,602,600,003","2,251,067,960",,2025-02-24,0,,0,500.0000000,ACTIVE,Missing Documents,Potential,Required,,,,,,,,,Zone,,
,,,HAS002,,,CS021602,تموينات نجمة توفي,,,,,,,1,SUN,25.35046,49.57985,"302,272,709,300,003","2,251,053,480",,2025-02-24,0,,0,500.0000000,ACTIVE,Missing Documents,Potential,Required,,,,,,,,,Zone,,
,,,HAS002,,,CS021607,تموينات نجوم العدوه,,,,,,,1,THU,25.34289,49.72366,"311,326,697,100,003","4,311,100,783",,2025-02-24,0,,0,500.0000000,ACTIVE,Missing Documents,Potential,Required,,,,,,,,,Zone,,
,,,HAS002,,,CS021609,تموينات ندى,,,,,,,1,MON,25.36349,49.61355,"300,467,859,900,003","2,251,063,886",,2025-02-24,0,,0,500.0000000,ACTIVE,Missing Documents,Potential,Required,,,,,,,,,Zone,,
,,,HAS002,,,CS021610,تموينات ندي,,,,,,,1,SUN,25.35779,49.58478,"300,467,859,900,003","2,251,036,312",,2025-02-24,0,,0,500.0000000,ACTIVE,Missing Documents,Potential,Required,,,,,,,,,Zone,,
,,,HAS002,,,CS021611,تموينات نسيم المنار للمواد الغذائية,,,,,,,1,TUE,25.35096,49.61705,"311,487,052,100,003","7,008,724,788",,2025-02-24,0,,0,500.0000000,ACTIVE,Missing Documents,Potential,Required,,,,,,,,,Zone,,
,,,HAS002,,,CS021612,تموينات نمشه,,,,,,,2,MON,25.34278,49.56877,"302,222,146,500,002","2,031,108,758",,2025-02-24,0,,0,500.0000000,ACTIVE,Missing Documents,Potential,Required,,,,,,,,,Zone,,
,,,HAS002,,,CS021614,تموينات نهر الخير للمواد الغذائية,,,,,,,2,WED,25.33254,49.58135,,"2,251,505,476",,2025-02-24,0,,0,500.0000000,ACTIVE,Missing Documents,Potential,Required,,,,,,,,,Zone,,
,,,HAS002,,,CS021615,تموينات نهر الكوثر للمواد الغذائية,,,,,,,1,TUE,25.35206,49.63398,"305,006,487,700,003","41,032,613,847",,2025-02-24,0,,0,500.0000000,ACTIVE,Missing Documents,Potential,Required,,,,,,,,,Zone,,
,,,HAS002,,,CS021616,تموينات نور الازدهار,,,,,,,2,THU,25.34231,49.46508,"305,005,351,000,003","2,031,107,823",,2025-02-24,0,,0,500.0000000,ACTIVE,Missing Documents,Potential,Required,,,,,,,,,Zone,,
,,,HAS002,,,CS021620,تموينات نور الفرقدين للمواد الغذائية,,,,,,,2,SAT,25.34613,49.62301,"310,600,782,300,003","2,251,496,873",,2025-02-24,0,,0,500.0000000,ACTIVE,Missing Documents,Potential,Required,,,,,,,,,Zone,,
,,,HAS002,,,CS021623,تموينات نورة ماركت,,,,,,,2,SUN,25.35458,49.55967,"310,467,615,400,003","1,010,615,058",,2025-02-24,0,,0,500.0000000,ACTIVE,Missing Documents,Potential,Required,,,,,,,,,Zone,,
,,,HAS002,,,CS021625,تموينات نوير للمواد الغذائية,,,,,,,2,MON,25.33972,49.55274,"300,510,602,600,003","2,251,064,687",,2025-02-24,0,,0,500.0000000,ACTIVE,Missing Documents,Potential,Required,,,,,,,,,Zone,,
,,,HAS002,,,CS021626,تموينات هلا هجر للمواد الغذائيه,,,,,,,1,SUN,25.35669,49.57743,"300,544,572,700,003","4,209,559,204",,2025-02-24,0,,0,500.0000000,ACTIVE,Missing Documents,Potential,Required,,,,,,,,,Zone,,
,,,HAS002,,,CS021628,تموينات واحة الريف للمواد الغذائية,,,,,,,1,WED,25.38133,49.66424,"300,497,584,700,003","1,021,473,895",,2025-02-24,0,,0,500.0000000,ACTIVE,Missing Documents,Potential,Required,,,,,,,,,Zone,,
,,,HAS002,,,CS021630,تموينات وورلد مارت,,,,,,,2,SAT,25.32262,49.64118,"311,631,501,400,003","7,021,683,037",,2025-02-24,0,,0,500.0000000,ACTIVE,Missing Documents,Potential,Required,,,,,,,,,Zone,,
,,,HAS002,,,CS021648,سحاب مارت,,,,,,,1,MON,25.35018,49.60656,"302,178,899,300,003","2,050,177,019",,2025-02-24,0,,0,500.0000000,ACTIVE,Missing Documents,Potential,Required,,,,,,,,,Zone,,
,,,HAS002,,,CS021650,سمه الديره,,,,,,,1,WED,25.37969,49.67518,"300,541,763,500,003","3,909,461,912",,2025-02-24,0,,0,500.0000000,ACTIVE,Missing Documents,Potential,Required,,,,,,,,,Zone,,
,,,HAS002,,,CS021656,شركة  امتياز  الوقود للتجارة 1,,,,,,,2,SAT,25.27751,49.73966,"302,007,556,300,003","2,251,167,691",,2025-02-24,0,,0,500.0000000,ACTIVE,Missing Documents,Potential,Required,,,,,,,,,Zone,,
,,,HAS002,,,CS021657,شركة  امتياز  الوقود للتجارة 2,,,,,,,2,SUN,25.35376,49.55972,"302,007,556,300,003","2,251,167,691",,2025-02-24,0,,0,500.0000000,ACTIVE,Missing Documents,Potential,Required,,,,,,,,,Zone,,
,,,HAS002,,,CS021658,شركة  امتياز  الوقود للتجارة 3,,,,,,,2,THU,25.31335,49.49112,"302,007,556,300,003","2,251,167,691",,2025-02-24,0,,0,500.0000000,ACTIVE,Missing Documents,Potential,Required,,,,,,,,,Zone,,
,,,HAS002,,,CS021662,شركة  امتياز  الوقود للتجارة 7,,,,,,,2,THU,25.33381,49.54918,"302,007,556,300,003","2,251,167,691",,2025-02-24,0,,0,500.0000000,ACTIVE,Missing Documents,Potential,Required,,,,,,,,,Zone,,
,,,HAS002,,,CS021664,شركة اضواء سهيل للمواد الغذائية,,,,,,,2,SAT,25.27688,49.74894,"311,309,544,800,003","2,050,056,375",,2025-02-24,0,,0,500.0000000,ACTIVE,Missing Documents,Potential,Required,,,,,,,,,Zone,,
,,,HAS002,,,CS021669,شركة الطير الذهبي,,,,,,,2,SAT,25.33027,49.63326,"311,642,098,100,003","7,031,101,772",,2025-02-24,0,,0,500.0000000,ACTIVE,Missing Documents,Potential,Required,,,,,,,,,Zone,,
,,,HAS002,,,CS021672,شركة أسواق ميدان الصفا التجارية,,,,,,,1,WED,25.37982,49.66813,"311,265,646,900,003","2,250,063,353",,2025-02-24,0,,0,500.0000000,ACTIVE,Missing Documents,Potential,Required,,,,,,,,,Zone,,
,,,HAS002,,,CS021673,شركة تموينات اسواق ومحامص الوسام الفضي للمواد الغذ,,,,,,,1,MON,25.36960,49.60325,"311,422,843,100,003","2,251,038,102",,2025-02-24,0,,0,500.0000000,ACTIVE,Missing Documents,Potential,Required,,,,,,,,,Zone,,
,,,HAS002,,,CS021675,شركة تموينات أجاويد الإحساء للمواد الغذائية,,,,,,,2,SUN,25.35983,49.56271,"311,376,880,600,003","40,082,139,463",,2025-02-24,0,,0,500.0000000,ACTIVE,Missing Documents,Potential,Required,,,,,,,,,Zone,,
,,,HAS002,,,CS021679,شركة غذاء المنطقة للتجارة - زون مارت 1,,,,,,,1,WED,25.36479,49.66575,"311,283,988,800,003","1,010,287,969",,2025-02-24,0,,0,500.0000000,ACTIVE,Missing Documents,Potential,Required,,,,,,,,,Zone,,
,,,HAS002,,,CS021680,شركة غذاء المنطقة للتجارة - زون مارت 2,,,,,,,2,SAT,25.27887,49.76872,"311,283,988,800,003","1,010,287,969",,2025-02-24,0,,0,500.0000000,ACTIVE,Missing Documents,Potential,Required,,,,,,,,,Zone,,
,,,HAS002,,,CS021686,شركة نجمة الحزم للمواد الغذائية,,,,,,,1,SUN,25.34953,49.57959,"311,356,631,200,003","1,010,485,540",,2025-02-24,0,,0,500.0000000,ACTIVE,Missing Documents,Potential,Required,,,,,,,,,Zone,,
,,,HAS002,,,CS021689,شركة نجوم محاسن للمواد الغذائية,,,,,,,1,TUE,25.35100,49.61927,"311,345,637,600,003","2,251,496,845",,2025-02-24,0,,0,500.0000000,ACTIVE,Missing Documents,Potential,Required,,,,,,,,,Zone,,
,,,HAS002,,,CS021691,شركة نرجس الغذائية التجارية 1,,,,,,,2,MON,25.34159,49.55370,"311,305,925,800,003","2,055,125,194",,2025-02-24,0,,0,500.0000000,ACTIVE,Missing Documents,Potential,Required,,,,,,,,,Zone,,
,,,HAS002,,,CS021695,شركة نور الطرف للمواد الغذائية,,,,,,,1,THU,25.36386,49.72412,"311,329,891,700,003","2,250,051,823",,2025-02-24,0,,0,500.0000000,ACTIVE,Missing Documents,Potential,Required,,,,,,,,,Zone,,
,,,HAS002,,,CS021696,شركه اسوار الربيع,,,,,,,2,SAT,25.28075,49.76943,"311,287,838,100,003","1,010,277,841",,2025-02-24,0,,0,500.0000000,ACTIVE,Missing Documents,Potential,Required,,,,,,,,,Zone,,
,,,HAS002,,,CS021697,شركه اسواق الامانه,,,,,,,2,WED,25.31963,49.57906,"311,372,526,700,003","2,250,375,240",,2025-02-24,0,,0,500.0000000,ACTIVE,Missing Documents,Potential,Required,,,,,,,,,Zone,,
,,,HAS002,,,CS021700,شركه القافله الخليجيه للتجاره,,,,,,,2,WED,25.31826,49.59163,"311,268,434,100,003","2,031,109,272",,2025-02-24,0,,0,500.0000000,ACTIVE,Missing Documents,Potential,Required,,,,,,,,,Zone,,
,,,HAS002,,,CS021701,شركه بصمه المدن للتجاره,,,,,,,1,THU,25.35264,49.75462,"311,273,820,800,003","450,915,215,166",,2025-02-24,0,,0,500.0000000,ACTIVE,Missing Documents,Potential,Required,,,,,,,,,Zone,,
,,,HAS002,,,CS021702,شركه روائج البركات للتجاره,,,,,,,2,SUN,25.35948,49.56883,"311,321,244,800,003","43,047,946,348",,2025-02-24,0,,0,500.0000000,ACTIVE,Missing Documents,Potential,Required,,,,,,,,,Zone,,
,,,HAS002,,,CS021703,شركه لاقيت للمواد الغذائيه,,,,,,,2,THU,25.32096,49.51113,"310,599,353,500,003","1,010,620,254",,2025-02-24,0,,0,500.0000000,ACTIVE,Missing Documents,Potential,Required,,,,,,,,,Zone,,
,,,HAS002,,,CS021705,شركه لاقيت للمواد الغذائيه,,,,,,,1,SUN,25.34453,49.58320,"310,599,353,500,003","1,010,620,254",,2025-02-24,0,,0,500.0000000,ACTIVE,Missing Documents,Potential,Required,,,,,,,,,Zone,,
,,,HAS002,,,CS021707,شركه منزل لذيذ التجاريه,,,,,,,1,SAT,25.36682,49.59851,"311,472,583,100,003","441,112,325,188",,2025-02-24,0,,0,500.0000000,ACTIVE,Missing Documents,Potential,Required,,,,,,,,,Zone,,
,,,HAS002,,,CS021709,شقق الأحساء جراند للشقق المخدومة,,,,,,,1,SAT,25.34605,49.58995,"310,072,402,500,003","7,017,339,222",,2025-02-24,0,,0,500.0000000,ACTIVE,Missing Documents,Potential,Required,,,,,,,,,Zone,,
,,,HAS002,,,CS021711,ضاحيه هجر,,,,,,,1,THU,25.35317,49.75397,"301,169,864,800,003","45,011,790,235",,2025-02-24,0,,0,500.0000000,ACTIVE,Missing Documents,Potential,Required,,,,,,,,,Zone,,
,,,HAS002,,,CS021714,فرع شركة ادنوك الدولية للتوزيع 2002,,,,,,,1,MON,25.35616,49.60911,"310,268,913,400,003","2,251,492,579",,2025-02-24,0,,0,500.0000000,ACTIVE,Missing Documents,Potential,Required,,,,,,,,,Zone,,
,,,HAS002,,,CS021715,فرع شركة ادنوك الدولية للتوزيع 2006,,,,,,,1,MON,25.34779,49.60930,"310,268,913,400,003","2,251,492,579",,2025-02-24,0,,0,500.0000000,ACTIVE,Missing Documents,Potential,Required,,,,,,,,,Zone,,
,,,HAS002,,,CS021718,قهوة الشيوخ,,,,,,,2,MON,25.34186,49.55651,"311,106,188,900,003","2,031,107,749",,2025-02-24,0,,0,500.0000000,ACTIVE,Missing Documents,Potential,Required,,,,,,,,,Zone,,
,,,HAS002,,,CS021721,لولوه السلمانيه,,,,,,,2,WED,25.30640,49.58294,"310,223,253,300,003","460,216,514,424",,2025-02-24,0,,0,500.0000000,ACTIVE,Missing Documents,Potential,Required,,,,,,,,,Zone,,
,,,HAS002,,,CS021722,محامص ارض الزعفران للمكسرات,,,,,,,1,WED,25.37621,49.68139,"310,606,874,900,003","2,251,497,400",,2025-02-24,0,,0,500.0000000,ACTIVE,Missing Documents,Potential,Required,,,,,,,,,Zone,,
,,,HAS002,,,CS021724,محامص الشرقية,,,,,,,2,WED,25.33253,49.58018,"311,368,939,400,003","2,031,105,292",,2025-02-24,0,,0,500.0000000,ACTIVE,Missing Documents,Potential,Required,,,,,,,,,Zone,,
,,,HAS002,,,CS021725,محامص وعد عامر بن حسن الراشدي التجارية,,,,,,,2,MON,25.33964,49.54928,"310,319,471,500,003","40,072,075,569",,2025-02-24,0,,0,500.0000000,ACTIVE,Missing Documents,Potential,Required,,,,,,,,,Zone,,
,,,HAS002,,,CS021728,محطة تموينات الضياء,,,,,,,2,SAT,25.33464,49.62717,"311,100,894,200,003","2,251,053,693",,2025-02-24,0,,0,500.0000000,ACTIVE,Missing Documents,Potential,Required,,,,,,,,,Zone,,
,,,HAS002,,,CS021729,محطة جنوب الطرف,,,,,,,1,THU,25.35344,49.72413,"300,467,369,700,003","3,909,481,139",,2025-02-24,0,,0,500.0000000,ACTIVE,Missing Documents,Potential,Required,,,,,,,,,Zone,,
,,,HAS002,,,CS021731,محل دكان الجفر للمواد الغذائية,,,,,,,1,THU,25.37646,49.72317,"310,749,466,700,003","3,909,468,083",,2025-02-24,0,,0,500.0000000,ACTIVE,Missing Documents,Potential,Required,,,,,,,,,Zone,,
,,,HAS002,,,CS021732,محل ربيع مرحبا للمواد الغذائية,,,,,,,1,SAT,25.37290,49.59604,"300,450,586,300,003","4,302,617,324",,2025-02-24,0,,0,500.0000000,ACTIVE,Missing Documents,Potential,Required,,,,,,,,,Zone,,
,,,HAS002,,,CS021734,محل فستق وتوت للحلويات و المكسرات,,,,,,,2,WED,25.33211,49.58162,"311,523,062,500,003","2,251,503,963",,2025-02-24,0,,0,500.0000000,ACTIVE,Missing Documents,Potential,Required,,,,,,,,,Zone,,
,,,HAS002,,,CS021736,محل محمد بن عبدالله بن حسين الهلال للمواد الغذائية,,,,,,,1,MON,25.35645,49.61406,"300,579,764,200,003","2,031,101,796",,2025-02-24,0,,0,500.0000000,ACTIVE,Missing Documents,Potential,Required,,,,,,,,,Zone,,
,,,HAS002,,,CS021737,محل مشرق الستين للمواد الغذائية,,,,,,,1,MON,25.35659,49.60783,"311,557,814,800,003","3,909,477,516",,2025-02-24,0,,0,500.0000000,ACTIVE,Missing Documents,Potential,Required,,,,,,,,,Zone,,
,,,HAS002,,,CS021738,محل منال عبدالعزيزالبحير لبيع المواد الغذائيه,,,,,,,2,WED,25.33396,49.57842,"310,051,318,900,003","41,073,479,868",,2025-02-24,0,,0,500.0000000,ACTIVE,Missing Documents,Potential,Required,,,,,,,,,Zone,,
,,,HAS002,,,CS021748,مركز انيس النفوس,,,,,,,1,TUE,25.35382,49.63369,"311,610,646,500,003","7,032,526,704",,2025-02-24,0,,0,500.0000000,ACTIVE,Missing Documents,Potential,Required,,,,,,,,,Zone,,
,,,HAS002,,,CS021750,مركز روان,,,,,,,2,TUE,25.31065,49.60644,"300,616,459,300,003","2,251,005,700",,2025-02-24,0,,0,500.0000000,ACTIVE,Missing Documents,Potential,Required,,,,,,,,,Zone,,
,,,HAS002,,,CS021752,مركز روعة الأخاء للمواد الغذائية,,,,,,,1,TUE,25.36004,49.62989,"305,005,143,100,003","2,251,065,595",,2025-02-24,0,,0,500.0000000,ACTIVE,Missing Documents,Potential,Required,,,,,,,,,Zone,,
,,,HAS002,,,CS021754,مركز عمر عوض العيد لبيع المواد الغذائية,,,,,,,1,WED,25.34910,49.64395,"305,000,727,900,003","2,252,101,853",,2025-02-24,0,,0,500.0000000,ACTIVE,Missing Documents,Potential,Required,,,,,,,,,Zone,,
,,,HAS002,,,CS021756,مركز مريم عبدالله بن صالح المصباح,,,,,,,2,TUE,25.33966,49.58060,"300,428,396,700,003","3,909,443,078",,2025-02-24,0,,0,500.0000000,ACTIVE,Missing Documents,Potential,Required,,,,,,,,,Zone,,
,,,HAS002,,,CS021760,موسسة اساطير الشرق للتجارة,,,,,,,1,SAT,25.36136,49.59240,"310,569,568,200,003","2,050,235,252",,2025-02-24,0,,0,500.0000000,ACTIVE,Missing Documents,Potential,Required,,,,,,,,,Zone,,
,,,HAS002,,,CS021762,موسسة سوق  المجد للتجارة,,,,,,,2,THU,25.33247,49.55524,"310,403,898,900,003","2,031,101,551",,2025-02-24,0,,0,500.0000000,ACTIVE,Missing Documents,Potential,Required,,,,,,,,,Zone,,
,,,HAS002,,,CS021765,موسسه وعد عامر بن حسن,,,,,,,2,MON,25.33950,49.54938,"310,319,471,500,003","1,112,281,439",,2025-02-24,0,,0,500.0000000,ACTIVE,Missing Documents,Potential,Required,,,,,,,,,Zone,,
,,,HAS002,,,CS021769,مؤسسة ارين بلس التجارية,,,,,,,1,THU,25.35654,49.74117,"300,421,859,400,003","4,212,595,721",,2025-02-24,0,,0,500.0000000,ACTIVE,Missing Documents,Potential,Required,,,,,,,,,Zone,,
,,,HAS002,,,CS021771,مؤسسة السامرة التجارية,,,,,,,1,THU,25.36623,49.72391,"300,643,578,300,003","2,250,016,282",,2025-02-24,0,,0,500.0000000,ACTIVE,Missing Documents,Potential,Required,,,,,,,,,Zone,,
,,,HAS002,,,CS021773,مؤسسة الفتح النموذجي للمواد الغذائية,,,,,,,1,TUE,25.35515,49.62843,"311,033,693,600,003","441,012,185,096",,2025-02-24,0,,0,500.0000000,ACTIVE,Missing Documents,Potential,Required,,,,,,,,,Zone,,
,,,HAS002,,,CS021777,مؤسسة دبس التمر للتجارة,,,,,,,1,SUN,25.36427,49.58488,"300,523,473,800,003","3,909,480,545",,2025-02-24,0,,0,500.0000000,ACTIVE,Missing Documents,Potential,Required,,,,,,,,,Zone,,
,,,HAS002,,,CS021780,مؤسسة راضي احمد العثمان المنهالي التجارية 2,,,,,,,2,TUE,25.32789,49.58842,"300,422,257,900,003","2,251,025,503",,2025-02-24,0,,0,500.0000000,ACTIVE,Missing Documents,Potential,Required,,,,,,,,,Zone,,
,,,HAS002,,,CS021785,مؤسسة راضي احمد العثمان المنهالي التجارية 8,,,,,,,1,SUN,25.35671,49.58518,"300,422,257,900,003","2,251,025,503",,2025-02-24,0,,0,500.0000000,ACTIVE,Missing Documents,Potential,Required,,,,,,,,,Zone,,
,,,HAS002,,,CS021786,مؤسسة راضي احمد عثمان المنهالى,,,,,,,2,TUE,25.32803,49.58820,"310,349,118,200,003","2,251,493,598",,2025-02-24,0,,0,500.0000000,ACTIVE,Missing Documents,Potential,Required,,,,,,,,,Zone,,
,,,HAS002,,,CS021787,مؤسسة ركن كيان,,,,,,,2,THU,25.31037,49.55666,"302,259,807,900,003","1,010,648,604",,2025-02-24,0,,0,500.0000000,ACTIVE,Missing Documents,Potential,Required,,,,,,,,,Zone,,
,,,HAS002,,,CS021788,مؤسسة زاد السلمانية للمواد الغذائية,,,,,,,2,MON,25.34544,49.55904,"301,044,169,200,003","2,251,054,289",,2025-02-24,0,,0,500.0000000,ACTIVE,Missing Documents,Potential,Required,,,,,,,,,Zone,,
,,,HAS002,,,CS021789,مؤسسة زهره يحي علي الخيواني,,,,,,,2,SUN,25.35996,49.56863,"310,442,508,400,003","2,251,496,849",,2025-02-24,0,,0,500.0000000,ACTIVE,Missing Documents,Potential,Required,,,,,,,,,Zone,,
,,,HAS002,,,CS021792,مؤسسة شاكر طاهر محمد الشواف للمواد الغذائية,,,,,,,2,SUN,25.35209,49.56723,"300,601,767,200,003","2,031,100,988",,2025-02-24,0,,0,500.0000000,ACTIVE,Missing Documents,Potential,Required,,,,,,,,,Zone,,
,,,HAS002,,,CS021793,مؤسسة طنجة العالية,,,,,,,2,TUE,25.31167,49.59850,"300,034,616,600,003","2,251,506,112",,2025-02-24,0,,0,500.0000000,ACTIVE,Missing Documents,Potential,Required,,,,,,,,,Zone,,
,,,HAS002,,,CS021796,مؤسسة قمة العليا للتجارة,,,,,,,1,TUE,25.37637,49.62562,"310,967,740,600,003","2,051,243,637",,2025-02-24,0,,0,500.0000000,ACTIVE,Missing Documents,Potential,Required,,,,,,,,,Zone,,
,,,HAS002,,,CS021799,مؤسسة معلمين للمواد الغذائية,,,,,,,2,TUE,25.31218,49.60554,"310,275,291,200,003","2,251,492,578",,2025-02-24,0,,0,500.0000000,ACTIVE,Missing Documents,Potential,Required,,,,,,,,,Zone,,
,,,HAS002,,,CS021806,مؤسسة نور النجوم للمود الغذائية,,,,,,,1,MON,25.36956,49.60199,"310,080,166,600,003","2,251,502,451",,2025-02-24,0,,0,500.0000000,ACTIVE,Missing Documents,Potential,Required,,,,,,,,,Zone,,
,,,HAS002,,,CS021807,مؤسسة هدى محسن بن مبارك المهري للمواد الغذائية,,,,,,,2,SUN,25.34837,49.57305,"310,358,955,600,003","2,031,101,305",,2025-02-24,0,,0,500.0000000,ACTIVE,Missing Documents,Potential,Required,,,,,,,,,Zone,,
,,,HAS002,,,CS021810,مؤسسة وهب الخليج للمواد الغذائية  1,,,,,,,2,THU,25.30113,49.56897,"310,100,267,900,003","2,031,108,523",,2025-02-24,0,,0,500.0000000,ACTIVE,Missing Documents,Potential,Required,,,,,,,,,Zone,,
,,,HAS002,,,CS021811,مؤسسة وهب الخليج للمواد الغذائية  2,,,,,,,2,THU,25.29206,49.55874,"310,100,267,900,003","2,031,108,523",,2025-02-24,0,,0,500.0000000,ACTIVE,Missing Documents,Potential,Required,,,,,,,,,Zone,,
,,,HAS002,,,CS021812,مؤسسةدكان الطريق للحلويات 2,,,,,,,2,TUE,25.33049,49.59465,"302,243,546,300,003","2,251,067,736",,2025-02-24,0,,0,500.0000000,ACTIVE,Missing Documents,Potential,Required,,,,,,,,,Zone,,
,,,HAS002,,,CS021814,مؤسسه الرهش التجاريه,,,,,,,1,TUE,25.36452,49.62335,"300,041,537,200,003","7,002,442,197",,2025-02-24,0,,0,500.0000000,ACTIVE,Missing Documents,Potential,Required,,,,,,,,,Zone,,
,,,HAS002,,,CS021815,مؤسسه دكان الطريق للحلويات والمكسرات,,,,,,,2,TUE,25.33060,49.59462,"302,243,546,300,003","2,251,067,736",,2025-02-24,0,,0,500.0000000,ACTIVE,Missing Documents,Potential,Required,,,,,,,,,Zone,,
,,,HAS002,,,CS021817,مؤسسه كهف العجائب التجاريه,,,,,,,2,TUE,25.32878,49.58972,"300,377,376,100,003","3,909,445,936",,2025-02-24,0,,0,500.0000000,ACTIVE,Missing Documents,Potential,Required,,,,,,,,,Zone,,
,,,HAS002,,,CS021819,نجوم محاسن للمواد الغذائية,,,,,,,1,TUE,25.35087,49.61936,"311,345,637,600,003","2,251,496,845",,2025-02-24,0,,0,500.0000000,ACTIVE,Missing Documents,Potential,Required,,,,,,,,,Zone,,
,,,HAS002,,,CS021822,واحة روابي,,,,,,,1,THU,25.36041,49.72775,"300,435,372,900,003","2,031,103,851",,2025-02-24,0,,0,500.0000000,ACTIVE,Missing Documents,Potential,Required,,,,,,,,,Zone,,
,,,HAS002,,,CS021823,وورلد مارت 2,,,,,,,2,SAT,25.28122,49.77099,"311,631,501,400,003","2,251,498,616",,2025-02-24,0,,0,500.0000000,ACTIVE,Missing Documents,Potential,Required,,,,,,,,,Zone,,
